timestamp,accel_inconsistency_m_s_s,gyro_inconsistency_rad_s,mag_inconsistency_ga
2930485,0.152308,0.00737186,0.0437198
3132027,0.169769,0.00694324,0.0440332
3337039,0.157401,0.00665358,0.0489626
3537548,0.169185,0.00626197,0.0540649
3737524,0.180471,0.00645401,0.0567122
3941093,0.133945,0.00772977,0.0466433
4145489,0.172664,0.00738502,0.0562686
4345890,0.149045,0.00744571,0.047952
4547167,0.136917,0.00642461,0.0587925
4748751,0.153919,0.00726768,0.052932
4947937,0.139832,0.00831816,0.0531577
5151554,0.16931,0.00686958,0.0503111
5356612,0.136764,0.0077331,0.0546464
5559516,0.181006,0.00795932,0.0510042
5759514,0.17577,0.00857371,0.0526538
5964720,0.141555,0.00782664,0.0534697
6165912,0.142784,0.00884459,0.0543986
6365504,0.143125,0.00978039,0.0522047
6569093,0.151349,0.00928473,0.0402238
6773776,0.176594,0.00797634,0.0492895
6976997,0.165702,0.00851538,0.0487552
7177102,0.158927,0.00771671,0.0527776
7377054,0.136313,0.00929567,0.047446
7581517,0.170325,0.00850645,0.0471822
7783151,0.188045,0.00725976,0.0546182
7983936,0.151437,0.00925559,0.0531784
8186654,0.137737,0.00765044,0.0489893
8391880,0.171245,0.00823252,0.0487596
8593613,0.141185,0.00820822,0.0468694
8796547,0.169474,0.00893092,0.0441267
8998230,0.169408,0.00830507,0.045113
9202432,0.14929,0.0133567,0.0476197
9403079,0.204659,0.00963144,0.0581909
9606216,0.174838,0.0088216,0.0537702
9806155,0.151103,0.00778454,0.0579554
10010556,0.163527,0.00719352,0.0493275
10214198,0.147823,0.00696247,0.0471155
10416606,0.153433,0.0085035,0.0529707
10621702,0.136918,0.00829981,0.0537828
10821336,0.15548,0.00917653,0.0548558
11020898,0.171277,0.00982235,0.053369
11224616,0.171993,0.00747867,0.0518257
11428853,0.150638,0.00948113,0.0509901
11630487,0.160607,0.00833781,0.0567479
11832035,0.148317,0.00866462,0.0532712
12032176,0.149629,0.00920862,0.0527796
12232048,0.21758,0.0100271,0.0532327
12435757,0.171601,0.00922793,0.0519965
12638263,0.189077,0.00900543,0.0491204
12842477,0.186233,0.00897636,0.0553565
13043210,0.14581,0.0100024,0.0560207
13245054,0.154762,0.00782296,0.0522939
13448625,0.189839,0.00753613,0.0509226
13648597,0.18162,0.007713,0.0479075
13849446,0.165409,0.00794692,0.0516745
14053834,0.16922,0.00791568,0.0516993
14253876,0.1645,0.00845162,0.054371
14457363,0.195892,0.00713087,0.0539842
14657319,0.164189,0.00966355,0.0488617
14862261,0.140323,0.00811351,0.0500275
15065377,0.1625,0.00975551,0.0475102
15267110,0.150427,0.00945732,0.0399691
15472625,0.138973,0.00906686,0.0500021
15672700,0.157055,0.00699444,0.0482577
15874390,0.152521,0.00942596,0.0520453
16075033,0.183938,0.00936347,0.0501076
16274945,0.182655,0.0089773,0.0479277
16478232,0.181156,0.00904956,0.0520648
16682733,0.163023,0.0063263,0.0547903
16886310,0.171339,0.00814226,0.0506268
17086124,0.181812,0.00755623,0.0229465
17293030,0.162718,0.00896382,0.052837
17493478,0.14732,0.00921535,0.0560629
17697470,0.196858,0.00844773,0.05265
17899852,0.153948,0.00926062,0.0516594
18100666,0.161568,0.0087605,0.0556484
18303025,0.183361,0.00917805,0.0546711
18507800,0.185098,0.0098461,0.0572571
18707232,0.169744,0.00886159,0.0588751
18910960,0.149107,0.0101832,0.060557
19115481,0.182323,0.00733357,0.0577878
19316018,0.153263,0.00896495,0.0561198
19516042,0.154889,0.00725626,0.0649898
19719844,0.173457,0.00848057,0.0542575
19922199,0.182481,0.00881828,0.051754
20126982,0.177865,0.00918939,0.0496271
20328848,0.155823,0.00996496,0.0583351
20532543,0.143423,0.00857301,0.0557354
20732642,0.19661,0.00796859,0.0529573
20932653,0.196513,0.0089696,0.0550701
21137018,0.1433,0.00751171,0.0513837
21338165,0.165841,0.00953424,0.0559786
21541348,0.145034,0.00888098,0.0504392
21743002,0.163598,0.0115683,0.0521259
21947353,0.187823,0.00867932,0.0510944
22147304,0.139329,0.00902497,0.046577
22351834,0.180041,0.00910717,0.0457926
22556842,0.171518,0.00939898,0.0442043
22756295,0.168945,0.0103754,0.0506865
22959870,0.172717,0.00816319,0.0556783
23164019,0.168101,0.00986968,0.0518255
23365627,0.149456,0.00933894,0.0602437
23569458,0.169303,0.00765785,0.0514905
23774709,0.153819,0.00726402,0.0542296
23974980,0.163355,0.0101719,0.0487976
24178163,0.157837,0.0100817,0.0555286
24383382,0.159142,0.0095047,0.0599657
24586182,0.18838,0.00959887,0.052481
24787933,0.184695,0.00916495,0.0597142
24992017,0.172275,0.00971761,0.0534304
25192069,0.15586,0.00866713,0.0603794
25392872,0.154108,0.0103354,0.0556902
25595820,0.162303,0.00985365,0.0585159
25800070,0.150209,0.00801921,0.0601067
26003764,0.168877,0.00866832,0.056212
26206215,0.169597,0.00928413,0.0518197
26406260,0.154197,0.00837867,0.0576104
26606988,0.145207,0.00881703,0.0598274
26811733,0.147472,0.00939631,0.0539861
27014981,0.149479,0.00900632,0.0562977
27214948,0.159046,0.0106345,0.0501627
27416597,0.186639,0.0100562,0.0612452
27621529,0.164809,0.0106532,0.0558745
27821003,0.179516,0.0105172,0.0497024
28025431,0.16911,0.00946906,0.0499867
28229950,0.152033,0.00789346,0.050584
28431282,0.176319,0.00939132,0.0568434
28635021,0.159328,0.00926664,0.0426426
28834959,0.164295,0.00942461,0.0525779
29034806,0.157883,0.00918409,0.0522762
29240072,0.162518,0.00889002,0.0501813
29442974,0.163627,0.0101043,0.0508977
29647814,0.164923,0.00914472,0.0520273
29848007,0.178337,0.00859585,0.04973
30050524,0.15499,0.00849067,0.0535883
30250246,0.179942,0.010537,0.0495407
30453361,0.195818,0.00979694,0.0502002
30658513,0.156171,0.0122362,0.0595191
30858484,0.159381,0.0101079,0.0612099
31062197,0.17302,0.0101849,0.0527515
31266987,0.177889,0.00969564,0.0539193
31468620,0.163748,0.00900716,0.0536735
31671837,0.150393,0.00998845,0.0586636
31876791,0.160179,0.0103475,0.0589343
32076865,0.156295,0.00815386,0.0707368
32277392,0.165803,0.00911472,0.0577702
32477288,0.162115,0.00941396,0.0534011
32678737,0.16888,0.0103796,0.0583107
32882268,0.181754,0.00823607,0.0576198
33087852,0.19134,0.00954092,0.059819
33290959,0.163085,0.0103403,0.0451924
33491128,0.173695,0.00744335,0.0561149
33695213,0.177776,0.00787623,0.0531034
33896887,0.1794,0.00813651,0.0524304
34097640,0.167799,0.00727573,0.0514336
34301423,0.181573,0.0104581,0.0503666
34505626,0.171839,0.00807667,0.0571743
34705611,0.183361,0.0110231,0.05521
34907897,0.21536,0.00837089,0.0526915
35111034,0.204527,0.0104028,0.0498478
35310940,0.175942,0.00842246,0.0521165
35515484,0.161081,0.00954868,0.053212
35717115,0.184056,0.0111508,0.0488935
35919323,0.189227,0.00947344,0.049968
36119899,0.16131,0.00781166,0.0443236
36320264,0.170125,0.00918612,0.0530239
36521671,0.173494,0.00925546,0.0553469
36723059,0.205693,0.00866647,0.0576731
36926278,0.169574,0.00944955,0.060291
37126948,0.145772,0.00724758,0.0526579
37326990,0.174513,0.0114786,0.0539955
37533940,0.152369,0.00895722,0.0554309
37733807,0.208644,0.00885029,0.0608263
37937416,0.183483,0.00818219,0.0575307
38139852,0.162532,0.00925623,0.0558723
38344753,0.163436,0.0104638,0.0580084
38548112,0.18202,0.00938592,0.0605149
38751041,0.169345,0.00942786,0.0580531
38950994,0.162249,0.00923325,0.0602638
39155404,0.170219,0.0110206,0.0579358
39359080,0.157224,0.0111026,0.0568039
39559112,0.156226,0.00872641,0.0559259
39759006,0.187872,0.00840747,0.0618973
39964643,0.172379,0.00863821,0.0580745
40165634,0.162584,0.0123479,0.052073
40370274,0.151833,0.0103937,0.060106
40574469,0.193146,0.00932016,0.0564599
40776683,0.191107,0.0105016,0.0576596
40976807,0.189018,0.0109477,0.0570841
41177675,0.18578,0.0089652,0.0557028
41381370,0.177184,0.0112069,0.054273
41583086,0.176717,0.0104615,0.0528343
41787248,0.170379,0.00768308,0.058459
41990932,0.212255,0.00783623,0.0520567
42191013,0.171056,0.00818154,0.0574143
42391794,0.158273,0.0097282,0.0514226
42596000,0.151089,0.00824926,0.0438743
42798971,0.160093,0.00942164,0.0555033
43002147,0.185203,0.0105366,0.0546633
43207008,0.198029,0.0113323,0.0555646
43407222,0.193259,0.0112855,0.0498024
43610981,0.179355,0.0094233,0.0577126
43815174,0.166002,0.0106837,0.0506783
44017380,0.186379,0.00939876,0.0463145
44220616,0.165057,0.010023,0.0553883
44420696,0.184948,0.0106325,0.0588853
44620760,0.163183,0.0104871,0.0577013
44824887,0.150629,0.00940811,0.0569244
45028595,0.170159,0.00929824,0.0561539
45229406,0.170463,0.00949866,0.059687
45431014,0.179771,0.0105192,0.0540894
45631771,0.170748,0.0101491,0.057727
45831776,0.184834,0.00898498,0.0564999
46036747,0.175493,0.0111788,0.0548782
46237878,0.160267,0.00978187,0.0547491
46437762,0.161773,0.00926439,0.0583749
46641397,0.204382,0.0108541,0.0571483
46845612,0.177746,0.00837103,0.0619556
47045629,0.194815,0.00986706,0.0562119
47249070,0.166955,0.0077575,0.0455609
47449736,0.202081,0.00777476,0.0540636
47653349,0.185486,0.00877296,0.0576388
47857948,0.171041,0.0109088,0.0532261
48057711,0.165438,0.00852561,0.0579992
48261395,0.182551,0.00864613,0.0517918
48463031,0.165518,0.0079472,0.0539298
48663814,0.180471,0.0100269,0.0543747
48868700,0.162287,0.0106405,0.0536614
49071793,0.188691,0.0106663,0.0487929
49271864,0.190212,0.0109938,0.0514485
49471795,0.181581,0.0104592,0.0551059
49676195,0.182357,0.00963298,0.0512325
49878510,0.166001,0.0091532,0.0550711
50078292,0.158339,0.00997605,0.0499819
50282208,0.174308,0.0110336,0.056879
50486931,0.161373,0.0103578,0.0575379
50686613,0.174601,0.0100055,0.0577171
50891872,0.186358,0.0100633,0.0543734
51091925,0.180986,0.00852919,0.0546472
51291839,0.179322,0.0107023,0.058215
51496402,0.178624,0.00907697,0.0531146
51699913,0.183372,0.00936973,0.0568751
51904554,0.170947,0.00934355,0.0612353
52104809,0.184883,0.00968336,0.0546562
52306457,0.195514,0.00986229,0.057071
52507455,0.161794,0.00783108,0.0614778
52711019,0.197437,0.0108455,0.0569712
52911829,0.163866,0.0111673,0.0525244
53113430,0.154861,0.00931202,0.0586478
53317664,0.168576,0.00893114,0.0569035
53518300,0.189696,0.00798803,0.0608193
53717625,0.194093,0.00957711,0.0583633
53921402,0.162743,0.00879601,0.055604
54123804,0.159431,0.00985443,0.0557549
54328844,0.162572,0.0092187,0.0571452
54531954,0.173968,0.0113531,0.0504665
54731739,0.171767,0.00963554,0.056379
54931775,0.17385,0.0110348,0.0596968
55136792,0.197441,0.00865334,0.0560851
55339844,0.193913,0.00897325,0.0570746
55544310,0.222713,0.0090897,0.0515436
55744852,0.190748,0.00976377,0.0524725
55947807,0.206212,0.00911143,0.0504941
56152589,0.175556,0.00952362,0.0522292
56353590,0.178332,0.00836153,0.0577817
56557423,0.206931,0.0109167,0.0541278
56758296,0.162637,0.00997484,0.0517108
56958228,0.205525,0.0107423,0.0809398
57162420,0.210569,0.0101457,0.0617705
57366216,0.183214,0.00904203,0.0580657
57571117,0.204988,0.00857857,0.053334
57772937,0.178026,0.0100937,0.0562355
57975757,0.177625,0.00955046,0.0619744
58176565,0.176069,0.00996396,0.0579916
58379024,0.166878,0.0106926,0.0607045
58579835,0.164894,0.0092998,0.0599565
58784527,0.165377,0.0113828,0.0597413
58987815,0.165178,0.00915736,0.0715909
59187766,0.187226,0.0108537,0.0588207
59393583,0.187338,0.0102898,0.0551272
59593821,0.190461,0.00838825,0.0585123
59793847,0.192853,0.00920479,0.0643668
59997494,0.158535,0.0112565,0.0566564
60201835,0.160023,0.0111963,0.0604867
60402401,0.173471,0.0107107,0.0551238
60603272,0.174646,0.0113607,0.0544658
60804787,0.214675,0.0114285,0.0612569
61004797,0.170451,0.00956727,0.0572892
61208589,0.186799,0.00747574,0.055849
61411009,0.189739,0.0100329,0.0527049
61615401,0.185147,0.00968819,0.0560124
61815301,0.17587,0.0117006,0.0505006
62018939,0.180473,0.0106083,0.0547338
62219852,0.160733,0.0111039,0.0617527
62424544,0.183334,0.0105419,0.0518168
62626419,0.190519,0.00926629,0.0559451
62829473,0.172601,0.00969321,0.0592013
63033595,0.210179,0.0106192,0.0595905
63234527,0.206079,0.0109084,0.0538234
63438210,0.196895,0.00926479,0.0428024
63642357,0.1757,0.0103599,0.0547652
63842979,0.166223,0.00895662,0.0503391
64042419,0.173559,0.0102574,0.0549835
64247891,0.175475,0.0100407,0.053297
64447903,0.159135,0.0082753,0.053612
64647865,0.155454,0.00865952,0.057706
64851992,0.194158,0.00796155,0.058335
65055543,0.166919,0.00834991,0.0640079
65260512,0.175705,0.00973196,0.022923
65460079,0.232085,0.00945323,0.0327454
65665456,0.19502,0.0104791,0.0559631
65865484,0.167848,0.00832266,0.0648592
66065322,0.189553,0.00994659,0.0644951
66271315,0.173316,0.0100751,0.0645814
66474202,0.193873,0.0104463,0.0595649
66676630,0.178046,0.00984401,0.06138
66877347,0.18173,0.00951257,0.0604707
67081930,0.161861,0.00949237,0.0540705
67285469,0.169297,0.0114233,0.0557881
67489610,0.173743,0.00988746,0.0528494
67690525,0.186334,0.00945209,0.0573522
67893384,0.179904,0.0111168,0.0584827
68094983,0.185359,0.0083257,0.0573519
68295042,0.1912,0.00966128,0.0587225
68499475,0.169093,0.0104236,0.055346
68703700,0.194267,0.0101628,0.0530618
68903757,0.15953,0.0108347,0.0510111
69108281,0.177888,0.0110133,0.054669
69310181,0.197052,0.0108587,0.0556637
69509678,0.176427,0.00908429,0.0473975
69713422,0.170804,0.00878884,0.0512791
69918272,0.199759,0.00929151,0.0453075
70121402,0.160976,0.0104608,0.058518
70322137,0.159705,0.00925851,0.053148
70523792,0.164717,0.0094162,0.0595269
70723793,0.209293,0.0118553,0.0519521
70928010,0.171601,0.00952454,0.0554897
71131916,0.164075,0.0113891,0.0533309
71336156,0.175227,0.0108236,0.0544334
71536770,0.176564,0.0105212,0.061448
71740619,0.168563,0.0107505,0.0626731
71942229,0.169194,0.0117647,0.0550994
72148231,0.199557,0.00904982,0.0606403
72349942,0.187049,0.0121922,0.0597328
72550244,0.191752,0.0119584,0.0612795
72753381,0.172529,0.00996224,0.0670756
72954149,0.160338,0.0102422,0.0618185
73158524,0.168846,0.0100552,0.0629114
73359234,0.167137,0.00994765,0.0593095
73562117,0.169407,0.00964882,0.0623937
73763753,0.183429,0.00975617,0.0621163
73968315,0.198083,0.0104542,0.0644418
74169339,0.176917,0.00770083,0.0622317
74372569,0.216588,0.00847254,0.0643124
74574192,0.169176,0.00848993,0.0604021
74778989,0.176529,0.00930185,0.0494957
74982211,0.203123,0.00997627,0.0587376
75182354,0.194765,0.0101112,0.0526961
75382234,0.168471,0.0103025,0.0600262
75587233,0.180831,0.0085259,0.0608194
75787847,0.16109,0.01259,0.0550562
75988836,0.174411,0.0124122,0.0591114
76190513,0.186323,0.00859877,0.0542702
76393362,0.178247,0.00961466,0.0507732
76593415,0.168065,0.00900153,0.0453444
76797694,0.16758,0.00951045,0.0417184
77001373,0.185869,0.0107023,0.0517364
77201439,0.210267,0.0106523,0.0544253
77403046,0.182305,0.0105279,0.0555529
77607462,0.215042,0.00974899,0.0577674
77811140,0.193944,0.00839083,0.0519138
78011060,0.208782,0.0116087,0.0531687
78215198,0.203673,0.00975006,0.0565405
78416617,0.170407,0.00916684,0.0593074
78616073,0.179889,0.0087531,0.057529
78818709,0.16531,0.00989037,0.0599407
79019020,0.204978,0.010256,0.0575783
79221680,0.168681,0.0085433,0.0634043
79424614,0.165909,0.00933859,0.0560124
79624589,0.214968,0.00932205,0.05799
79829765,0.168158,0.00900154,0.0645948
80030289,0.180642,0.0113429,0.0614195
80230324,0.166494,0.0092223,0.0642571
80430416,0.175759,0.0111192,0.0652923
80632903,0.165425,0.0105835,0.0633788
80833331,0.172122,0.0102408,0.0582017
81034443,0.166909,0.0107019,0.0616694
81234484,0.161292,0.0115098,0.0593875
81438217,0.183462,0.0115007,0.0589785
81642450,0.168915,0.0121696,0.0581267
81843318,0.18778,0.010425,0.0565313
82042920,0.196838,0.0102688,0.0576774
82246197,0.173498,0.00860432,0.053665
82450995,0.179026,0.0100003,0.0662014
82652876,0.169853,0.0111354,0.0560312
82856602,0.18013,0.0103438,0.0596767
83060868,0.175789,0.0111322,0.0601029
83261045,0.174997,0.0118623,0.0581092
83461442,0.168196,0.0102161,0.0533058
83665387,0.164932,0.0105639,0.0506845
83867094,0.164044,0.0093519,0.0537264
84071197,0.162432,0.0114274,0.0575518
84272024,0.211329,0.011778,0.0587789
84472597,0.209958,0.0107497,0.0594427
84675706,0.183344,0.010218,0.0536019
84877436,0.167831,0.00927761,0.0618623
85077434,0.165116,0.0117577,0.0549223
85282170,0.165679,0.0122921,0.0588396
85485413,0.166408,0.0111809,0.0561505
85690190,0.185564,0.0105488,0.0597757
85889897,0.197609,0.0106587,0.062621
86094203,0.175225,0.0108885,0.0616759
86295780,0.171121,0.00994241,0.0587319
86500102,0.167191,0.0092483,0.0627141
86700698,0.182522,0.00968989,0.0624783
86903750,0.168689,0.00930691,0.0621026
87103808,0.175971,0.0107923,0.0589748
87308090,0.173164,0.0105235,0.0617777
87511837,0.171639,0.00969303,0.0672621
87714215,0.190101,0.00844107,0.067117
87918484,0.202498,0.00925271,0.0658916
88118576,0.201376,0.0109168,0.0624294
88318517,0.166245,0.0111941,0.0547001
88522994,0.185115,0.0115201,0.0585048
88727172,0.209517,0.00980532,0.0558121
88930249,0.177793,0.01091,0.0628402
89130946,0.182438,0.00977887,0.0591633
89330472,0.187439,0.0117354,0.0560579
89533348,0.176557,0.0111293,0.0511481
89735074,0.180887,0.00825964,0.0534048
89935014,0.167609,0.00985874,0.047178
90140580,0.184804,0.00983981,0.053138
90342989,0.190634,0.010699,0.0571442
90543806,0.182262,0.0113021,0.0562607
90743774,0.201561,0.0102937,0.0668815
90948054,0.191177,0.0108623,0.0571681
91151681,0.170764,0.0105814,0.0565917
91353420,0.192124,0.010098,0.0543902
91558432,0.212419,0.00997739,0.0624217
91759065,0.186023,0.011855,0.061726
91958498,0.174358,0.00991194,0.0624938
92162118,0.181354,0.0117334,0.058048
92366432,0.171215,0.00976062,0.0641276
92569142,0.193616,0.0103065,0.0624096
92771791,0.181944,0.00919324,0.06306
92972636,0.16815,0.0101874,0.0672199
93172595,0.165039,0.0118603,0.0642461
93377077,0.170783,0.0100854,0.0547291
93580616,0.186926,0.0105712,0.062317
93782220,0.18461,0.00945448,0.0636211
93986468,0.172128,0.010096,0.0676486
94190279,0.200745,0.0115833,0.0607456
94390245,0.175632,0.0110582,0.0543376
94597643,0.185473,0.0101136,0.0555795
94797716,0.182972,0.0103465,0.0573764
95000669,0.17422,0.00974468,0.0628739
95205405,0.170115,0.00860996,0.0609305
95408647,0.208165,0.00930381,0.0583979
95608669,0.196826,0.0111994,0.0561498
95815221,0.186532,0.0121209,0.0513708
96015485,0.17262,0.0106981,0.0576145
96219052,0.173381,0.0110253,0.0554072
96423222,0.168006,0.0102633,0.0551858
96623814,0.188685,0.0104102,0.0597135
96823432,0.18868,0.0105155,0.0604116
97027078,0.177269,0.0105607,0.0538999
97231363,0.175292,0.0110434,0.0575623
97431804,0.171558,0.0090307,0.0560799
97633667,0.204134,0.00981421,0.0599491
97837534,0.209423,0.0106178,0.0535695
98037488,0.202519,0.0097435,0.0548762
98242177,0.164916,0.00883954,0.0526876
98445447,0.176266,0.0118961,0.0542186
98646139,0.182012,0.0128093,0.0540697
98847797,0.175402,0.0101649,0.0564043
99052041,0.184545,0.00967921,0.0610579
99252681,0.225732,0.00934113,0.0631947
99452323,0.217985,0.0108744,0.0599575
99655803,0.190634,0.010357,0.0680179
99860096,0.209201,0.0107083,0.0234299
100060356,0.177076,0.0114913,0.0823512
100260719,0.16346,0.0107133,0.0609846
100460110,0.217159,0.00873927,0.06272
100665378,0.176664,0.0128676,0.0629382
100865413,0.174688,0.0104995,0.0590543
101069858,0.17522,0.0100199,0.0655046
101273449,0.185164,0.0101912,0.0602814
101477708,0.21304,0.00900751,0.0610481
101678268,0.187179,0.0105441,0.0608903
101878233,0.19361,0.008961,0.062389
102081416,0.197049,0.00922079,0.0620858
102285784,0.18321,0.0112635,0.0584402
102487523,0.184191,0.0102257,0.0559268
102690938,0.176791,0.0102712,0.0550261
102895816,0.182192,0.0111218,0.052318
103095201,0.204816,0.0104982,0.060678
103299057,0.172972,0.0101013,0.0598848
103503414,0.191002,0.0113497,0.0563184
103707111,0.165262,0.00919186,0.0490125
103906991,0.167802,0.00908699,0.037932
104112000,0.172291,0.00983767,0.0536483
104313754,0.205491,0.0111348,0.0540518
104513349,0.218829,0.0107602,0.0542014
104716561,0.221595,0.00973915,0.0578381
104918220,0.212252,0.0094029,0.0582366
105119828,0.180707,0.010617,0.0573357
105324747,0.215108,0.0118578,0.0586667
105524161,0.215854,0.009982,0.0548522
105727914,0.191905,0.00962381,0.058036
105932136,0.209175,0.00940499,0.0630959
106135822,0.169706,0.010923,0.0640048
106338244,0.170513,0.0104907,0.0609259
106542404,0.184631,0.00882965,0.0597987
106742965,0.169792,0.0098068,0.0666281
106947025,0.209901,0.0120747,0.0606425
107151801,0.208114,0.00936057,0.0523733
107351276,0.227714,0.010298,0.0637173
107556567,0.19012,0.00977894,0.0604084
107756636,0.187089,0.0099509,0.0595068
107956617,0.191114,0.0108971,0.0640959
108159127,0.188299,0.0116206,0.0559956
108359947,0.213392,0.0101263,0.0653987
108564350,0.191059,0.00975532,0.0619313
108764788,0.217796,0.0102758,0.0632351
108964832,0.169955,0.0106653,0.0614223
109168614,0.185488,0.0086849,0.0620285
109370279,0.21132,0.0113087,0.0654628
109570228,0.192216,0.00969018,0.0603247
109775144,0.180826,0.0104442,0.0531931
109978238,0.202264,0.0091771,0.0601688
110182427,0.19864,0.00990041,0.0566341
110382388,0.210339,0.00941158,0.0545366
110585430,0.16992,0.0115372,0.0509478
110785107,0.197616,0.0099243,0.0568451
110988551,0.222025,0.00940102,0.0581734
111194192,0.183874,0.00916091,0.0576735
111393654,0.195615,0.0104845,0.0574278
111599030,0.212567,0.0123416,0.0662972
111799050,0.225198,0.0096757,0.0592857
111999852,0.211624,0.0095672,0.0585981
112205115,0.195255,0.0100306,0.0643976
112407793,0.168136,0.0105307,0.061806
112610253,0.199764,0.00927815,0.0636453
112814496,0.169696,0.0106293,0.0653243
113017457,0.176134,0.00984687,0.0716723
113218604,0.194559,0.0102161,0.0598676
113420952,0.21185,0.0103734,0.0572648
113624662,0.195038,0.011301,0.0589647
113829067,0.212226,0.00954536,0.0649569
114032620,0.172476,0.00961864,0.0620947
114232612,0.208544,0.0113403,0.0675541
114437478,0.214271,0.00937798,0.0666627
114638659,0.173942,0.0116665,0.0666071
114839445,0.188333,0.00977015,0.0611664
115042967,0.189256,0.0109207,0.0625911
115243837,0.194507,0.00990755,0.0539222
115446265,0.176412,0.01112,0.060213
115646204,0.163653,0.00889308,0.0665222
115851102,0.168029,0.0101596,0.0636403
116054288,0.202126,0.0102717,0.0551577
116255016,0.185051,0.0120697,0.0530934
116454922,0.171115,0.0108316,0.0489511
116661124,0.192831,0.0105822,0.0525361
116860894,0.19294,0.00979054,0.0598169
117065448,0.184583,0.0119965,0.058981
117267009,0.178762,0.0120174,0.0545913
117471903,0.229921,0.0101868,0.052632
117674986,0.199758,0.0103768,0.0607165
117879380,0.191489,0.00934854,0.0597812
118080277,0.193215,0.0116332,0.0553308
118283775,0.177095,0.00936446,0.0584711
118488606,0.199678,0.0101019,0.0575663
118688151,0.179996,0.011382,0.0578933
118891827,0.196414,0.0107294,0.0519214
119093449,0.188322,0.0088656,0.058546
119293376,0.207812,0.010234,0.0610348
119498418,0.176206,0.009529,0.0585335
119698547,0.198762,0.00994388,0.0622131
119898507,0.186598,0.0116911,0.0629327
120098459,0.192504,0.010759,0.0622092
120300714,0.186932,0.0103245,0.0628635
120500658,0.212344,0.0106734,0.062133
120700879,0.201212,0.011058,0.0606794
120902667,0.190083,0.010287,0.0669847
121103728,0.213891,0.0102192,0.0645434
121306943,0.184956,0.00916295,0.0612434
121512789,0.198465,0.010981,0.0618318
121712060,0.194491,0.00957544,0.0644097
121915725,0.198691,0.00985957,0.0607248
122117407,0.223351,0.0112421,0.0593953
122318206,0.200013,0.0104425,0.0587599
122522505,0.186763,0.00899343,0.0640442
122726178,0.215363,0.0100592,0.0609499
122926140,0.189354,0.00958406,0.0617309
123132053,0.172809,0.0117878,0.0632718
123332890,0.199336,0.0112189,0.0566774
123532261,0.172985,0.0097094,0.0526692
123736667,0.197521,0.0120115,0.0515887
123939048,0.179166,0.0129006,0.0594843
124143457,0.199209,0.00967939,0.0575889
124344260,0.184952,0.0116591,0.0573839
124544198,0.173945,0.00998888,0.0579008
124747864,0.18892,0.0112528,0.0579219
124951983,0.173841,0.00979047,0.0529482
125153553,0.178084,0.0100945,0.0605188
125357531,0.175905,0.0109066,0.0645768
125560715,0.172754,0.0101679,0.0651994
125765367,0.18482,0.0106203,0.0658229
125964990,0.200138,0.00930017,0.0602471
126168554,0.18668,0.0108446,0.0640111
126372863,0.181054,0.0114712,0.0684168
126573880,0.19552,0.00880458,0.0630747
126772899,0.196577,0.0105871,0.0641041
126975197,0.225122,0.0111401,0.0808685
127176058,0.192939,0.0110418,0.0739294
127376050,0.237721,0.0112165,0.0672814
127579047,0.181,0.0115252,0.0606528
127783792,0.20693,0.0110632,0.064706
127987053,0.192826,0.0114208,0.0654686
128189379,0.223868,0.00940882,0.0661521
128389486,0.210881,0.0108329,0.0652094
128589471,0.200897,0.0104663,0.0686353
128793873,0.17901,0.00934701,0.0636892
128997450,0.19802,0.00915122,0.0675336
129202230,0.19552,0.0117626,0.057313
129404027,0.173328,0.0109509,0.0606031
129605598,0.229921,0.0113998,0.0559464
129809481,0.225324,0.00951829,0.06275
130011113,0.216574,0.0107185,0.0581993
130215310,0.179918,0.010744,0.0569873
130419105,0.188536,0.00985933,0.0562859
130619902,0.17471,0.00982532,0.0517971
130823995,0.19689,0.0123481,0.0542014
131024600,0.198363,0.0098939,0.0594818
131225628,0.190427,0.0098444,0.0568832
131429407,0.181924,0.0108202,0.0575212
131634361,0.181504,0.0123088,0.0537194
131833866,0.204794,0.011855,0.0573931
132037463,0.193788,0.00898338,0.0529277
132242173,0.200527,0.0115709,0.0644955
132442211,0.18038,0.010783,0.0613149
132645353,0.185839,0.0110627,0.0614857
132846954,0.223488,0.0112487,0.0674048
133048572,0.19613,0.0127514,0.0770804
133252799,0.172652,0.0110375,0.0679458
133454449,0.175919,0.0117746,0.0611972
133658212,0.195787,0.0119004,0.0629437
133862453,0.186612,0.0119914,0.0706938
134063983,0.180078,0.0111059,0.066211
134263262,0.181052,0.0108426,0.0639669
134465640,0.190735,0.0126388,0.0679276
134665652,0.211576,0.00907993,0.0612329
134865645,0.199883,0.0104571,0.0635193
135070212,0.180905,0.00925456,0.0616133
135270282,0.198574,0.0108783,0.0626889
135471887,0.176623,0.00968315,0.0656432
135676881,0.207735,0.0107228,0.0661072
135876781,0.200274,0.0094587,0.062073
136080105,0.218054,0.0118381,0.0691746
136280883,0.179966,0.00928967,0.057129
136484601,0.183138,0.0114871,0.0609762
136686204,0.170372,0.0103484,0.062177
136890994,0.184139,0.0113467,0.0596854
137094148,0.192014,0.00938988,0.0548091
137295257,0.189326,0.0126564,0.0544102
137499021,0.203036,0.00975007,0.0593645
137700675,0.217953,0.0112568,0.0490514
137905657,0.208442,0.0120252,0.0562358
138105696,0.180884,0.0123481,0.0589286
138305682,0.201648,0.0112824,0.0711218
138509417,0.187575,0.0129998,0.0535094
138713828,0.209971,0.0126805,0.0589488
138917342,0.211118,0.0114482,0.0628841
139119959,0.188388,0.0118507,0.0604397
139319850,0.206857,0.0099927,0.0562905
139524668,0.203819,0.0103056,0.0599437
139727786,0.171761,0.00965787,0.058962
139931998,0.189452,0.010752,0.0673896
140133567,0.211571,0.00976753,0.0658743
140338307,0.216797,0.00924644,0.0633713
140540746,0.182623,0.00940915,0.0656757
140745476,0.17776,0.0099334,0.0664857
140944862,0.199485,0.00997054,0.0626965
141148592,0.204423,0.0109049,0.0668056
141353852,0.18509,0.0115349,0.0631101
141553947,0.191314,0.0102193,0.0614338
141757367,0.205892,0.0103,0.0681393
141959507,0.189866,0.00968367,0.0627615
142160606,0.243351,0.0104875,0.0611904
142363837,0.208756,0.0100889,0.0595571
142566945,0.197553,0.0105981,0.0632718
142770231,0.187782,0.0111872,0.0609547
142971043,0.207267,0.00966778,0.0664889
143175133,0.221701,0.0102133,0.0548588
143378962,0.210464,0.0119479,0.056752
143583207,0.22488,0.0105638,0.0617087
143784567,0.186733,0.0106408,0.0604064
143989324,0.185306,0.0115124,0.0572797
144188842,0.214288,0.00968784,0.0551789
144393312,0.184403,0.0102718,0.0515214
144597641,0.171176,0.0115203,0.0639259
144797648,0.202526,0.0107559,0.0564162
145203757,0.21355,0.0116566,0.0593046
145408080,0.184708,0.0108723,0.0579856
145610269,0.212621,0.0114935,0.0621492
145815251,0.202781,0.0108273,0.0590795
146018273,0.238316,0.0101127,0.0567833
146218334,0.230847,0.0106539,0.0572624
146418980,0.218285,0.0110905,0.0643142
146623254,0.201606,0.0107045,0.0653591
146824654,0.207773,0.0116029,0.0648141
147029382,0.192842,0.0104796,0.0643782
147229478,0.210266,0.010816,0.0687825
147432607,0.197997,0.00915091,0.0632835
147632623,0.217617,0.0118551,0.0668929
147836830,0.198323,0.0109206,0.0687298
148040578,0.178688,0.0109801,0.0606384
148244805,0.181472,0.00993648,0.0551891
148446946,0.180422,0.0122044,0.0642901
148647044,0.220417,0.0131561,0.0672402
148850452,0.217892,0.0123899,0.0650759
149050964,0.186175,0.0108005,0.0698417
149255217,0.181583,0.0106694,0.063131
149455945,0.22019,0.00977576,0.0618769
149656627,0.181549,0.0102356,0.0681885
149861751,0.208436,0.010562,0.0649678
150064603,0.202592,0.00957508,0.0618215
150265428,0.196531,0.0119077,0.0600721
150469880,0.17482,0.0116089,0.0594145
150670118,0.178333,0.0108923,0.0558437
150872280,0.17902,0.0115809,0.0577649
151075786,0.187409,0.0113387,0.0556704
151276573,0.191996,0.0113169,0.0571534
151478611,0.181603,0.0102841,0.0580212
151680579,0.221645,0.0117174,0.0577235
151883785,0.185743,0.0110155,0.0578597
152085544,0.214951,0.00950024,0.0615439
152289454,0.215708,0.0125254,0.0632082
152494203,0.177469,0.00978854,0.0651142
152694695,0.179042,0.0101022,0.0649776
152898250,0.184932,0.0104426,0.0649776
153099968,0.188565,0.0109898,0.0635445
153304644,0.184504,0.0107579,0.0651794
153505397,0.197619,0.0111459,0.0660938
153705481,0.201353,0.0101104,0.0625175
153911498,0.246782,0.010765,0.0642953
154112075,0.191354,0.0104426,0.0619481
154315832,0.180861,0.00981853,0.0692188
154520688,0.209342,0.00956012,0.0606179
154723780,0.197983,0.0114212,0.0641272
154926193,0.20704,0.012682,0.0627505
155129439,0.203156,0.01109,0.0614707
155331175,0.222466,0.009939,0.0668672
155532861,0.188847,0.00932622,0.0646677
155736695,0.208855,0.0111998,0.0613021
155940825,0.200548,0.01121,0.065903
156141665,0.206185,0.0111817,0.0976656
156345360,0.22592,0.00936303,0.0626586
156549655,0.21171,0.0104083,0.0613376
156751817,0.202699,0.0117024,0.0593091
156955020,0.212681,0.0104065,0.0654729
157159834,0.220805,0.0100421,0.0619417
157360119,0.203451,0.0124803,0.0584944
157563797,0.20347,0.011229,0.0628822
157768070,0.185256,0.0123432,0.0654005
157970293,0.178487,0.0117728,0.056174
158174713,0.20078,0.0112879,0.0540103
158374417,0.214728,0.012256,0.0572064
158578231,0.206069,0.00997788,0.0569229
158782712,0.197353,0.0112696,0.0574967
158982975,0.192488,0.0120558,0.0580979
159183744,0.190459,0.0104712,0.0580349
159385451,0.189071,0.0116326,0.0633499
159585640,0.202366,0.0105944,0.0692484
159786651,0.19654,0.0115305,0.0580543
159990324,0.211661,0.0112321,0.0615013
160190288,0.199178,0.010893,0.0656785
160391051,0.214829,0.00961067,0.062652
160593517,0.194824,0.0126179,0.0577424
160798298,0.185542,0.0117224,0.0655455
161001323,0.181378,0.0110295,0.0657127
161205723,0.203482,0.0138223,0.0615153
161405662,0.198202,0.0104846,0.0649085
161609444,0.215479,0.0107173,0.063775
161814199,0.203417,0.0109055,0.0650689
162015889,0.183948,0.0117872,0.0708794
162217521,0.208512,0.0100879,0.0617603
162417406,0.182875,0.0116837,0.0595674
162620659,0.195795,0.0106666,0.0685275
162822975,0.188788,0.0120433,0.0658025
163027174,0.195172,0.0100392,0.061993
163231108,0.186602,0.0117691,0.0593339
163431065,0.183447,0.0128796,0.0583956
163631026,0.18521,0.0113163,0.0669508
163836041,0.204123,0.0110616,0.0603972
164037692,0.193836,0.0097773,0.0642202
164237351,0.19077,0.0105228,0.0656514
164440617,0.192574,0.0126426,0.0587045
164644787,0.198503,0.0109979,0.0583065
164845615,0.193498,0.0123762,0.0530764
165045935,0.189511,0.0102705,0.0568839
165249348,0.183111,0.0114705,0.0603023
165454406,0.222635,0.011453,0.0596468
165654972,0.219488,0.0110544,0.0588024
165858270,0.202722,0.00972256,0.0605581
166062391,0.196478,0.0114442,0.0655889
166263108,0.199423,0.0111322,0.0639512
166466148,0.20351,0.0103608,0.0625727
166666268,0.20314,0.0107986,0.0635016
166869438,0.197444,0.0116569,0.0604656
167069056,0.191726,0.0117542,0.0618586
167272619,0.213008,0.0119069,0.0615722
167477835,0.218427,0.0114777,0.0592424
167677736,0.190332,0.00977824,0.0633374
167879973,0.233955,0.0111823,0.0665445
168081382,0.210254,0.0112443,0.0618581
168285670,0.229076,0.0114868,0.0626383
168487244,0.22489,0.0106561,0.0661418
168692642,0.188054,0.010872,0.0663304
168894665,0.205803,0.0112768,0.0713321
169094476,0.18885,0.0127039,0.0626289
169298223,0.181813,0.011537,0.0668366
169502471,0.21093,0.0127346,0.062846
169702978,0.187934,0.0123974,0.0607559
169906119,0.183099,0.0118424,0.0667158
170106158,0.204704,0.00982301,0.0623522
170311929,0.190074,0.0115322,0.0588799
170511789,0.191107,0.0104277,0.0685652
170716606,0.196129,0.00953025,0.0630668
170919920,0.214986,0.0119169,0.0558515
171121639,0.210253,0.0109767,0.0595004
171325402,0.212523,0.011274,0.0605504
171527773,0.215905,0.0104132,0.0572103
171732787,0.226482,0.0110582,0.0563325
171934457,0.18545,0.0102352,0.0600954
172135743,0.211042,0.0101559,0.0615407
172335511,0.200154,0.0116514,0.0574112
172537697,0.178902,0.0103628,0.0639941
172738195,0.181513,0.0118407,0.0664423
172938502,0.192726,0.0115758,0.062093
173142246,0.193054,0.011221,0.0517117
173347012,0.196047,0.0116086,0.0618851
173548949,0.1927,0.0114172,0.0604153
173751813,0.198313,0.0100023,0.0650182
173956259,0.213411,0.0115905,0.0657836
174156846,0.189541,0.0123774,0.0652712
174360853,0.177782,0.0120811,0.06629
174564565,0.209454,0.0118237,0.0617684
174764558,0.188515,0.0106681,0.0688149
174971026,0.193288,0.0115616,0.0695962
175170524,0.191242,0.0117624,0.0630297
175374933,0.219907,0.0116159,0.065074
175579465,0.207838,0.0107123,0.068809
175781017,0.195645,0.0105621,0.0673826
175984614,0.208143,0.0123721,0.062332
176189451,0.200014,0.0126497,0.0688337
176388930,0.2222,0.0106716,0.0606106
176592563,0.228876,0.0119517,0.0591786
176797454,0.206047,0.00992886,0.0651862
177000659,0.213699,0.0113005,0.0660407
177200643,0.195739,0.00888839,0.0679917
177405144,0.210754,0.0113305,0.0636344
177608589,0.201809,0.01036,0.0642526
177810370,0.195576,0.0100795,0.0622875
178014453,0.22162,0.00978632,0.0592627
178215228,0.207643,0.0121349,0.0595712
178417415,0.227924,0.00950748,0.0618977
178618713,0.187984,0.0117342,0.0605476
178822932,0.192594,0.0102434,0.054973
179024576,0.225226,0.0103105,0.0601755
179228831,0.217848,0.0108179,0.0597351
179429805,0.205335,0.0100619,0.031983
179629873,0.200106,0.011336,0.0698398
179833278,0.192664,0.0112586,0.0702086
180035052,0.235099,0.0125741,0.0681674
180234984,0.215518,0.0118244,0.0633505
180439209,0.204744,0.010654,0.0648265
180643773,0.190168,0.0098986,0.0630615
180843881,0.187852,0.0104965,0.067846
181043763,0.200047,0.0118364,0.0617976
181248630,0.207253,0.0104234,0.0658901
181449393,0.20446,0.0116214,0.0637235
181649369,0.195919,0.0101872,0.067658
181854225,0.178334,0.0132012,0.0614768
182057483,0.211069,0.0131724,0.0596409
182262196,0.206654,0.0103864,0.0593156
182463920,0.19708,0.0112586,0.0641609
182664570,0.228597,0.0101902,0.06749
182868891,0.202341,0.0129143,0.0689796
183071771,0.198619,0.0127814,0.0647335
183274955,0.207651,0.0116712,0.0642927
183475806,0.190366,0.0120387,0.067303
183675808,0.246319,0.0101885,0.0683375
183878498,0.195696,0.0104511,0.0645192
184078464,0.216708,0.0114713,0.0752376
184283063,0.21831,0.0115202,0.0640608
184485409,0.211009,0.0108769,0.0607105
184688574,0.224254,0.01103,0.0573071
184892827,0.208263,0.0103319,0.0586565
185093413,0.189416,0.0115248,0.0548536
185292845,0.227508,0.012991,0.0565604
185496590,0.195369,0.0103151,0.0615142
185698242,0.204167,0.00986068,0.0589272
185899301,0.227221,0.0101744,0.0579729
186103060,0.198702,0.0104921,0.0628528
186307495,0.209362,0.0112507,0.0622248
186507790,0.221818,0.0109367,0.0633311
186711978,0.236091,0.0110727,0.0592312
186913061,0.230459,0.0106753,0.0636127
187114231,0.205883,0.0114255,0.0640834
187315240,0.212353,0.0121278,0.0621541
187516579,0.217981,0.0105221,0.0646496
187722391,0.214304,0.010915,0.0635918
187921699,0.204293,0.0102615,0.0465846
188125353,0.196653,0.0116136,0.0683057
188330531,0.210852,0.0110524,0.0701979
188530518,0.224002,0.0107052,0.0610584
188731013,0.209955,0.0120159,0.0658446
188935309,0.208328,0.0102703,0.06884
189139002,0.208837,0.0123874,0.0673427
189338931,0.188537,0.0116475,0.0700715
189543215,0.19503,0.0123328,0.0675463
189746231,0.210036,0.0117631,0.0615211
189949486,0.218321,0.0114683,0.0662457
190153599,0.185961,0.0113503,0.0670879
190354208,0.200055,0.0107771,0.0663691
190553615,0.202543,0.0100443,0.0633781
190757353,0.197641,0.0100187,0.0639573
190960088,0.214152,0.0103653,0.0631173
191163870,0.221537,0.0107546,0.0646535
191368554,0.211072,0.0100856,0.0606329
191569149,0.230768,0.010807,0.0620529
191768178,0.215374,0.0100052,0.0578225
191972525,0.188514,0.0125459,0.0525384
192175055,0.256163,0.0102177,0.0582828
192378208,0.195207,0.0118293,0.058237
192583745,0.219196,0.0107576,0.0598538
192783185,0.224836,0.0129479,0.0662005
192986946,0.215413,0.01073,0.0605866
193188678,0.225474,0.0109139,0.0587393
193393549,0.22796,0.00953167,0.0631857
193596604,0.205584,0.0123034,0.0678454
193797368,0.206376,0.0115129,0.0673548
193997357,0.193276,0.011469,0.0662669
194202204,0.193844,0.0127264,0.0650956
194403480,0.202494,0.0117046,0.0641338
194604049,0.194212,0.00961375,0.0644695
194806967,0.214427,0.0118924,0.0697192
195012858,0.200752,0.0108914,0.061411
195212066,0.261576,0.0114389,0.0655326
195417462,0.204225,0.00992616,0.0661282
195617485,0.212773,0.0125553,0.0681153
195817461,0.219181,0.0122972,0.0689684
196022723,0.199125,0.0120849,0.0667742
196225357,0.204254,0.0135972,0.0728257
196429718,0.217453,0.0104922,0.0662889
196632126,0.219508,0.0105765,0.0662712
196832655,0.241473,0.0122843,0.0684831
197033885,0.21505,0.0116621,0.064948
197236542,0.18617,0.00970265,0.0654708
197441439,0.193993,0.0113479,0.0604413
197642260,0.205694,0.0112231,0.0647438
197846498,0.201556,0.0106854,0.0593853
198046996,0.219464,0.0114713,0.0611047
198246426,0.212691,0.0101006,0.0562625
198450941,0.216687,0.0104803,0.060358
198652900,0.204786,0.012573,0.0600076
198856581,0.19551,0.0108022,0.0578286
199060934,0.209373,0.0124163,0.0551218
199261636,0.194339,0.0120246,0.0611358
199465312,0.203168,0.0102659,0.0643872
199670471,0.189417,0.0122481,0.0618187
199871262,0.241531,0.00961052,0.0582631
200076235,0.191306,0.0102454,0.0607458
200276270,0.245859,0.0136893,0.0605185
200479908,0.184563,0.0114249,0.0950403
200684055,0.18308,0.0111086,0.0592965
200884620,0.244769,0.0108983,0.0671332
201085777,0.20922,0.0117433,0.0683674
201289419,0.280924,0.00985286,0.0677642
201490335,0.226014,0.0104005,0.0670311
201690300,0.242856,0.0126211,0.063492
201894398,0.189907,0.0136526,0.0700764
202098199,0.192977,0.00998726,0.0664552
202299795,0.220675,0.0105136,0.0682935
202504096,0.192083,0.0112433,0.0723917
202704615,0.226304,0.011091,0.0677713
202905131,0.191238,0.0122028,0.0649414
203104994,0.208348,0.013646,0.0632583
203308652,0.201999,0.0112954,0.0620703
203511375,0.212119,0.0118797,0.0621634
203715051,0.192155,0.0126084,0.0618228
203919276,0.196114,0.0131334,0.0671478
204121384,0.197032,0.0115861,0.0605067
204326156,0.207784,0.0122993,0.0611318
204527214,0.188429,0.0124646,0.039708
204728616,0.225093,0.0119362,0.0597501
204933861,0.226118,0.0105526,0.0639181
205137467,0.222024,0.0106423,0.0576072
205337336,0.19596,0.0113631,0.0619348
205540096,0.192594,0.012167,0.0601765
205743014,0.19348,0.0122702,0.0548369
205943827,0.1961,0.0134667,0.0582511
206148188,0.200488,0.0118922,0.0559315
206351063,0.220929,0.0108177,0.0617886
206554182,0.208593,0.0101889,0.0623085
206754293,0.232158,0.011369,0.0663557
206955076,0.217336,0.0115604,0.0653057
207157459,0.197057,0.0129918,0.0643744
207356866,0.195572,0.0109432,0.0610747
207560651,0.191696,0.0113539,0.0693479
207764876,0.203055,0.0111261,0.0645067
207965436,0.224811,0.0126305,0.0669195
208168656,0.210624,0.0119935,0.0649599
208368647,0.198229,0.0119248,0.0653728
208572988,0.228086,0.0100919,0.0709953
208776620,0.19526,0.0101186,0.0695416
208976591,0.220533,0.00989364,0.0656794
209179298,0.220852,0.0121427,0.0659837
209379832,0.196153,0.0110194,0.066505
209580047,0.25437,0.00935706,0.0657019
209782998,0.211526,0.0115987,0.065915
209987883,0.206903,0.0112662,0.065274
210188079,0.211696,0.0109304,0.069581
210389358,0.190405,0.0120067,0.0625725
210590363,0.201583,0.0120486,0.0625019
210791750,0.201782,0.00999721,0.0660962
210996056,0.223077,0.011591,0.0623526
211196578,0.229947,0.0116208,0.0575624
211397070,0.20501,0.0111729,0.0611148
211599202,0.206681,0.0134284,0.0588315
211799146,0.212951,0.014146,0.0604958
212002178,0.233898,0.0126108,0.0594347
212204054,0.220007,0.0116319,0.0575926
212404012,0.216108,0.013228,0.0562289
212609367,0.222533,0.0126438,0.0564023
212809492,0.218686,0.0122137,0.0594752
213009529,0.201966,0.011407,0.0639434
213214158,0.216978,0.010941,0.0620104
213417416,0.239917,0.0115416,0.0706677
213619901,0.201162,0.0119184,0.0607812
213825066,0.210269,0.0103711,0.0713333
214024006,0.199287,0.0124366,0.0671021
214227815,0.204196,0.0110702,0.0680658
214432287,0.21757,0.0114317,0.0690147
214632802,0.206644,0.0110941,0.0779418
214832109,0.190461,0.0106298,0.0647892
215038461,0.225918,0.0116121,0.0689988
215238521,0.245988,0.0130009,0.0602543
215440643,0.193305,0.0120641,0.0656002
215644862,0.221454,0.012036,0.0705565
215844817,0.237876,0.0118135,0.0684184
216049153,0.209695,0.0114232,0.0717324
216251777,0.239408,0.0123485,0.071959
216456843,0.24782,0.0120086,0.0669553
216656142,0.244306,0.0115358,0.0655642
216859831,0.218055,0.0130828,0.0673293
217064011,0.193186,0.0127252,0.0613746
217264786,0.21574,0.0132862,0.0654008
217466438,0.235329,0.0125656,0.0653427
217667293,0.204022,0.012536,0.0689693
217870256,0.222526,0.0145832,0.0610378
218071006,0.227287,0.012079,0.0643888
218275164,0.223614,0.0125506,0.0648155
218475188,0.244198,0.0132838,0.0629467
218680646,0.244,0.0119297,0.0586088
218885682,0.211179,0.0125593,0.0583379
219085627,0.192921,0.0124847,0.0605279
219289395,0.224643,0.0121105,0.0598525
219494179,0.212325,0.0107203,0.0587184
219694990,0.232354,0.0110166,0.0640561
219899457,0.220733,0.0109149,0.0636233
220100151,0.20409,0.0117936,0.0639199
220303269,0.213062,0.0121944,0.0592405
220502471,0.199738,0.0108319,0.0631452
220706152,0.221707,0.0115995,0.0708091
220911002,0.232134,0.0119856,0.0700306
221116014,0.230562,0.0115129,0.0710519
221316556,0.227946,0.0120507,0.0633999
221521481,0.213126,0.0134697,0.0661266
221721492,0.238144,0.0139531,0.0646385
221920903,0.201679,0.0123736,0.0638772
222124609,0.238527,0.0125416,0.0646279
222329902,0.205381,0.0139712,0.0638262
222532623,0.22517,0.0114457,0.0679899
222734209,0.239199,0.0126537,0.0635009
222939092,0.207834,0.0131171,0.065685
223138969,0.212796,0.0123627,0.0708522
223342960,0.222781,0.0136835,0.0693016
223548130,0.200848,0.0119171,0.069971
223747730,0.205078,0.0116871,0.0677825
223952616,0.215889,0.0128759,0.0713927
224156846,0.224643,0.0127793,0.0688197
224357739,0.221645,0.0119323,0.0634241
224559222,0.230088,0.0125403,0.0636563
224759885,0.207155,0.0127961,0.062296
224961489,0.226899,0.0132452,0.0604011
225162995,0.221467,0.0124105,0.0632671
225367216,0.20072,0.0121715,0.0627183
225567241,0.206873,0.01327,0.0596295
225771004,0.225386,0.0144329,0.0622689
225975464,0.202404,0.0135218,0.0473727
226175951,0.214402,0.0131218,0.0548011
226378965,0.196652,0.0125289,0.0569063
226578924,0.202824,0.0109327,0.057168
226784077,0.195574,0.0119697,0.0635766
226984605,0.21485,0.0132136,0.0588857
227185392,0.234584,0.0121294,0.0642545
227389687,0.209603,0.0120946,0.0614214
227589705,0.192228,0.0122679,0.0598046
227791062,0.215449,0.0140478,0.0598144
227995294,0.248875,0.0127462,0.0682768
228196814,0.19789,0.0123671,0.0650038
228399899,0.245969,0.0104416,0.0666524
228604598,0.211378,0.0134743,0.067684
228807805,0.204775,0.0123411,0.0652472
229007844,0.223557,0.0120013,0.0674332
229214197,0.23951,0.0129356,0.0712583
229415199,0.214964,0.0132039,0.0768227
229618186,0.222233,0.0130464,0.0788797
229823474,0.232313,0.0121062,0.0735536
230022365,0.233318,0.0123394,0.0675892
230226167,0.236439,0.0140629,0.0729413
230428117,0.205875,0.0115731,0.0613479
230628694,0.228414,0.0122852,0.0625276
230828971,0.213643,0.0116715,0.0668422
231031822,0.244525,0.010599,0.0646399
231236658,0.216935,0.0120244,0.0618481
231439832,0.20853,0.0110188,0.0619038
231639880,0.189816,0.0128632,0.0682663
231845377,0.216066,0.0134007,0.0653859
232045340,0.199914,0.0123494,0.0559386
232246167,0.193006,0.0125122,0.0568885
232450625,0.200044,0.0117609,0.0389528
232652087,0.237287,0.0115032,0.0599297
232855801,0.233071,0.0116073,0.0635296
233060514,0.266877,0.0114802,0.0595124
233260706,0.196945,0.0126743,0.0598519
233460114,0.19224,0.0138644,0.0627937
233663835,0.20515,0.0101812,0.0604939
233866164,0.221458,0.0104539,0.0624301
234071140,0.214444,0.0125991,0.0624795
234274250,0.234336,0.012035,0.0675652
234474170,0.208129,0.01269,0.0644452
234678531,0.211592,0.0143066,0.0677155
234882242,0.216206,0.0129542,0.0612024
235086652,0.210616,0.0137255,0.0674251
235286510,0.212525,0.0113098,0.0677751
235490403,0.22053,0.0105233,0.0711002
235692721,0.24009,0.0132469,0.0732858
235893393,0.22689,0.0121692,0.0695665
236097433,0.193845,0.0104227,0.0631759
236298508,0.207851,0.0120147,0.0659213
236503054,0.210337,0.0134259,0.0651481
236707172,0.219998,0.0131001,0.0678979
236907241,0.220018,0.0129487,0.0652139
237111816,0.23779,0.0115958,0.0732041
237316665,0.239437,0.0105126,0.0693635
237517739,0.250481,0.0127436,0.0671856
237721431,0.2264,0.0105556,0.065888
237921510,0.219717,0.0128785,0.0579331
238121383,0.215665,0.0112005,0.0601463
238325832,0.209636,0.0123691,0.0661057
238529379,0.219395,0.0113983,0.0658756
238734172,0.194207,0.0128464,0.0625907
238933563,0.228302,0.0131895,0.0606439
239139256,0.21706,0.0117034,0.06498
239340859,0.223101,0.0112312,0.0576779
239543756,0.199549,0.0131919,0.0626653
239747985,0.210983,0.011617,0.0639879
239948922,0.228003,0.0108203,0.0619753
240150291,0.246794,0.0104508,0.0588353
240354441,0.223765,0.0104268,0.0638889
240555075,0.208443,0.0125127,0.065931
240754419,0.206171,0.0133602,0.0673263
240956652,0.251861,0.0121896,0.0684985
241156235,0.22601,0.0136992,0.0659425
241359903,0.209804,0.0138722,0.0683472
241564644,0.246485,0.0121231,0.0721359
241767775,0.238549,0.0122,0.0660124
241967879,0.215561,0.0121193,0.0670265
242174514,0.201327,0.0122621,0.0646781
242374473,0.234741,0.0124484,0.0647018
242578216,0.217275,0.0127663,0.0667418
242783006,0.224457,0.012739,0.0744963
242983100,0.218189,0.0121702,0.0698332
243182674,0.200068,0.0121459,0.0690863
243386954,0.201889,0.0121717,0.064521
243589104,0.230751,0.0115052,0.0613031
243789950,0.220947,0.0129618,0.0666507
243991935,0.244597,0.0133908,0.0710666
244197416,0.243258,0.0128589,0.0674802
244397436,0.23889,0.012534,0.0695844
244596897,0.234437,0.0125448,0.0642768
244802236,0.245635,0.0131109,0.0637176
245002236,0.216901,0.010699,0.0681437
245203271,0.212798,0.0130916,0.0627493
245406992,0.207005,0.0119752,0.0667519
245611235,0.217104,0.0127899,0.0763503
245811840,0.204072,0.0110871,0.0636616
246011804,0.210981,0.0109749,0.0559977
246216657,0.225044,0.0141109,0.0629462
246416594,0.20179,0.0139665,0.0577497
246622148,0.212408,0.0115782,0.0605701
246824949,0.23196,0.0118921,0.0590135
247028584,0.21649,0.0119367,0.0629103
247228618,0.211596,0.0130105,0.0647535
247432821,0.257543,0.0128943,0.0648803
247635040,0.213918,0.0116922,0.0681099
247834456,0.205191,0.0128722,0.0636919
248038282,0.215496,0.0110568,0.0604003
248242630,0.241184,0.0116952,0.0698079
248444035,0.218512,0.0127929,0.0709024
248643770,0.257719,0.013757,0.0667726
248849494,0.230633,0.0119101,0.0660354
249050490,0.219261,0.0132161,0.066747
249252007,0.200954,0.0140309,0.0670642
249455841,0.210609,0.0131103,0.0704216
249660354,0.194187,0.0121071,0.0652898
249862212,0.224362,0.0140247,0.0654284
250062982,0.205113,0.0108071,0.071527
250263039,0.236382,0.0119085,0.0667607
250468848,0.21925,0.0132113,0.0727738
250671740,0.224449,0.012582,0.0645015
250873348,0.243122,0.0143686,0.067724
251077660,0.215894,0.0136277,0.0622982
251278328,0.198987,0.0112679,0.0720578
251478932,0.21035,0.0129145,0.0664238
251680667,0.229955,0.0140159,0.0701074
251885880,0.232119,0.0128076,0.0679281
252087264,0.233091,0.0105593,0.0607378
252288154,0.212903,0.0117161,0.0662683
252491847,0.230394,0.012469,0.0578866
252691791,0.236851,0.0136472,0.0600394
252896927,0.211579,0.0138626,0.0592544
253100639,0.218646,0.0129599,0.0596721
253303249,0.243921,0.0140047,0.0565035
253507013,0.200926,0.010978,0.0595025
253708066,0.20708,0.0120316,0.0628548
253909719,0.220523,0.0128921,0.0636359
254109752,0.220665,0.0122635,0.0616317
254309909,0.239229,0.0148302,0.0645237
254513396,0.210326,0.0134533,0.0697428
254718448,0.244515,0.0132031,0.0589816
254920145,0.202275,0.0128426,0.0702032
255123816,0.195669,0.0116388,0.0641657
255323821,0.22963,0.0122139,0.0667302
255528351,0.214748,0.0123026,0.0734136
255731751,0.201462,0.0112427,0.0642135
255936761,0.226934,0.0133022,0.0710142
256136006,0.258826,0.0140722,0.0679624
256339872,0.213565,0.0113972,0.0722559
256541703,0.235015,0.0121395,0.0675573
256742946,0.263511,0.0125433,0.0636993
256946163,0.214091,0.014327,0.0590523
257148653,0.210595,0.011141,0.0685347
257353666,0.222343,0.0114879,0.0716312
257553660,0.200946,0.0108533,0.0711768
257757276,0.221407,0.0134924,0.069229
257961589,0.224273,0.0129926,0.0665883
258163021,0.22955,0.0127007,0.0665562
258368073,0.198588,0.0111347,0.0701865
258568173,0.199861,0.0126416,0.0689395
258768022,0.219576,0.0114364,0.0651971
258973709,0.209072,0.0134522,0.0601386
259174401,0.202784,0.0124055,0.0610593
259373648,0.220028,0.0122034,0.0640737
259577468,0.20783,0.0135274,0.0600232
259783006,0.215512,0.0136895,0.0582525
259982439,0.200827,0.0128262,0.0551499
260186170,0.252163,0.0118008,0.0611901
260388856,0.237564,0.0119514,0.0536748
260589349,0.232803,0.0114444,0.0665153
260792632,0.20084,0.0121382,0.0578897
260997003,0.216478,0.0145535,0.0617588
261198648,0.215216,0.0112386,0.0652205
261402263,0.225345,0.0117486,0.0630257
261606691,0.206119,0.0128085,0.0655794
261806720,0.213514,0.0109953,0.0690376
262010388,0.199172,0.0136937,0.0716694
262214519,0.228115,0.0140815,0.0761221
262418221,0.247198,0.0109552,0.0696113
262618253,0.207248,0.0120024,0.0655528
262823755,0.211364,0.0129118,0.0711655
263023831,0.214995,0.0135963,0.0631922
263223813,0.236596,0.0124091,0.0674758
263428884,0.222543,0.0141269,0.0729454
263629500,0.230369,0.011618,0.0691728
263830334,0.250149,0.0132011,0.0743518
264034678,0.263763,0.013492,0.0633791
264238222,0.206384,0.0118724,0.0642733
264438210,0.215875,0.0125933,0.0650938
264643234,0.217568,0.0119259,0.0703796
264846999,0.22257,0.0135914,0.0661231
265048683,0.223756,0.0118806,0.0706583
265252835,0.208596,0.0125692,0.0693217
265454186,0.236709,0.0120751,0.0470574
265657341,0.23103,0.0124707,0.0470684
265859007,0.219477,0.0136359,0.0617915
266059027,0.248714,0.0120024,0.0601566
266263977,0.219432,0.0133302,0.0659062
266466959,0.248062,0.0113955,0.0609545
266672064,0.218147,0.0143732,0.0576784
266870742,0.212206,0.0136943,0.0582435
267075869,0.229472,0.0123563,0.0572753
267277712,0.208631,0.0123387,0.0612869
267482272,0.210116,0.0119815,0.0641733
267682191,0.20952,0.012708,0.0650705
267887087,0.205104,0.0141806,0.0651886
268090275,0.205081,0.0137187,0.0629832
268295191,0.203029,0.0136656,0.065557
268496591,0.241013,0.0143295,0.070573
268701428,0.216493,0.0138089,0.0649249
268901674,0.204073,0.0131607,0.0677102
269101033,0.234252,0.0141953,0.0644159
269302616,0.233018,0.0144743,0.0703174
269503213,0.235352,0.0127732,0.0642894
269702614,0.213776,0.0119418,0.067758
269906187,0.203699,0.0141779,0.0694931
270111048,0.224774,0.0132818,0.0655832
270310996,0.237535,0.0142672,0.0644654
270516008,0.239522,0.0137041,0.0686882
270716687,0.225966,0.0117047,0.068177
270919925,0.211869,0.0128489,0.0698052
271119942,0.264568,0.0121645,0.0658818
271319948,0.240795,0.0134364,0.0604792
271524090,0.243094,0.0129543,0.0702568
271725095,0.233997,0.0126261,0.0656829
271924852,0.209164,0.0130824,0.0701335
272130240,0.235076,0.0135236,0.0682192
272331015,0.208906,0.0127339,0.0646309
272535377,0.205262,0.0135244,0.071983
272736063,0.229735,0.0120108,0.0625235
272939051,0.24698,0.0131668,0.0640194
273141552,0.245292,0.0125849,0.0607396
273343837,0.231568,0.0132073,0.0598838
273548672,0.216729,0.0113207,0.0583613
273748638,0.213015,0.0122527,0.0691748
273951813,0.203143,0.010595,0.0595128
274156011,0.250472,0.0132994,0.0696029
274359855,0.227927,0.0142306,0.0594961
274560607,0.246636,0.0132287,0.0640809
274766415,0.211571,0.0158292,0.0729972
274967011,0.208668,0.0132105,0.0711337
275170378,0.220862,0.0136533,0.0716752
275376280,0.224614,0.0122143,0.0635801
275575449,0.229894,0.0131949,0.0631503
275781444,0.220628,0.0133057,0.0623222
275982101,0.199604,0.0114492,0.0696202
276186593,0.226245,0.0127635,0.0701544
276388269,0.20566,0.0134854,0.0719019
276592572,0.232523,0.0129553,0.073025
276793447,0.238457,0.0144062,0.0702415
276996011,0.210399,0.0123483,0.0670342
277196830,0.21043,0.0123402,0.0679725
277400668,0.206464,0.0123874,0.0708253
277602219,0.243358,0.0136176,0.0722363
277807852,0.240826,0.012326,0.0625929
278009415,0.205211,0.0136114,0.0709961
278213599,0.220812,0.013489,0.0580835
278413850,0.22177,0.012782,0.0672926
278613904,0.233964,0.0132173,0.0676471
278817541,0.21565,0.0131172,0.0685984
279022374,0.220841,0.0153395,0.0619388
279225492,0.214996,0.0134179,0.064843
279425333,0.20955,0.0148103,0.0646801
279632020,0.206091,0.0134003,0.061366
279831752,0.214315,0.0123557,0.0605942
280036808,0.231509,0.0128042,0.0602375
280239866,0.233212,0.0115719,0.0658833
280441353,0.23362,0.0132563,0.0626774
280647048,0.223508,0.0119215,0.0575548
280847741,0.249292,0.0120027,0.0622124
281048618,0.231545,0.0114102,0.0637434
281249436,0.216994,0.0137726,0.0669586
281454071,0.210794,0.0136197,0.0629263
281655812,0.225408,0.0137468,0.0652108
281860689,0.234,0.0108598,0.0684334
282063726,0.247403,0.013183,0.0718896
282263854,0.235565,0.0112984,0.0716126
282468345,0.23654,0.0143836,0.0698108
282672864,0.248637,0.0127866,0.0723516
282874467,0.217936,0.0146751,0.0708346
283075042,0.210561,0.0127051,0.0680739
283275024,0.261172,0.0125179,0.0672954
283479830,0.216944,0.0139423,0.071271
283682985,0.207879,0.014481,0.0678085
283886266,0.21246,0.0112074,0.0714008
284089417,0.243663,0.0137812,0.0660114
284293850,0.25021,0.0134026,0.0665232
284493811,0.254103,0.013686,0.0701188
284697328,0.232379,0.0141355,0.0685584
284898965,0.224557,0.0126719,0.0613782
285099032,0.256467,0.0131385,0.0655415
285303969,0.233439,0.0141936,0.0647082
285507267,0.247963,0.011682,0.0672586
285707719,0.210448,0.0131023,0.0666337
285910282,0.238762,0.0144179,0.0665882
286111012,0.231283,0.0129113,0.069368
286315339,0.212842,0.0121778,0.0626029
286517105,0.219346,0.0135838,0.0627293
286721718,0.235928,0.0147919,0.06068
286922108,0.22525,0.0130463,0.0686805
287121749,0.219563,0.0128831,0.0612316
287325310,0.254309,0.01536,0.0615355
287531805,0.217283,0.0151325,0.0690794
287731850,0.233146,0.0119687,0.0581636
287935006,0.232419,0.0130434,0.0660586
288139870,0.238101,0.0145997,0.0718026
288342964,0.216343,0.0136823,0.0660258
288543008,0.263066,0.0131444,0.0670243
288747201,0.257537,0.0125587,0.0653181
288949828,0.212027,0.0133042,0.0690232
289152748,0.247778,0.0132174,0.0722766
289352623,0.224268,0.014045,0.0691874
289557449,0.22935,0.0127897,0.0787398
289757469,0.21184,0.0131124,0.0682017
289962196,0.232848,0.0141817,0.0687129
290163831,0.217636,0.0136594,0.0723522
290364000,0.246831,0.0129272,0.0695702
290567032,0.219079,0.0139827,0.0686402
290771251,0.22467,0.0123168,0.0681473
290973716,0.20967,0.0142689,0.0713437
291177508,0.220191,0.0128092,0.0755204
291377473,0.221165,0.0120412,0.0701488
291581662,0.258436,0.0129225,0.0682488
291785403,0.213211,0.0147605,0.0680248
291990107,0.212436,0.0125,0.0615387
292190718,0.245697,0.0144377,0.0664161
292396866,0.279376,0.0146685,0.065501
292596036,0.242903,0.0147181,0.067418
292799868,0.26388,0.0142369,0.0670362
293004067,0.255678,0.0141088,0.0587006
293204112,0.245906,0.0132881,0.0803943
293404556,0.201438,0.0123438,0.0612803
293603961,0.227316,0.0140714,0.0585348
293807782,0.215414,0.0130386,0.065996
294009453,0.224781,0.0129845,0.0626288
294209383,0.233353,0.0151434,0.0568561
294414560,0.234081,0.0119401,0.0603089
294615791,0.240034,0.0128626,0.062425
294820621,0.206445,0.0129382,0.0654456
295020942,0.209107,0.0140366,0.0667525
295223848,0.223183,0.0141049,0.0635554
295423735,0.207888,0.0128665,0.0679501
295628576,0.242674,0.0144083,0.0690999
295832541,0.230382,0.0134282,0.0716023
296034223,0.225956,0.0129218,0.0653019
296238648,0.228119,0.013568,0.070431
296439358,0.218233,0.0136892,0.0675665
296639246,0.207162,0.0134711,0.0666095
296842212,0.237866,0.0146361,0.0681162
297044613,0.221812,0.0143676,0.0682939
297248819,0.215138,0.0134672,0.0778954
297449494,0.234576,0.0143673,0.0710209
297652637,0.226202,0.0137992,0.0717032
297855863,0.244087,0.0136107,0.070635
298055822,0.207676,0.0165096,0.065726
298255735,0.231005,0.0138364,0.0677408
298460306,0.224744,0.0141079,0.069939
298660906,0.212266,0.0141207,0.0713633
298863729,0.212528,0.0132677,0.0606617
299065440,0.228163,0.0147203,0.0673547
299270366,0.22992,0.0140088,0.065169
299469693,0.212297,0.0130933,0.0657308
299673457,0.236278,0.0138331,0.0658512
299879260,0.213268,0.01389,0.0649782
300078732,0.228904,0.0142011,0.0631538
300283809,0.23317,0.0140069,0.0623808
300488241,0.212656,0.0139019,0.0653093
300689276,0.236306,0.0123633,0.0651768
300892714,0.246692,0.0128988,0.0581853
301094205,0.228798,0.0137346,0.0623098
301300127,0.213116,0.0152288,0.0595944
301502217,0.208762,0.0143159,0.0570445
301702750,0.233083,0.0143393,0.0625783
301903223,0.237501,0.0147273,0.0649962
302106258,0.257318,0.0138086,0.0330863
302310743,0.208648,0.0151708,0.0673382
302512635,0.254934,0.0155588,0.0699576
302716846,0.219382,0.0147029,0.0666375
302916819,0.218316,0.0124932,0.0657131
303117736,0.232732,0.014963,0.0691446
303320761,0.220112,0.013103,0.068673
303526122,0.233054,0.0137052,0.0669189
303728651,0.260762,0.013141,0.0685736
303931302,0.242702,0.0128262,0.0682578
304134250,0.227263,0.0119566,0.0684883
304335035,0.225117,0.0114474,0.0723027
304539271,0.212178,0.0128699,0.0710885
304743045,0.222725,0.0144493,0.0677852
304944536,0.22012,0.0136469,0.0715298
305150183,0.220877,0.0152902,0.0671203
305351902,0.266068,0.0157249,0.073631
305556841,0.217812,0.0131695,0.0682941
305756858,0.244958,0.0141953,0.0679528
305960655,0.218178,0.0150004,0.0653825
306162334,0.216267,0.0157314,0.0691038
306366666,0.217315,0.0124559,0.0706346
306570299,0.218045,0.0122081,0.0624262
306770289,0.240188,0.0133372,0.0615476
306974691,0.239387,0.0125678,0.0670345
307178254,0.252022,0.0133243,0.0639267
307382410,0.234125,0.0136318,0.0597155
307582955,0.264637,0.0139114,0.0577718
307783789,0.250379,0.0148431,0.0616853
307988158,0.242087,0.0143945,0.0621833
308188077,0.213428,0.014041,0.064449
308391774,0.226376,0.0148078,0.061949
308596815,0.224493,0.0157772,0.0654467
308796847,0.22009,0.0146507,0.0672251
308997478,0.218787,0.0158289,0.0704154
309202449,0.252384,0.0129647,0.0718234
309402451,0.218137,0.0110533,0.0685299
309606150,0.248378,0.0131595,0.0700814
309811254,0.240863,0.0132993,0.0715985
310010728,0.22342,0.0152654,0.0794484
310214178,0.227135,0.0142851,0.0666952
310414212,0.235615,0.012754,0.0755459
310620768,0.230455,0.0146998,0.0693444
310820131,0.244433,0.0141762,0.0688065
311023779,0.235992,0.0140911,0.0734634
311228041,0.221261,0.0151337,0.0732711
311431790,0.211114,0.0128029,0.0699634
311632853,0.23605,0.0144974,0.0693394
311834526,0.23131,0.0128017,0.0694343
312034551,0.225971,0.0148318,0.0666609
312235794,0.237943,0.0124437,0.0719732
312439039,0.227964,0.0129223,0.0651181
312643430,0.216301,0.0147012,0.0653252
312844843,0.214934,0.014419,0.0662697
313045580,0.24749,0.0154497,0.0679602
313244875,0.23211,0.0136727,0.0636085
313449332,0.211673,0.014287,0.0614694
313655514,0.226573,0.0141122,0.0641722
313856012,0.240868,0.0149251,0.0635282
314060149,0.226532,0.0160547,0.0531832
314263847,0.250048,0.0151733,0.0599547
314467010,0.260477,0.0132559,0.0587497
314667162,0.217533,0.012715,0.0917725
314870919,0.212953,0.0141016,0.0738851
315072730,0.266153,0.0134005,0.0656351
315277790,0.237879,0.0126806,0.0659855
315480669,0.239653,0.014497,0.0694227
315685657,0.240675,0.0129848,0.0686294
315884797,0.243757,0.013594,0.0634788
316088588,0.234517,0.0148453,0.068209
316293379,0.251258,0.0144596,0.0569086
316496358,0.221377,0.0112426,0.0725148
316696599,0.257431,0.0135255,0.0705297
316899307,0.260191,0.014595,0.0720247
317100038,0.25563,0.0133166,0.0673324
