timestamp,vel_pos_innov[0],vel_pos_innov[1],vel_pos_innov[2],vel_pos_innov[3],vel_pos_innov[4],vel_pos_innov[5],mag_innov[0],mag_innov[1],mag_innov[2],heading_innov,airspeed_innov,beta_innov,flow_innov[0],flow_innov[1],hagl_innov,vel_pos_innov_var[0],vel_pos_innov_var[1],vel_pos_innov_var[2],vel_pos_innov_var[3],vel_pos_innov_var[4],vel_pos_innov_var[5],mag_innov_var[0],mag_innov_var[1],mag_innov_var[2],heading_innov_var,airspeed_innov_var,beta_innov_var,flow_innov_var[0],flow_innov_var[1],hagl_innov_var,output_tracking_error[0],output_tracking_error[1],output_tracking_error[2],drag_innov[0],drag_innov[1],drag_innov_var[0],drag_innov_var[1],aux_vel_innov[0],aux_vel_innov[1]
8848061,0.0,0.0,0.0,0.00082552,0.000908222,0.0507507,0.0,0.0,0.0,0.037208,0.0,0.0,0.0,0.0,0.0,0.0,0.0,0.0,0.266064,0.266095,4.12126,0.0,0.0,0.0,0.0915702,0.0,0.0,0.0,0.0,0.0,0.00688865,0.00595082,0.00441527,0.0,0.0,0.0,0.0,0.0,0.0
8852127,0.0,0.0,0.0,0.00082552,0.000908222,0.0507507,0.0,0.0,0.0,0.037208,0.0,0.0,0.0,0.0,0.0,0.0,0.0,0.0,0.266064,0.266095,4.12126,0.0,0.0,0.0,0.0915702,0.0,0.0,0.0,0.0,0.0,0.00688865,0.00595082,0.00441527,0.0,0.0,0.0,0.0,0.0,0.0
9053760,0.0,0.0,0.0,0.00101017,0.00103513,-0.247498,0.0,0.0,0.0,0.0204682,0.0,0.0,0.0,0.0,0.0,0.0,0.0,0.0,0.265859,0.265886,4.1205,0.0,0.0,0.0,0.0915193,0.0,0.0,0.0,0.0,0.0,0.00687559,0.00603491,0.0064458,0.0,0.0,0.0,0.0,0.0,0.0
9257788,0.0,0.0,0.0,0.00129074,0.00117648,-0.0788574,0.0,0.0,0.0,0.0417311,0.0,0.0,0.0,0.0,0.0,0.0,0.0,0.0,0.265014,0.265035,4.11722,0.0,0.0,0.0,0.0914651,0.0,0.0,0.0,0.0,0.0,0.00638695,0.00525682,0.00375881,0.0,0.0,0.0,0.0,0.0,0.0
9457780,0.0,0.0,0.0,0.00159982,0.00145388,0.317261,0.0,0.0,0.0,0.00578225,0.0,0.0,0.0,0.0,0.0,0.0,0.0,0.0,0.264817,0.264835,4.11611,0.0,0.0,0.0,0.0914205,0.0,0.0,0.0,0.0,0.0,0.00521549,0.00498633,0.00415368,0.0,0.0,0.0,0.0,0.0,0.0
9661754,0.0,0.0,0.0,0.00176914,0.0016814,0.136688,0.0,0.0,0.0,0.0120324,0.0,0.0,0.0,0.0,0.0,0.0,0.0,0.0,0.264343,0.264358,4.11381,0.0,0.0,0.0,0.0913787,0.0,0.0,0.0,0.0,0.0,0.00303069,0.00655388,0.00854791,0.0,0.0,0.0,0.0,0.0,0.0
9861676,0.0,0.0,0.0,0.00191039,0.00217326,-0.224457,0.0,0.0,0.0,0.0321812,0.0,0.0,0.0,0.0,0.0,0.0,0.0,0.0,0.264486,0.2645,4.11423,0.0,0.0,0.0,0.0913391,0.0,0.0,0.0,0.0,0.0,0.00112548,0.00533866,0.0068855,0.0,0.0,0.0,0.0,0.0,0.0
10065725,0.0,0.0,0.0,0.00179654,0.00276814,-0.0820923,0.0,0.0,0.0,0.0128251,0.0,0.0,0.0,0.0,0.0,0.0,0.0,0.0,0.264122,0.264133,4.11287,0.0,0.0,0.0,0.091297,0.0,0.0,0.0,0.0,0.0,0.00312033,0.00544259,0.00659948,0.0,0.0,0.0,0.0,0.0,0.0
10270590,0.0,0.0,0.0,0.00158732,0.00305552,-0.48053,0.0,0.0,0.0,0.00819676,0.0,0.0,0.0,0.0,0.0,0.0,0.0,0.0,0.2634,0.263409,4.10956,0.0,0.0,0.0,0.0912579,0.0,0.0,0.0,0.0,0.0,0.00410944,0.00396556,0.00320867,0.0,0.0,0.0,0.0,0.0,0.0
10472139,0.0,0.0,0.0,0.00134595,0.00327532,-0.073822,0.0,0.0,0.0,0.038087,0.0,0.0,0.0,0.0,0.0,0.0,0.0,0.0,0.262878,0.262886,4.10666,0.0,0.0,0.0,0.0912206,0.0,0.0,0.0,0.0,0.0,0.00406613,0.00425272,0.0049883,0.0,0.0,0.0,0.0,0.0,0.0
10676111,0.0,0.0,0.0,0.00105853,0.00341447,-0.249573,0.0,0.0,0.0,0.00993174,0.0,0.0,0.0,0.0,0.0,0.0,0.0,0.0,0.262494,0.2625,4.10404,0.0,0.0,0.0,0.0911897,0.0,0.0,0.0,0.0,0.0,0.0025958,0.00449687,0.0063795,0.0,0.0,0.0,0.0,0.0,0.0
10876254,0.0,0.0,0.0,0.000784777,0.0034231,-0.0441589,0.0,0.0,0.0,-0.0081401,0.0,0.0,0.0,0.0,0.0,0.0,0.0,0.0,0.261954,0.261959,4.10063,0.0,0.0,0.0,0.0911603,0.0,0.0,0.0,0.0,0.0,0.00127059,0.00447364,0.00518128,0.0,0.0,0.0,0.0,0.0,0.0
11076104,0.0,0.0,0.0,0.000622994,0.00334515,-0.136383,0.0,0.0,0.0,-0.00471419,0.0,0.0,0.0,0.0,0.0,0.0,0.0,0.0,0.261833,0.261837,4.09909,0.0,0.0,0.0,0.0911465,0.0,0.0,0.0,0.0,0.0,0.00150516,0.00721117,0.012027,0.0,0.0,0.0,0.0,0.0,0.0
11280182,0.0,0.0,0.0,0.000436145,0.00302861,0.116425,0.0,0.0,0.0,0.0382967,0.0,0.0,0.0,0.0,0.0,0.0,0.0,0.0,0.261521,0.261525,4.09678,0.0,0.0,0.0,0.0911148,0.0,0.0,0.0,0.0,0.0,0.00212835,0.00611032,0.0104701,0.0,0.0,0.0,0.0,0.0,0.0
11484226,0.0,0.0,0.0,0.000193445,0.00270276,-0.301727,0.0,0.0,0.0,0.0361845,0.0,0.0,0.0,0.0,0.0,0.0,0.0,0.0,0.261249,0.261252,4.09457,0.0,0.0,0.0,0.0910786,0.0,0.0,0.0,0.0,0.0,0.00222417,0.00587819,0.0115419,0.0,0.0,0.0,0.0,0.0,0.0
11686498,0.0,0.0,0.0,1.67883e-06,0.00249316,0.0460815,0.0,0.0,0.0,0.00765401,0.0,0.0,0.0,0.0,0.0,0.0,0.0,0.0,0.261136,0.261139,4.09317,0.0,0.0,0.0,0.0910596,0.0,0.0,0.0,0.0,0.0,0.00207202,0.00229675,0.00281929,0.0,0.0,0.0,0.0,0.0,0.0
11891433,0.0,0.0,0.0,-0.000269349,0.00234749,0.0488892,0.0,0.0,0.0,-0.0235732,0.0,0.0,0.0,0.0,0.0,0.0,0.0,0.0,0.2609,0.260903,4.09128,0.0,0.0,0.0,0.0910328,0.0,0.0,0.0,0.0,0.0,0.000702969,0.00282467,0.00213694,0.0,0.0,0.0,0.0,0.0,0.0
12091416,0.0,0.0,0.0,-0.000602028,0.00227364,-0.218475,0.0,0.0,0.0,0.023702,0.0,0.0,0.0,0.0,0.0,0.0,0.0,0.0,0.260888,0.260891,4.09049,0.0,0.0,0.0,0.0910075,0.0,0.0,0.0,0.0,0.0,0.0011602,0.00387575,0.00518077,0.0,0.0,0.0,0.0,0.0,0.0
12295308,0.0,0.0,0.0,-0.000735867,0.00219992,0.319916,0.0,0.0,0.0,0.00589439,0.0,0.0,0.0,0.0,0.0,0.0,0.0,0.0,0.260912,0.260914,4.09007,0.0,0.0,0.0,0.0909832,0.0,0.0,0.0,0.0,0.0,0.00128093,0.00210888,0.0013055,0.0,0.0,0.0,0.0,0.0,0.0
12499448,0.0,0.0,0.0,-0.000789964,0.00225159,-0.109314,0.0,0.0,0.0,0.0214034,0.0,0.0,0.0,0.0,0.0,0.0,0.0,0.0,0.260631,0.260633,4.08828,0.0,0.0,0.0,0.0909628,0.0,0.0,0.0,0.0,0.0,0.00165608,0.00207679,0.00128519,0.0,0.0,0.0,0.0,0.0,0.0
12701699,0.0,0.0,0.0,-0.000755502,0.00228531,-0.189331,0.0,0.0,0.0,0.058377,0.0,0.0,0.0,0.0,0.0,0.0,0.0,0.0,0.260274,0.260276,4.08596,0.0,0.0,0.0,0.0909432,0.0,0.0,0.0,0.0,0.0,0.00223625,0.00216243,0.00144142,0.0,0.0,0.0,0.0,0.0,0.0
12905674,0.0,0.0,0.0,-0.000621511,0.00231325,-0.178436,0.0,0.0,0.0,0.00398307,0.0,0.0,0.0,0.0,0.0,0.0,0.0,0.0,0.260013,0.260014,4.08403,0.0,0.0,0.0,0.0909244,0.0,0.0,0.0,0.0,0.0,0.0022521,0.00170341,0.00447715,0.0,0.0,0.0,0.0,0.0,0.0
13106533,0.0,0.0,0.0,-0.000455597,0.00222412,0.0869751,0.0,0.0,0.0,0.0140813,0.0,0.0,0.0,0.0,0.0,0.0,0.0,0.0,0.259782,0.259783,4.08208,0.0,0.0,0.0,0.0909063,0.0,0.0,0.0,0.0,0.0,0.00133345,0.00177989,0.00115703,0.0,0.0,0.0,0.0,0.0,0.0
13312222,0.0,0.0,0.0,-0.000308242,0.00204685,0.278198,0.0,0.0,0.0,0.023503,0.0,0.0,0.0,0.0,0.0,0.0,0.0,0.0,0.259595,0.259596,4.08038,0.0,0.0,0.0,0.090889,0.0,0.0,0.0,0.0,0.0,0.00120143,0.00128177,0.00129662,0.0,0.0,0.0,0.0,0.0,0.0
13512098,0.0,0.0,0.0,-0.000169338,0.00174523,-0.336914,0.0,0.0,0.0,0.0321612,0.0,0.0,0.0,0.0,0.0,0.0,0.0,0.0,0.259659,0.25966,4.07979,0.0,0.0,0.0,0.0908702,0.0,0.0,0.0,0.0,0.0,0.00277064,0.00510201,0.00975339,0.0,0.0,0.0,0.0,0.0,0.0
13716208,0.0,0.0,0.0,-8.12875e-05,0.00143908,-0.312744,0.0,0.0,0.0,-0.00361539,0.0,0.0,0.0,0.0,0.0,0.0,0.0,0.0,0.259528,0.259529,4.0785,0.0,0.0,0.0,0.090852,0.0,0.0,0.0,0.0,0.0,0.00248306,0.00261441,0.00807781,0.0,0.0,0.0,0.0,0.0,0.0
13920967,0.0,0.0,0.0,-8.30625e-05,0.00133972,0.0786133,0.0,0.0,0.0,-0.00732855,0.0,0.0,0.0,0.0,0.0,0.0,0.0,0.0,0.259303,0.259303,4.07681,0.0,0.0,0.0,0.0908406,0.0,0.0,0.0,0.0,0.0,0.00256115,0.00365356,0.00704827,0.0,0.0,0.0,0.0,0.0,0.0
14120915,0.0,0.0,0.0,-0.000140177,0.00108882,0.214813,0.0,0.0,0.0,-0.0218247,0.0,0.0,0.0,0.0,0.0,0.0,0.0,0.0,0.259327,0.259328,4.07615,0.0,0.0,0.0,0.0908254,0.0,0.0,0.0,0.0,0.0,0.00127053,0.00477911,0.0104749,0.0,0.0,0.0,0.0,0.0,0.0
14324906,0.0,0.0,0.0,-0.000162483,0.000885054,-0.229462,0.0,0.0,0.0,0.0190454,0.0,0.0,0.0,0.0,0.0,0.0,0.0,0.0,0.259125,0.259126,4.07453,0.0,0.0,0.0,0.0908088,0.0,0.0,0.0,0.0,0.0,0.00212073,0.00712574,0.017308,0.0,0.0,0.0,0.0,0.0,0.0
14528914,0.0,0.0,0.0,-0.000152002,0.000707524,-0.385681,0.0,0.0,0.0,0.0078295,0.0,0.0,0.0,0.0,0.0,0.0,0.0,0.0,0.259131,0.259131,4.0739,0.0,0.0,0.0,0.0907982,0.0,0.0,0.0,0.0,0.0,0.00502506,0.000670282,0.00162304,0.0,0.0,0.0,0.0,0.0,0.0
14732920,0.0,0.0,0.0,-0.000188046,0.000313927,0.174286,0.0,0.0,0.0,-0.00906968,0.0,0.0,0.0,0.0,0.0,0.0,0.0,0.0,0.259222,0.259222,4.07361,0.0,0.0,0.0,0.090781,0.0,0.0,0.0,0.0,0.0,0.00378738,0.00631731,0.0156191,0.0,0.0,0.0,0.0,0.0,0.0
14932907,0.0,0.0,0.0,-0.000268891,-0.000217544,-0.402252,0.0,0.0,0.0,0.0377712,0.0,0.0,0.0,0.0,0.0,0.0,0.0,0.0,0.259052,0.259052,4.07238,0.0,0.0,0.0,0.0907696,0.0,0.0,0.0,0.0,0.0,0.0024936,0.00663644,0.0170639,0.0,0.0,0.0,0.0,0.0,0.0
15132974,0.0,0.0,0.0,-0.000353746,-0.000642896,-0.100769,0.0,0.0,0.0,0.0162963,0.0,0.0,0.0,0.0,0.0,0.0,0.0,0.0,0.258922,0.258923,4.07125,0.0,0.0,0.0,0.0907568,0.0,0.0,0.0,0.0,0.0,0.00223378,0.00420704,0.0111125,0.0,0.0,0.0,0.0,0.0,0.0
15335277,0.0,0.0,0.0,-0.000439125,-0.0009265,0.376526,0.0,0.0,0.0,0.0716316,0.0,0.0,0.0,0.0,0.0,0.0,0.0,0.0,0.258829,0.25883,4.07025,0.0,0.0,0.0,0.0907416,0.0,0.0,0.0,0.0,0.0,0.00289047,0.00441445,0.0110947,0.0,0.0,0.0,0.0,0.0,0.0
15536242,0.0,0.0,0.0,-0.000412098,-0.000926897,0.466705,0.0,0.0,0.0,0.0094959,0.0,0.0,0.0,0.0,0.0,0.0,0.0,0.0,0.258559,0.25856,4.06848,0.0,0.0,0.0,0.0907269,0.0,0.0,0.0,0.0,0.0,0.00379114,0.0049231,0.012191,0.0,0.0,0.0,0.0,0.0,0.0
15736963,0.0,0.0,0.0,-0.000284323,-0.000769592,-0.0597229,0.0,0.0,0.0,0.0246714,0.0,0.0,0.0,0.0,0.0,0.0,0.0,0.0,0.258524,0.258525,4.06764,0.0,0.0,0.0,0.0907158,0.0,0.0,0.0,0.0,0.0,0.00287254,0.00520383,0.0133136,0.0,0.0,0.0,0.0,0.0,0.0
15937740,0.0,0.0,0.0,-0.000131417,-0.000722126,0.0429993,0.0,0.0,0.0,0.0040089,0.0,0.0,0.0,0.0,0.0,0.0,0.0,0.0,0.258413,0.258413,4.06654,0.0,0.0,0.0,0.090705,0.0,0.0,0.0,0.0,0.0,0.00210615,0.000848989,0.0012248,0.0,0.0,0.0,0.0,0.0,0.0
16141697,0.0,0.0,0.0,-5.03198e-05,-0.000610326,0.00195312,0.0,0.0,0.0,0.00679983,0.0,0.0,0.0,0.0,0.0,0.0,0.0,0.0,0.258304,0.258304,4.06546,0.0,0.0,0.0,0.0906945,0.0,0.0,0.0,0.0,0.0,0.00171815,0.00170263,0.00313037,0.0,0.0,0.0,0.0,0.0,0.0
16345739,0.0,0.0,0.0,8.48888e-05,-0.000312843,0.0832214,0.0,0.0,0.0,-0.00820997,0.0,0.0,0.0,0.0,0.0,0.0,0.0,0.0,0.25823,0.25823,4.06447,0.0,0.0,0.0,0.0906844,0.0,0.0,0.0,0.0,0.0,0.000407676,0.00301851,0.00780115,0.0,0.0,0.0,0.0,0.0,0.0
16545754,0.0,0.0,0.0,0.000267505,0.000137243,-0.182129,0.0,0.0,0.0,0.0099349,0.0,0.0,0.0,0.0,0.0,0.0,0.0,0.0,0.258078,0.258078,4.06323,0.0,0.0,0.0,0.0906745,0.0,0.0,0.0,0.0,0.0,0.000418466,0.00412669,0.0114493,0.0,0.0,0.0,0.0,0.0,0.0
16745848,0.0,0.0,0.0,0.000417329,0.00060085,-0.550659,0.0,0.0,0.0,-0.00753312,0.0,0.0,0.0,0.0,0.0,0.0,0.0,0.0,0.25811,0.25811,4.06276,0.0,0.0,0.0,0.0906637,0.0,0.0,0.0,0.0,0.0,0.000163174,0.00335879,0.0106642,0.0,0.0,0.0,0.0,0.0,0.0
16949829,0.0,0.0,0.0,0.000538435,0.00103749,0.119476,0.0,0.0,0.0,-0.00082542,0.0,0.0,0.0,0.0,0.0,0.0,0.0,0.0,0.257962,0.257962,4.06169,0.0,0.0,0.0,0.0906545,0.0,0.0,0.0,0.0,0.0,0.000551575,0.00349693,0.0119866,0.0,0.0,0.0,0.0,0.0,0.0
17154627,0.0,0.0,0.0,0.000553042,0.00175272,0.157227,0.0,0.0,0.0,0.0386989,0.0,0.0,0.0,0.0,0.0,0.0,0.0,0.0,0.257941,0.257941,4.06107,0.0,0.0,0.0,0.0906454,0.0,0.0,0.0,0.0,0.0,0.000357387,0.0016546,0.00315144,0.0,0.0,0.0,0.0,0.0,0.0
17356115,0.0,0.0,0.0,0.000402097,0.00258787,0.150513,0.0,0.0,0.0,-0.00844793,0.0,0.0,0.0,0.0,0.0,0.0,0.0,0.0,0.257922,0.257922,4.06056,0.0,0.0,0.0,0.0906375,0.0,0.0,0.0,0.0,0.0,0.00626342,0.00347236,0.00841637,0.0,0.0,0.0,0.0,0.0,0.0
17560910,0.0,0.0,0.0,0.000125705,0.00334951,0.228973,0.0,0.0,0.0,-0.0375679,0.0,0.0,0.0,0.0,0.0,0.0,0.0,0.0,0.257965,0.257965,4.06033,0.0,0.0,0.0,0.0906289,0.0,0.0,0.0,0.0,0.0,0.00205136,0.00516091,0.0152313,0.0,0.0,0.0,0.0,0.0,0.0
17761009,0.0,0.0,0.0,-0.000196175,0.00419069,-0.211121,0.0,0.0,0.0,-0.00677729,0.0,0.0,0.0,0.0,0.0,0.0,0.0,0.0,0.258148,0.258148,4.06072,0.0,0.0,0.0,0.0906184,0.0,0.0,0.0,0.0,0.0,0.000579483,0.0050881,0.0156247,0.0,0.0,0.0,0.0,0.0,0.0
17964168,0.0,0.0,0.0,-0.000446751,0.00489241,-0.0689392,0.0,0.0,0.0,-0.00656576,0.0,0.0,0.0,0.0,0.0,0.0,0.0,0.0,0.25819,0.25819,4.06071,0.0,0.0,0.0,0.0906103,0.0,0.0,0.0,0.0,0.0,0.000722657,0.0036899,0.0115659,0.0,0.0,0.0,0.0,0.0,0.0
18169067,0.0,0.0,0.0,-0.000794353,0.00562471,-0.288147,0.0,0.0,0.0,-0.0119999,0.0,0.0,0.0,0.0,0.0,0.0,0.0,0.0,0.258169,0.258169,4.06057,0.0,0.0,0.0,0.0906034,0.0,0.0,0.0,0.0,0.0,0.000593859,0.00106984,0.0016851,0.0,0.0,0.0,0.0,0.0,0.0
18370521,0.0,0.0,0.0,-0.00122577,0.00590262,-0.154144,0.0,0.0,0.0,-0.0117713,0.0,0.0,0.0,0.0,0.0,0.0,0.0,0.0,0.258035,0.258035,4.06003,0.0,0.0,0.0,0.0905956,0.0,0.0,0.0,0.0,0.0,0.000604578,0.0011599,0.00181905,0.0,0.0,0.0,0.0,0.0,0.0
18574477,0.0,0.0,0.0,-0.00167139,0.00612369,0.229553,0.0,0.0,0.0,0.000668049,0.0,0.0,0.0,0.0,0.0,0.0,0.0,0.0,0.258008,0.258008,4.05988,0.0,0.0,0.0,0.0905863,0.0,0.0,0.0,0.0,0.0,0.000846917,0.00308385,0.00859307,0.0,0.0,0.0,0.0,0.0,0.0
18778594,0.0,0.0,0.0,-0.00211468,0.00624393,-0.130219,0.0,0.0,0.0,-0.0191146,0.0,0.0,0.0,0.0,0.0,0.0,0.0,0.0,0.257913,0.257913,4.05947,0.0,0.0,0.0,0.0905763,0.0,0.0,0.0,0.0,0.0,0.00125275,0.00425949,0.0130585,0.0,0.0,0.0,0.0,0.0,0.0
18982534,0.0,0.0,0.0,-0.00242925,0.006305,-0.304474,0.0,0.0,0.0,-0.0220992,0.0,0.0,0.0,0.0,0.0,0.0,0.0,0.0,0.257821,0.257821,4.05908,0.0,0.0,0.0,0.0905694,0.0,0.0,0.0,0.0,0.0,0.00178665,0.00228084,0.00714052,0.0,0.0,0.0,0.0,0.0,0.0
19182466,0.0,0.0,0.0,-0.00278045,0.00621657,-0.298126,0.0,0.0,0.0,-0.0153001,0.0,0.0,0.0,0.0,0.0,0.0,0.0,0.0,0.257749,0.257749,4.05875,0.0,0.0,0.0,0.0905635,0.0,0.0,0.0,0.0,0.0,0.00122587,0.00129448,0.00254286,0.0,0.0,0.0,0.0,0.0,0.0
19387469,0.0,0.0,0.0,-0.00325267,0.0061877,-0.121033,0.0,0.0,0.0,-0.000437289,0.0,0.0,0.0,0.0,0.0,0.0,0.0,0.0,0.257715,0.257715,4.05856,0.0,0.0,0.0,0.0905551,0.0,0.0,0.0,0.0,0.0,0.000221445,0.00138655,0.00348081,0.0,0.0,0.0,0.0,0.0,0.0
19591338,0.0,0.0,0.0,-0.00372093,0.00608292,-0.244476,0.0,0.0,0.0,-0.0463026,0.0,0.0,0.0,0.0,0.0,0.0,0.0,0.0,0.257678,0.257678,4.05838,0.0,0.0,0.0,0.0905471,0.0,0.0,0.0,0.0,0.0,0.00073827,0.00174319,0.00528546,0.0,0.0,0.0,0.0,0.0,0.0
19791357,0.0,0.0,0.0,-0.00444031,0.00601795,0.364319,0.0,0.0,0.0,-0.00915906,0.0,0.0,0.0,0.0,0.0,0.0,0.0,0.0,0.257663,0.257664,4.0583,0.0,0.0,0.0,0.090541,0.0,0.0,0.0,0.0,0.0,0.00132291,0.00111909,0.00250402,0.0,0.0,0.0,0.0,0.0,0.0
19993766,0.0,0.0,0.0,-0.00505177,0.00607127,0.328552,0.0,0.0,0.0,0.0142335,0.0,0.0,0.0,0.0,0.0,0.0,0.0,0.0,0.257633,0.257633,4.05819,0.0,0.0,0.0,0.090535,0.0,0.0,0.0,0.0,0.0,0.000662474,0.00104712,0.00225652,0.0,0.0,0.0,0.0,0.0,0.0
20194474,0.0,0.0,0.0,-0.00569274,0.00640433,-0.223053,0.0,0.0,0.0,-0.0094932,0.0,0.0,0.0,0.0,0.0,0.0,0.0,0.0,0.257844,0.257844,4.059,0.0,0.0,0.0,0.0905291,0.0,0.0,0.0,0.0,0.0,0.000315157,0.00234522,0.00802275,0.0,0.0,0.0,0.0,0.0,0.0
20396152,0.0,0.0,0.0,-0.00617655,0.00678913,-0.0224609,0.0,0.0,0.0,-0.0196316,0.0,0.0,0.0,0.0,0.0,0.0,0.0,0.0,0.257933,0.257934,4.0595,0.0,0.0,0.0,0.0905218,0.0,0.0,0.0,0.0,0.0,0.000390911,0.00455226,0.0120036,0.0,0.0,0.0,0.0,0.0,0.0
20596167,0.0,0.0,0.0,-0.00643066,0.00699645,0.0629883,0.0,0.0,0.0,-0.0135448,0.0,0.0,0.0,0.0,0.0,0.0,0.0,0.0,0.258048,0.258049,4.06015,0.0,0.0,0.0,0.0905162,0.0,0.0,0.0,0.0,0.0,0.000342825,0.00278264,0.0077414,0.0,0.0,0.0,0.0,0.0,0.0
20800177,0.0,0.0,0.0,-0.00629402,0.00676389,-0.200012,0.0,0.0,0.0,-0.0188575,0.0,0.0,0.0,0.0,0.0,0.0,0.0,0.0,0.257973,0.257973,4.06023,0.0,0.0,0.0,0.0905107,0.0,0.0,0.0,0.0,0.0,0.000437573,0.00285299,0.00818412,0.0,0.0,0.0,0.0,0.0,0.0
21004185,0.0,0.0,0.0,-0.00610149,0.00640483,0.10672,0.0,0.0,0.0,-0.046604,0.0,0.0,0.0,0.0,0.0,0.0,0.0,0.0,0.257828,0.257829,4.05994,0.0,0.0,0.0,0.0905054,0.0,0.0,0.0,0.0,0.0,0.000494362,0.00125554,0.00267163,0.0,0.0,0.0,0.0,0.0,0.0
21208230,0.0,0.0,0.0,-0.00589865,0.00616334,-0.0159302,0.0,0.0,0.0,0.0199146,0.0,0.0,0.0,0.0,0.0,0.0,0.0,0.0,0.257726,0.257726,4.05977,0.0,0.0,0.0,0.0905002,0.0,0.0,0.0,0.0,0.0,0.00039971,0.00165159,0.00425606,0.0,0.0,0.0,0.0,0.0,0.0
21408978,0.0,0.0,0.0,-0.0057644,0.00598179,0.155914,0.0,0.0,0.0,-0.00967577,0.0,0.0,0.0,0.0,0.0,0.0,0.0,0.0,0.257715,0.257716,4.05988,0.0,0.0,0.0,0.090495,0.0,0.0,0.0,0.0,0.0,0.000521019,0.00147363,0.00324138,0.0,0.0,0.0,0.0,0.0,0.0
21610622,0.0,0.0,0.0,-0.00554452,0.00586894,0.233398,0.0,0.0,0.0,0.00795637,0.0,0.0,0.0,0.0,0.0,0.0,0.0,0.0,0.257717,0.257717,4.06002,0.0,0.0,0.0,0.090488,0.0,0.0,0.0,0.0,0.0,0.000222212,0.00432607,0.0120939,0.0,0.0,0.0,0.0,0.0,0.0
21810610,0.0,0.0,0.0,-0.00523894,0.00580567,-0.108917,0.0,0.0,0.0,0.0166516,0.0,0.0,0.0,0.0,0.0,0.0,0.0,0.0,0.257722,0.257722,4.06019,0.0,0.0,0.0,0.0904832,0.0,0.0,0.0,0.0,0.0,0.00105777,0.000692936,0.00122638,0.0,0.0,0.0,0.0,0.0,0.0
22010586,0.0,0.0,0.0,-0.00482849,0.00560562,-0.328522,0.0,0.0,0.0,0.0356718,0.0,0.0,0.0,0.0,0.0,0.0,0.0,0.0,0.257561,0.257561,4.05967,0.0,0.0,0.0,0.090479,0.0,0.0,0.0,0.0,0.0,0.00163032,0.000409158,0.000567851,0.0,0.0,0.0,0.0,0.0,0.0
22214505,0.0,0.0,0.0,-0.00437531,0.00526759,-0.0638733,0.0,0.0,0.0,0.0415227,0.0,0.0,0.0,0.0,0.0,0.0,0.0,0.0,0.25752,0.25752,4.0596,0.0,0.0,0.0,0.0904743,0.0,0.0,0.0,0.0,0.0,0.00184481,0.000748612,0.00225143,0.0,0.0,0.0,0.0,0.0,0.0
22419339,0.0,0.0,0.0,-0.0039074,0.00488193,-0.0990906,0.0,0.0,0.0,0.0418887,0.0,0.0,0.0,0.0,0.0,0.0,0.0,0.0,0.257556,0.257556,4.05979,0.0,0.0,0.0,0.0904691,0.0,0.0,0.0,0.0,0.0,0.00182593,0.00235107,0.00739384,0.0,0.0,0.0,0.0,0.0,0.0
22619454,0.0,0.0,0.0,-0.00325575,0.0042764,-0.17572,0.0,0.0,0.0,0.0572418,0.0,0.0,0.0,0.0,0.0,0.0,0.0,0.0,0.257466,0.257466,4.05948,0.0,0.0,0.0,0.0904646,0.0,0.0,0.0,0.0,0.0,0.00134515,0.00277902,0.00903359,0.0,0.0,0.0,0.0,0.0,0.0
22823359,0.0,0.0,0.0,-0.00265374,0.00360625,0.0465393,0.0,0.0,0.0,0.0360144,0.0,0.0,0.0,0.0,0.0,0.0,0.0,0.0,0.257436,0.257436,4.05939,0.0,0.0,0.0,0.090459,0.0,0.0,0.0,0.0,0.0,0.00175171,0.00189493,0.00659612,0.0,0.0,0.0,0.0,0.0,0.0
23027240,0.0,0.0,0.0,-0.00202618,0.00298967,-0.425781,0.0,0.0,0.0,0.0135478,0.0,0.0,0.0,0.0,0.0,0.0,0.0,0.0,0.257438,0.257438,4.05942,0.0,0.0,0.0,0.0904547,0.0,0.0,0.0,0.0,0.0,0.00120886,0.00114459,0.00399752,0.0,0.0,0.0,0.0,0.0,0.0
23231430,0.0,0.0,0.0,-0.00157803,0.0025322,-0.0775452,0.0,0.0,0.0,0.00541857,0.0,0.0,0.0,0.0,0.0,0.0,0.0,0.0,0.257421,0.257421,4.05937,0.0,0.0,0.0,0.0904505,0.0,0.0,0.0,0.0,0.0,0.000530602,0.000733107,0.00169499,0.0,0.0,0.0,0.0,0.0,0.0
23432866,0.0,0.0,0.0,-0.0012558,0.00210922,0.056488,0.0,0.0,0.0,-0.016882,0.0,0.0,0.0,0.0,0.0,0.0,0.0,0.0,0.257404,0.257404,4.05932,0.0,0.0,0.0,0.0904463,0.0,0.0,0.0,0.0,0.0,0.000244971,0.000857323,0.0015936,0.0,0.0,0.0,0.0,0.0,0.0
23636994,0.0,0.0,0.0,-0.00103271,0.00172088,-0.0734558,0.0,0.0,0.0,0.013815,0.0,0.0,0.0,0.0,0.0,0.0,0.0,0.0,0.257501,0.257501,4.05977,0.0,0.0,0.0,0.0904423,0.0,0.0,0.0,0.0,0.0,0.000230308,0.0015262,0.00347069,0.0,0.0,0.0,0.0,0.0,0.0
23837812,0.0,0.0,0.0,-0.000996071,0.00150331,-0.246552,0.0,0.0,0.0,-0.00311434,0.0,0.0,0.0,0.0,0.0,0.0,0.0,0.0,0.257585,0.257585,4.06021,0.0,0.0,0.0,0.0904383,0.0,0.0,0.0,0.0,0.0,0.000576716,0.0011542,0.00250639,0.0,0.0,0.0,0.0,0.0,0.0
24041705,0.0,0.0,0.0,-0.0010728,0.00129112,-0.0362549,0.0,0.0,0.0,0.0148379,0.0,0.0,0.0,0.0,0.0,0.0,0.0,0.0,0.25755,0.257551,4.0602,0.0,0.0,0.0,0.0904344,0.0,0.0,0.0,0.0,0.0,0.000434536,0.0018949,0.00539868,0.0,0.0,0.0,0.0,0.0,0.0
24245829,0.0,0.0,0.0,-0.00122453,0.00101775,0.0140076,0.0,0.0,0.0,-0.00986448,0.0,0.0,0.0,0.0,0.0,0.0,0.0,0.0,0.257574,0.257574,4.0604,0.0,0.0,0.0,0.090431,0.0,0.0,0.0,0.0,0.0,0.000599868,0.0012916,0.00270049,0.0,0.0,0.0,0.0,0.0,0.0
24445766,0.0,0.0,0.0,-0.00136145,0.000684383,0.61264,0.0,0.0,0.0,-0.0010556,0.0,0.0,0.0,0.0,0.0,0.0,0.0,0.0,0.257464,0.257464,4.06004,0.0,0.0,0.0,0.0904257,0.0,0.0,0.0,0.0,0.0,0.000189519,0.00299287,0.00849544,0.0,0.0,0.0,0.0,0.0,0.0
24645726,0.0,0.0,0.0,-0.00153067,0.000326301,0.381775,0.0,0.0,0.0,0.0118185,0.0,0.0,0.0,0.0,0.0,0.0,0.0,0.0,0.257424,0.257424,4.05994,0.0,0.0,0.0,0.0904221,0.0,0.0,0.0,0.0,0.0,0.000293876,0.0056247,0.0164321,0.0,0.0,0.0,0.0,0.0,0.0
24851261,0.0,0.0,0.0,-0.0017413,-8.32183e-05,0.41449,0.0,0.0,0.0,-0.038057,0.0,0.0,0.0,0.0,0.0,0.0,0.0,0.0,0.257394,0.257394,4.05985,0.0,0.0,0.0,0.0904185,0.0,0.0,0.0,0.0,0.0,0.000148476,0.0056597,0.0169619,0.0,0.0,0.0,0.0,0.0,0.0
25051356,0.0,0.0,0.0,-0.00190627,-0.000375846,-0.0240479,0.0,0.0,0.0,0.00899959,0.0,0.0,0.0,0.0,0.0,0.0,0.0,0.0,0.257411,0.257411,4.05994,0.0,0.0,0.0,0.0904135,0.0,0.0,0.0,0.0,0.0,0.000127146,0.00382124,0.0118027,0.0,0.0,0.0,0.0,0.0,0.0
25251293,0.0,0.0,0.0,-0.0020952,-0.000602537,-0.155243,0.0,0.0,0.0,-0.0194796,0.0,0.0,0.0,0.0,0.0,0.0,0.0,0.0,0.257388,0.257388,4.05987,0.0,0.0,0.0,0.090411,0.0,0.0,0.0,0.0,0.0,2.4456e-05,0.00149647,0.00462247,0.0,0.0,0.0,0.0,0.0,0.0
25455455,0.0,0.0,0.0,-0.00229643,-0.000977513,-0.236145,0.0,0.0,0.0,0.00166057,0.0,0.0,0.0,0.0,0.0,0.0,0.0,0.0,0.257393,0.257393,4.05991,0.0,0.0,0.0,0.090408,0.0,0.0,0.0,0.0,0.0,0.000171718,0.00142113,0.00344799,0.0,0.0,0.0,0.0,0.0,0.0
25659407,0.0,0.0,0.0,-0.00265796,-0.00114205,-0.194366,0.0,0.0,0.0,-0.00527917,0.0,0.0,0.0,0.0,0.0,0.0,0.0,0.0,0.257378,0.257378,4.05986,0.0,0.0,0.0,0.0904046,0.0,0.0,0.0,0.0,0.0,0.000267475,0.00179987,0.00494155,0.0,0.0,0.0,0.0,0.0,0.0
25863346,0.0,0.0,0.0,-0.0032405,-0.0011894,0.0599976,0.0,0.0,0.0,-0.000706553,0.0,0.0,0.0,0.0,0.0,0.0,0.0,0.0,0.257391,0.257391,4.05992,0.0,0.0,0.0,0.0904008,0.0,0.0,0.0,0.0,0.0,4.67101e-05,0.000913881,0.00192778,0.0,0.0,0.0,0.0,0.0,0.0
26063363,0.0,0.0,0.0,-0.00373608,-0.00106002,-0.152222,0.0,0.0,0.0,-0.0109754,0.0,0.0,0.0,0.0,0.0,0.0,0.0,0.0,0.257376,0.257376,4.05987,0.0,0.0,0.0,0.0903985,0.0,0.0,0.0,0.0,0.0,0.000612803,0.00191725,0.00577232,0.0,0.0,0.0,0.0,0.0,0.0
26265753,0.0,0.0,0.0,-0.00413003,-0.00079005,-0.28479,0.0,0.0,0.0,-0.00524431,0.0,0.0,0.0,0.0,0.0,0.0,0.0,0.0,0.257364,0.257364,4.05983,0.0,0.0,0.0,0.0903952,0.0,0.0,0.0,0.0,0.0,0.000202696,0.00130078,0.00407608,0.0,0.0,0.0,0.0,0.0,0.0
26466608,0.0,0.0,0.0,-0.00454336,-0.000312796,0.0601196,0.0,0.0,0.0,-0.0165563,0.0,0.0,0.0,0.0,0.0,0.0,0.0,0.0,0.257388,0.257388,4.05998,0.0,0.0,0.0,0.090392,0.0,0.0,0.0,0.0,0.0,0.000359747,0.000778062,0.00230773,0.0,0.0,0.0,0.0,0.0,0.0
26670551,0.0,0.0,0.0,-0.00496861,7.10683e-05,-0.165466,0.0,0.0,0.0,0.0282521,0.0,0.0,0.0,0.0,0.0,0.0,0.0,0.0,0.257503,0.257503,4.0605,0.0,0.0,0.0,0.0903889,0.0,0.0,0.0,0.0,0.0,0.000497895,0.00297991,0.00922193,0.0,0.0,0.0,0.0,0.0,0.0
26874611,0.0,0.0,0.0,-0.00531374,0.000520359,0.0828857,0.0,0.0,0.0,0.000205055,0.0,0.0,0.0,0.0,0.0,0.0,0.0,0.0,0.257533,0.257533,4.06076,0.0,0.0,0.0,0.0903854,0.0,0.0,0.0,0.0,0.0,9.59059e-05,0.00593716,0.0180544,0.0,0.0,0.0,0.0,0.0,0.0
27074554,0.0,0.0,0.0,-0.00537016,0.000751224,-0.355988,0.0,0.0,0.0,0.0494673,0.0,0.0,0.0,0.0,0.0,0.0,0.0,0.0,0.257471,0.25747,4.0606,0.0,0.0,0.0,0.0903831,0.0,0.0,0.0,0.0,0.0,0.000249001,0.00274671,0.00894537,0.0,0.0,0.0,0.0,0.0,0.0
27278531,0.0,0.0,0.0,-0.00554658,0.000987945,-0.0414124,0.0,0.0,0.0,0.0109432,0.0,0.0,0.0,0.0,0.0,0.0,0.0,0.0,0.257553,0.257553,4.06102,0.0,0.0,0.0,0.0903801,0.0,0.0,0.0,0.0,0.0,4.57638e-05,0.000579552,0.00204849,0.0,0.0,0.0,0.0,0.0,0.0
27480273,0.0,0.0,0.0,-0.0055358,0.00124788,0.283844,0.0,0.0,0.0,0.00839159,0.0,0.0,0.0,0.0,0.0,0.0,0.0,0.0,0.257559,0.257558,4.0612,0.0,0.0,0.0,0.0903779,0.0,0.0,0.0,0.0,0.0,0.000417082,0.00189196,0.00501287,0.0,0.0,0.0,0.0,0.0,0.0
27680199,0.0,0.0,0.0,-0.00532307,0.00168676,-0.0986938,0.0,0.0,0.0,0.0135755,0.0,0.0,0.0,0.0,0.0,0.0,0.0,0.0,0.257499,0.257498,4.06105,0.0,0.0,0.0,0.090375,0.0,0.0,0.0,0.0,0.0,0.000165449,0.00208027,0.00609713,0.0,0.0,0.0,0.0,0.0,0.0
27884210,0.0,0.0,0.0,-0.00506071,0.00212974,-0.0783691,0.0,0.0,0.0,0.0803811,0.0,0.0,0.0,0.0,0.0,0.0,0.0,0.0,0.257381,0.257381,4.0606,0.0,0.0,0.0,0.0903721,0.0,0.0,0.0,0.0,0.0,0.00137363,0.00571643,0.0170966,0.0,0.0,0.0,0.0,0.0,0.0
28084908,0.0,0.0,0.0,-0.0047378,0.00267147,0.0409851,0.0,0.0,0.0,0.0197732,0.0,0.0,0.0,0.0,0.0,0.0,0.0,0.0,0.257416,0.257415,4.06077,0.0,0.0,0.0,0.0903696,0.0,0.0,0.0,0.0,0.0,0.00117197,0.00122099,0.00255927,0.0,0.0,0.0,0.0,0.0,0.0
28288909,0.0,0.0,0.0,-0.00422588,0.00313778,0.0881348,0.0,0.0,0.0,0.0279671,0.0,0.0,0.0,0.0,0.0,0.0,0.0,0.0,0.25745,0.25745,4.06095,0.0,0.0,0.0,0.0903664,0.0,0.0,0.0,0.0,0.0,0.00134447,0.000396191,0.000869117,0.0,0.0,0.0,0.0,0.0,0.0
28490475,0.0,0.0,0.0,-0.00367823,0.00379878,0.0812988,0.0,0.0,0.0,0.0507027,0.0,0.0,0.0,0.0,0.0,0.0,0.0,0.0,0.257462,0.257462,4.06105,0.0,0.0,0.0,0.0903647,0.0,0.0,0.0,0.0,0.0,0.0013141,0.00172859,0.00501907,0.0,0.0,0.0,0.0,0.0,0.0
28694490,0.0,0.0,0.0,-0.00318517,0.00448393,0.586212,0.0,0.0,0.0,0.00465274,0.0,0.0,0.0,0.0,0.0,0.0,0.0,0.0,0.257559,0.257559,4.06153,0.0,0.0,0.0,0.0903612,0.0,0.0,0.0,0.0,0.0,0.00107561,0.00529117,0.0156263,0.0,0.0,0.0,0.0,0.0,0.0
28894609,0.0,0.0,0.0,-0.00264366,0.00475723,0.0518188,0.0,0.0,0.0,0.016711,0.0,0.0,0.0,0.0,0.0,0.0,0.0,0.0,0.257486,0.257486,4.06128,0.0,0.0,0.0,0.0903585,0.0,0.0,0.0,0.0,0.0,0.00174101,0.00515879,0.0159792,0.0,0.0,0.0,0.0,0.0,0.0
29094536,0.0,0.0,0.0,-0.00195962,0.00484011,0.0542603,0.0,0.0,0.0,0.030296,0.0,0.0,0.0,0.0,0.0,0.0,0.0,0.0,0.257365,0.257365,4.06079,0.0,0.0,0.0,0.0903558,0.0,0.0,0.0,0.0,0.0,0.00148135,0.00107666,0.00376175,0.0,0.0,0.0,0.0,0.0,0.0
29298677,0.0,0.0,0.0,-0.00139112,0.00492612,0.232666,0.0,0.0,0.0,0.0188012,0.0,0.0,0.0,0.0,0.0,0.0,0.0,0.0,0.2574,0.2574,4.06093,0.0,0.0,0.0,0.0903532,0.0,0.0,0.0,0.0,0.0,0.00100789,0.00109692,0.00208813,0.0,0.0,0.0,0.0,0.0,0.0
29502613,0.0,0.0,0.0,-0.000828217,0.00483379,-0.202423,0.0,0.0,0.0,-0.000306278,0.0,0.0,0.0,0.0,0.0,0.0,0.0,0.0,0.257311,0.257311,4.06051,0.0,0.0,0.0,0.09035,0.0,0.0,0.0,0.0,0.0,0.000899949,0.00149571,0.00376278,0.0,0.0,0.0,0.0,0.0,0.0
29702497,0.0,0.0,0.0,-0.000357459,0.00463311,0.177399,0.0,0.0,0.0,-0.000394464,0.0,0.0,0.0,0.0,0.0,0.0,0.0,0.0,0.257287,0.257287,4.06037,0.0,0.0,0.0,0.0903475,0.0,0.0,0.0,0.0,0.0,0.000500622,0.00158045,0.00413927,0.0,0.0,0.0,0.0,0.0,0.0
29903326,0.0,0.0,0.0,7.53638e-05,0.00435955,-0.223511,0.0,0.0,0.0,-0.0347005,0.0,0.0,0.0,0.0,0.0,0.0,0.0,0.0,0.257304,0.257304,4.06038,0.0,0.0,0.0,0.090345,0.0,0.0,0.0,0.0,0.0,0.000468338,0.0012496,0.003296,0.0,0.0,0.0,0.0,0.0,0.0
30104973,0.0,0.0,0.0,0.000363951,0.00402594,-0.119141,0.0,0.0,0.0,-0.00168642,0.0,0.0,0.0,0.0,0.0,0.0,0.0,0.0,0.257294,0.257294,4.06028,0.0,0.0,0.0,0.0903429,0.0,0.0,0.0,0.0,0.0,0.000371884,0.00458078,0.0131511,0.0,0.0,0.0,0.0,0.0,0.0
30304919,0.0,0.0,0.0,0.000598166,0.00373478,-0.295898,0.0,0.0,0.0,0.0139581,0.0,0.0,0.0,0.0,0.0,0.0,0.0,0.0,0.257297,0.257297,4.06025,0.0,0.0,0.0,0.0903402,0.0,0.0,0.0,0.0,0.0,0.000433986,0.00237579,0.00753273,0.0,0.0,0.0,0.0,0.0,0.0
30505068,0.0,0.0,0.0,0.000725411,0.0035917,-0.113068,0.0,0.0,0.0,0.0203094,0.0,0.0,0.0,0.0,0.0,0.0,0.0,0.0,0.257426,0.257427,4.0608,0.0,0.0,0.0,0.0903378,0.0,0.0,0.0,0.0,0.0,0.00063568,0.00382037,0.0117439,0.0,0.0,0.0,0.0,0.0,0.0
30705721,0.0,0.0,0.0,0.000768852,0.00355579,0.34375,0.0,0.0,0.0,0.0058019,0.0,0.0,0.0,0.0,0.0,0.0,0.0,0.0,0.257531,0.257531,4.0613,0.0,0.0,0.0,0.0903355,0.0,0.0,0.0,0.0,0.0,0.000664986,0.00346428,0.00929507,0.0,0.0,0.0,0.0,0.0,0.0
30909778,0.0,0.0,0.0,0.000657602,0.00349804,0.113953,0.0,0.0,0.0,-0.0327017,0.0,0.0,0.0,0.0,0.0,0.0,0.0,0.0,0.257666,0.257666,4.062,0.0,0.0,0.0,0.0903329,0.0,0.0,0.0,0.0,0.0,0.000325338,0.00309424,0.00904129,0.0,0.0,0.0,0.0,0.0,0.0
31109864,0.0,0.0,0.0,0.000271682,0.00348339,0.0500488,0.0,0.0,0.0,-0.00976868,0.0,0.0,0.0,0.0,0.0,0.0,0.0,0.0,0.257615,0.257615,4.06197,0.0,0.0,0.0,0.0903313,0.0,0.0,0.0,0.0,0.0,0.000513698,0.00519468,0.0159697,0.0,0.0,0.0,0.0,0.0,0.0
31313740,0.0,0.0,0.0,-0.000338062,0.00355048,0.221344,0.0,0.0,0.0,-0.033806,0.0,0.0,0.0,0.0,0.0,0.0,0.0,0.0,0.257525,0.257525,4.06172,0.0,0.0,0.0,0.090329,0.0,0.0,0.0,0.0,0.0,0.000596754,0.00251837,0.00816323,0.0,0.0,0.0,0.0,0.0,0.0
31515363,0.0,0.0,0.0,-0.000978051,0.00381531,-0.163879,0.0,0.0,0.0,-0.0233879,0.0,0.0,0.0,0.0,0.0,0.0,0.0,0.0,0.257444,0.257444,4.06144,0.0,0.0,0.0,0.0903269,0.0,0.0,0.0,0.0,0.0,0.000383077,0.00241543,0.00638601,0.0,0.0,0.0,0.0,0.0,0.0
31716185,0.0,0.0,0.0,-0.00170547,0.00405417,-0.237457,0.0,0.0,0.0,-0.0231618,0.0,0.0,0.0,0.0,0.0,0.0,0.0,0.0,0.257342,0.257342,4.06101,0.0,0.0,0.0,0.0903244,0.0,0.0,0.0,0.0,0.0,0.000413226,0.00616246,0.018137,0.0,0.0,0.0,0.0,0.0,0.0
31920190,0.0,0.0,0.0,-0.00235532,0.00429405,-0.237244,0.0,0.0,0.0,0.0103336,0.0,0.0,0.0,0.0,0.0,0.0,0.0,0.0,0.257306,0.257306,4.06084,0.0,0.0,0.0,0.0903214,0.0,0.0,0.0,0.0,0.0,0.000126231,0.00438287,0.0138034,0.0,0.0,0.0,0.0,0.0,0.0
32124123,0.0,0.0,0.0,-0.00299581,0.00466689,0.241028,0.0,0.0,0.0,0.0142839,0.0,0.0,0.0,0.0,0.0,0.0,0.0,0.0,0.257296,0.257296,4.06074,0.0,0.0,0.0,0.0903194,0.0,0.0,0.0,0.0,0.0,6.25335e-05,0.00174233,0.00626651,0.0,0.0,0.0,0.0,0.0,0.0
32324221,0.0,0.0,0.0,-0.0034398,0.0049083,0.27951,0.0,0.0,0.0,-0.256084,0.0,0.0,0.0,0.0,0.0,0.0,0.0,0.0,0.257273,0.257273,4.06059,0.0,0.0,0.0,0.0903171,0.0,0.0,0.0,0.0,0.0,0.00249721,0.000463266,0.00142945,0.0,0.0,0.0,0.0,0.0,0.0
32528219,0.0,0.0,0.0,-0.00383551,0.00509199,0.320038,0.0,0.0,0.0,-0.0136318,0.0,0.0,0.0,0.0,0.0,0.0,0.0,0.0,0.257257,0.257257,4.06046,0.0,0.0,0.0,0.0903145,0.0,0.0,0.0,0.0,0.0,0.00168847,0.000507344,0.000876912,0.0,0.0,0.0,0.0,0.0,0.0
32733713,0.0,0.0,0.0,-0.00420675,0.00520163,-0.0574951,0.0,0.0,0.0,0.0124432,0.0,0.0,0.0,0.0,0.0,0.0,0.0,0.0,0.257269,0.257268,4.06044,0.0,0.0,0.0,0.0903126,0.0,0.0,0.0,0.0,0.0,0.000129277,0.00329186,0.00990262,0.0,0.0,0.0,0.0,0.0,0.0
32934630,0.0,0.0,0.0,-0.00447829,0.00530949,0.164673,0.0,0.0,0.0,-0.000651106,0.0,0.0,0.0,0.0,0.0,0.0,0.0,0.0,0.257217,0.257217,4.06017,0.0,0.0,0.0,0.0903107,0.0,0.0,0.0,0.0,0.0,0.000302708,0.00199883,0.00646604,0.0,0.0,0.0,0.0,0.0,0.0
33138638,0.0,0.0,0.0,-0.00470519,0.00530628,-0.209747,0.0,0.0,0.0,-0.00206147,0.0,0.0,0.0,0.0,0.0,0.0,0.0,0.0,0.257294,0.257294,4.06045,0.0,0.0,0.0,0.0903088,0.0,0.0,0.0,0.0,0.0,0.000177376,0.00541661,0.0164511,0.0,0.0,0.0,0.0,0.0,0.0
33342626,0.0,0.0,0.0,-0.00475216,0.00516596,0.0116577,0.0,0.0,0.0,0.027865,0.0,0.0,0.0,0.0,0.0,0.0,0.0,0.0,0.257283,0.257283,4.06036,0.0,0.0,0.0,0.0903069,0.0,0.0,0.0,0.0,0.0,5.68759e-05,0.00361449,0.011189,0.0,0.0,0.0,0.0,0.0,0.0
33542537,0.0,0.0,0.0,-0.00481444,0.00495571,0.147583,0.0,0.0,0.0,-0.0017249,0.0,0.0,0.0,0.0,0.0,0.0,0.0,0.0,0.257218,0.257218,4.06005,0.0,0.0,0.0,0.090305,0.0,0.0,0.0,0.0,0.0,0.00296751,0.00315326,0.00967127,0.0,0.0,0.0,0.0,0.0,0.0
33746560,0.0,0.0,0.0,-0.00493073,0.00478455,-0.269867,0.0,0.0,0.0,-0.0345799,0.0,0.0,0.0,0.0,0.0,0.0,0.0,0.0,0.257288,0.257288,4.06033,0.0,0.0,0.0,0.0903032,0.0,0.0,0.0,0.0,0.0,0.00150797,0.00456155,0.0137481,0.0,0.0,0.0,0.0,0.0,0.0
33948153,0.0,0.0,0.0,-0.00481159,0.00472526,-0.347992,0.0,0.0,0.0,-0.00908406,0.0,0.0,0.0,0.0,0.0,0.0,0.0,0.0,0.257229,0.257228,4.06005,0.0,0.0,0.0,0.0903014,0.0,0.0,0.0,0.0,0.0,0.000204388,0.00395607,0.0118588,0.0,0.0,0.0,0.0,0.0,0.0
34148142,0.0,0.0,0.0,-0.00463285,0.00469268,0.132843,0.0,0.0,0.0,0.0266922,0.0,0.0,0.0,0.0,0.0,0.0,0.0,0.0,0.257237,0.257237,4.06007,0.0,0.0,0.0,0.0902994,0.0,0.0,0.0,0.0,0.0,6.73819e-05,0.00166891,0.00521801,0.0,0.0,0.0,0.0,0.0,0.0
34352850,0.0,0.0,0.0,-0.00430895,0.0045206,0.256836,0.0,0.0,0.0,0.0018519,0.0,0.0,0.0,0.0,0.0,0.0,0.0,0.0,0.25725,0.257249,4.06013,0.0,0.0,0.0,0.0902976,0.0,0.0,0.0,0.0,0.0,0.000356447,0.00175337,0.00508329,0.0,0.0,0.0,0.0,0.0,0.0
34557001,0.0,0.0,0.0,-0.00391993,0.0043806,-0.172913,0.0,0.0,0.0,0.0201364,0.0,0.0,0.0,0.0,0.0,0.0,0.0,0.0,0.257315,0.257315,4.06043,0.0,0.0,0.0,0.0902957,0.0,0.0,0.0,0.0,0.0,0.000698518,0.00053283,0.00198877,0.0,0.0,0.0,0.0,0.0,0.0
34756884,0.0,0.0,0.0,-0.00371177,0.00430535,0.429169,0.0,0.0,0.0,0.00821388,0.0,0.0,0.0,0.0,0.0,0.0,0.0,0.0,0.257483,0.257482,4.06122,0.0,0.0,0.0,0.090294,0.0,0.0,0.0,0.0,0.0,0.000539149,0.00278146,0.00882979,0.0,0.0,0.0,0.0,0.0,0.0
34962545,0.0,0.0,0.0,-0.00347667,0.00420972,-0.0902405,0.0,0.0,0.0,0.0137215,0.0,0.0,0.0,0.0,0.0,0.0,0.0,0.0,0.257554,0.257554,4.06168,0.0,0.0,0.0,0.0902923,0.0,0.0,0.0,0.0,0.0,0.000795934,0.00249454,0.00808811,0.0,0.0,0.0,0.0,0.0,0.0
35162620,0.0,0.0,0.0,-0.00333044,0.00415963,0.252167,0.0,0.0,0.0,0.00944176,0.0,0.0,0.0,0.0,0.0,0.0,0.0,0.0,0.257479,0.257478,4.0615,0.0,0.0,0.0,0.0902907,0.0,0.0,0.0,0.0,0.0,0.000536434,0.00386815,0.0119904,0.0,0.0,0.0,0.0,0.0,0.0
35362509,0.0,0.0,0.0,-0.00337241,0.0043725,-0.437195,0.0,0.0,0.0,0.00272708,0.0,0.0,0.0,0.0,0.0,0.0,0.0,0.0,0.25761,0.25761,4.06223,0.0,0.0,0.0,0.0902886,0.0,0.0,0.0,0.0,0.0,0.000625309,0.000177557,0.00172265,0.0,0.0,0.0,0.0,0.0,0.0
35562495,0.0,0.0,0.0,-0.00336127,0.00454966,0.119263,0.0,0.0,0.0,-0.0161344,0.0,0.0,0.0,0.0,0.0,0.0,0.0,0.0,0.257504,0.257504,4.06191,0.0,0.0,0.0,0.0902868,0.0,0.0,0.0,0.0,0.0,0.000663034,0.00270846,0.00880569,0.0,0.0,0.0,0.0,0.0,0.0
35764098,0.0,0.0,0.0,-0.0032823,0.00485302,0.0679932,0.0,0.0,0.0,-0.00403875,0.0,0.0,0.0,0.0,0.0,0.0,0.0,0.0,0.257361,0.257361,4.06137,0.0,0.0,0.0,0.0902854,0.0,0.0,0.0,0.0,0.0,0.00067028,0.00241554,0.00815798,0.0,0.0,0.0,0.0,0.0,0.0
35965715,0.0,0.0,0.0,-0.0032756,0.00530983,-0.196259,0.0,0.0,0.0,0.0450099,0.0,0.0,0.0,0.0,0.0,0.0,0.0,0.0,0.257392,0.257392,4.06153,0.0,0.0,0.0,0.0902838,0.0,0.0,0.0,0.0,0.0,0.0010017,0.00206799,0.00690856,0.0,0.0,0.0,0.0,0.0,0.0
36170478,0.0,0.0,0.0,-0.00323108,0.00563603,0.0983276,0.0,0.0,0.0,0.0264887,0.0,0.0,0.0,0.0,0.0,0.0,0.0,0.0,0.257348,0.257348,4.06134,0.0,0.0,0.0,0.0902821,0.0,0.0,0.0,0.0,0.0,0.000991829,0.00403822,0.0122635,0.0,0.0,0.0,0.0,0.0,0.0
36371347,0.0,0.0,0.0,-0.00322428,0.00605124,-0.0482178,0.0,0.0,0.0,0.0100039,0.0,0.0,0.0,0.0,0.0,0.0,0.0,0.0,0.257379,0.257379,4.06147,0.0,0.0,0.0,0.0902806,0.0,0.0,0.0,0.0,0.0,0.000797007,0.0056388,0.0172246,0.0,0.0,0.0,0.0,0.0,0.0
36573672,0.0,0.0,0.0,-0.00322123,0.00633942,-0.292145,0.0,0.0,0.0,0.0650589,0.0,0.0,0.0,0.0,0.0,0.0,0.0,0.0,0.257291,0.25729,4.06104,0.0,0.0,0.0,0.0902791,0.0,0.0,0.0,0.0,0.0,0.000731454,0.00262395,0.0066571,0.0,0.0,0.0,0.0,0.0,0.0
36777802,0.0,0.0,0.0,-0.00322784,0.006436,-0.0730286,0.0,0.0,0.0,-0.00218378,0.0,0.0,0.0,0.0,0.0,0.0,0.0,0.0,0.257281,0.257281,4.06095,0.0,0.0,0.0,0.0902776,0.0,0.0,0.0,0.0,0.0,0.00051723,0.00157279,0.00473351,0.0,0.0,0.0,0.0,0.0,0.0
36978621,0.0,0.0,0.0,-0.00316161,0.00648475,-0.149139,0.0,0.0,0.0,-0.00205639,0.0,0.0,0.0,0.0,0.0,0.0,0.0,0.0,0.25727,0.257269,4.06084,0.0,0.0,0.0,0.0902762,0.0,0.0,0.0,0.0,0.0,0.000322893,0.00321825,0.00979286,0.0,0.0,0.0,0.0,0.0,0.0
37182523,0.0,0.0,0.0,-0.0030989,0.00629333,0.138611,0.0,0.0,0.0,0.0383512,0.0,0.0,0.0,0.0,0.0,0.0,0.0,0.0,0.257254,0.257254,4.06071,0.0,0.0,0.0,0.0902748,0.0,0.0,0.0,0.0,0.0,0.000102354,0.00265434,0.00695977,0.0,0.0,0.0,0.0,0.0,0.0
37384058,0.0,0.0,0.0,-0.00303779,0.00611356,-0.144531,0.0,0.0,0.0,0.0148471,0.0,0.0,0.0,0.0,0.0,0.0,0.0,0.0,0.257235,0.257234,4.06057,0.0,0.0,0.0,0.0902733,0.0,0.0,0.0,0.0,0.0,0.000331777,0.00606198,0.0178678,0.0,0.0,0.0,0.0,0.0,0.0
37588203,0.0,0.0,0.0,-0.00292318,0.00581853,-0.299042,0.0,0.0,0.0,-0.00132731,0.0,0.0,0.0,0.0,0.0,0.0,0.0,0.0,0.257262,0.257262,4.06061,0.0,0.0,0.0,0.0902715,0.0,0.0,0.0,0.0,0.0,0.000171921,0.00341953,0.0091771,0.0,0.0,0.0,0.0,0.0,0.0
37788988,0.0,0.0,0.0,-0.00271836,0.00546351,-0.209442,0.0,0.0,0.0,0.0111558,0.0,0.0,0.0,0.0,0.0,0.0,0.0,0.0,0.25726,0.25726,4.06054,0.0,0.0,0.0,0.0902702,0.0,0.0,0.0,0.0,0.0,0.000145592,0.00248393,0.00734306,0.0,0.0,0.0,0.0,0.0,0.0
37992885,0.0,0.0,0.0,-0.00249709,0.00531932,-0.0341797,0.0,0.0,0.0,-0.00293738,0.0,0.0,0.0,0.0,0.0,0.0,0.0,0.0,0.257313,0.257313,4.06075,0.0,0.0,0.0,0.0902688,0.0,0.0,0.0,0.0,0.0,0.000127087,0.00188784,0.00599705,0.0,0.0,0.0,0.0,0.0,0.0
38195307,0.0,0.0,0.0,-0.00248652,0.00532195,-0.117279,0.0,0.0,0.0,-0.00116123,0.0,0.0,0.0,0.0,0.0,0.0,0.0,0.0,0.257428,0.257427,4.06126,0.0,0.0,0.0,0.0902677,0.0,0.0,0.0,0.0,0.0,0.000290035,0.00190981,0.00611039,0.0,0.0,0.0,0.0,0.0,0.0
38400356,0.0,0.0,0.0,-0.00237241,0.00543965,0.217926,0.0,0.0,0.0,-0.0252242,0.0,0.0,0.0,0.0,0.0,0.0,0.0,0.0,0.257524,0.257524,4.06178,0.0,0.0,0.0,0.0902658,0.0,0.0,0.0,0.0,0.0,6.08911e-05,0.00241223,0.00631372,0.0,0.0,0.0,0.0,0.0,0.0
38602520,0.0,0.0,0.0,-0.00212666,0.00532229,-0.219421,0.0,0.0,0.0,0.0146038,0.0,0.0,0.0,0.0,0.0,0.0,0.0,0.0,0.257525,0.257524,4.06187,0.0,0.0,0.0,0.0902643,0.0,0.0,0.0,0.0,0.0,0.000161886,0.00540422,0.0160168,0.0,0.0,0.0,0.0,0.0,0.0
38802489,0.0,0.0,0.0,-0.00176586,0.00513451,-0.100525,0.0,0.0,0.0,-0.000978574,0.0,0.0,0.0,0.0,0.0,0.0,0.0,0.0,0.257587,0.257587,4.0623,0.0,0.0,0.0,0.0902628,0.0,0.0,0.0,0.0,0.0,0.000183348,0.00311667,0.0099988,0.0,0.0,0.0,0.0,0.0,0.0
39002670,0.0,0.0,0.0,-0.00142735,0.0049037,0.13504,0.0,0.0,0.0,-0.0312822,0.0,0.0,0.0,0.0,0.0,0.0,0.0,0.0,0.257617,0.257617,4.06254,0.0,0.0,0.0,0.0902612,0.0,0.0,0.0,0.0,0.0,0.000346941,0.00482321,0.013541,0.0,0.0,0.0,0.0,0.0,0.0
39206590,0.0,0.0,0.0,-0.00108871,0.00476977,-0.407654,0.0,0.0,0.0,0.0242288,0.0,0.0,0.0,0.0,0.0,0.0,0.0,0.0,0.25777,0.25777,4.06338,0.0,0.0,0.0,0.0902599,0.0,0.0,0.0,0.0,0.0,0.000200957,0.00324215,0.00894318,0.0,0.0,0.0,0.0,0.0,0.0
39410609,0.0,0.0,0.0,-0.000731727,0.004459,-0.0242615,0.0,0.0,0.0,0.0144477,0.0,0.0,0.0,0.0,0.0,0.0,0.0,0.0,0.257611,0.257611,4.06291,0.0,0.0,0.0,0.0902587,0.0,0.0,0.0,0.0,0.0,9.41472e-05,0.000441869,0.000776393,0.0,0.0,0.0,0.0,0.0,0.0
39614502,0.0,0.0,0.0,-0.000514981,0.00427724,-0.353638,0.0,0.0,0.0,-0.000352353,0.0,0.0,0.0,0.0,0.0,0.0,0.0,0.0,0.257487,0.257487,4.06245,0.0,0.0,0.0,0.0902573,0.0,0.0,0.0,0.0,0.0,0.000240959,0.0040676,0.0118107,0.0,0.0,0.0,0.0,0.0,0.0
39814504,0.0,0.0,0.0,-0.000288498,0.00392056,-0.166077,0.0,0.0,0.0,-0.019641,0.0,0.0,0.0,0.0,0.0,0.0,0.0,0.0,0.257406,0.257406,4.06211,0.0,0.0,0.0,0.0902561,0.0,0.0,0.0,0.0,0.0,0.000291449,0.00417547,0.0126973,0.0,0.0,0.0,0.0,0.0,0.0
40020246,0.0,0.0,0.0,-0.000131603,0.00373891,-0.286957,0.0,0.0,0.0,-0.00889097,0.0,0.0,0.0,0.0,0.0,0.0,0.0,0.0,0.257333,0.257333,4.06175,0.0,0.0,0.0,0.0902548,0.0,0.0,0.0,0.0,0.0,0.000287616,0.00269638,0.00864481,0.0,0.0,0.0,0.0,0.0,0.0
40221071,0.0,0.0,0.0,-3.32044e-05,0.00380876,0.0272827,0.0,0.0,0.0,0.00592138,0.0,0.0,0.0,0.0,0.0,0.0,0.0,0.0,0.257327,0.257327,4.06163,0.0,0.0,0.0,0.0902536,0.0,0.0,0.0,0.0,0.0,9.54923e-05,0.00176129,0.00617391,0.0,0.0,0.0,0.0,0.0,0.0
40425761,0.0,0.0,0.0,8.66072e-05,0.00403532,0.00720215,0.0,0.0,0.0,-0.00247686,0.0,0.0,0.0,0.0,0.0,0.0,0.0,0.0,0.257356,0.257356,4.06168,0.0,0.0,0.0,0.0902525,0.0,0.0,0.0,0.0,0.0,0.000525495,0.00447928,0.0127216,0.0,0.0,0.0,0.0,0.0,0.0
40629858,0.0,0.0,0.0,0.000214838,0.00411661,-0.191498,0.0,0.0,0.0,-0.000839755,0.0,0.0,0.0,0.0,0.0,0.0,0.0,0.0,0.257374,0.257374,4.06172,0.0,0.0,0.0,0.0902512,0.0,0.0,0.0,0.0,0.0,0.000186038,0.00189022,0.00487823,0.0,0.0,0.0,0.0,0.0,0.0
40832105,0.0,0.0,0.0,0.000361899,0.00405238,-0.245361,0.0,0.0,0.0,-0.162923,0.0,0.0,0.0,0.0,0.0,0.0,0.0,0.0,0.257391,0.257391,4.06175,0.0,0.0,0.0,0.0902501,0.0,0.0,0.0,0.0,0.0,0.000465328,0.00235279,0.00721616,0.0,0.0,0.0,0.0,0.0,0.0
41032208,0.0,0.0,0.0,0.000459924,0.00389795,-0.168823,0.0,0.0,0.0,-0.0199871,0.0,0.0,0.0,0.0,0.0,0.0,0.0,0.0,0.257312,0.257312,4.06132,0.0,0.0,0.0,0.0902493,0.0,0.0,0.0,0.0,0.0,0.000429974,0.00364319,0.0112501,0.0,0.0,0.0,0.0,0.0,0.0
41232989,0.0,0.0,0.0,0.000656201,0.00377034,-0.126404,0.0,0.0,0.0,-0.0111333,0.0,0.0,0.0,0.0,0.0,0.0,0.0,0.0,0.257351,0.257351,4.06142,0.0,0.0,0.0,0.0902489,0.0,0.0,0.0,0.0,0.0,0.00021494,0.00172824,0.00618665,0.0,0.0,0.0,0.0,0.0,0.0
41434608,0.0,0.0,0.0,0.000851413,0.00364054,-0.326752,0.0,0.0,0.0,0.0348081,0.0,0.0,0.0,0.0,0.0,0.0,0.0,0.0,0.257392,0.257392,4.06154,0.0,0.0,0.0,0.0902476,0.0,0.0,0.0,0.0,0.0,0.00163946,0.00359795,0.00943373,0.0,0.0,0.0,0.0,0.0,0.0
41634497,0.0,0.0,0.0,0.00107551,0.00356637,0.227661,0.0,0.0,0.0,0.0138424,0.0,0.0,0.0,0.0,0.0,0.0,0.0,0.0,0.257413,0.257413,4.06165,0.0,0.0,0.0,0.090246,0.0,0.0,0.0,0.0,0.0,0.000691731,0.00236681,0.00665972,0.0,0.0,0.0,0.0,0.0,0.0
41838606,0.0,0.0,0.0,0.00129751,0.00373018,-0.164856,0.0,0.0,0.0,-0.0109693,0.0,0.0,0.0,0.0,0.0,0.0,0.0,0.0,0.25763,0.25763,4.06261,0.0,0.0,0.0,0.0902448,0.0,0.0,0.0,0.0,0.0,0.000184952,0.00112133,0.00346944,0.0,0.0,0.0,0.0,0.0,0.0
42042575,0.0,0.0,0.0,0.00147692,0.00371126,-0.0944214,0.0,0.0,0.0,0.0320604,0.0,0.0,0.0,0.0,0.0,0.0,0.0,0.0,0.257463,0.257462,4.06197,0.0,0.0,0.0,0.0902438,0.0,0.0,0.0,0.0,0.0,0.000470197,0.00485633,0.0147289,0.0,0.0,0.0,0.0,0.0,0.0
42243356,0.0,0.0,0.0,0.00172068,0.0037208,0.311401,0.0,0.0,0.0,0.023736,0.0,0.0,0.0,0.0,0.0,0.0,0.0,0.0,0.257382,0.257381,4.06164,0.0,0.0,0.0,0.0902427,0.0,0.0,0.0,0.0,0.0,0.00082045,0.000630359,0.00091254,0.0,0.0,0.0,0.0,0.0,0.0
42443439,0.0,0.0,0.0,0.00198797,0.00368059,0.0102234,0.0,0.0,0.0,0.0287162,0.0,0.0,0.0,0.0,0.0,0.0,0.0,0.0,0.257326,0.257325,4.06138,0.0,0.0,0.0,0.0902417,0.0,0.0,0.0,0.0,0.0,0.000585104,0.000569399,0.0010016,0.0,0.0,0.0,0.0,0.0,0.0
42647357,0.0,0.0,0.0,0.00228477,0.00352364,-0.152588,0.0,0.0,0.0,0.0155981,0.0,0.0,0.0,0.0,0.0,0.0,0.0,0.0,0.2573,0.257299,4.06122,0.0,0.0,0.0,0.0902407,0.0,0.0,0.0,0.0,0.0,0.000765196,0.00260746,0.00748053,0.0,0.0,0.0,0.0,0.0,0.0
42849859,0.0,0.0,0.0,0.00248216,0.00324729,0.244659,0.0,0.0,0.0,0.0468904,0.0,0.0,0.0,0.0,0.0,0.0,0.0,0.0,0.25726,0.257259,4.061,0.0,0.0,0.0,0.0902397,0.0,0.0,0.0,0.0,0.0,0.000965024,0.00149108,0.00463282,0.0,0.0,0.0,0.0,0.0,0.0
43053647,0.0,0.0,0.0,0.00265679,0.00305711,0.287994,0.0,0.0,0.0,0.017643,0.0,0.0,0.0,0.0,0.0,0.0,0.0,0.0,0.257268,0.257268,4.06098,0.0,0.0,0.0,0.0902388,0.0,0.0,0.0,0.0,0.0,0.000871892,0.00175129,0.0039038,0.0,0.0,0.0,0.0,0.0,0.0
43257732,0.0,0.0,0.0,0.00279476,0.00283621,0.197662,0.0,0.0,0.0,-0.00276005,0.0,0.0,0.0,0.0,0.0,0.0,0.0,0.0,0.257242,0.257241,4.06081,0.0,0.0,0.0,0.0902378,0.0,0.0,0.0,0.0,0.0,0.000713912,0.00219975,0.00602118,0.0,0.0,0.0,0.0,0.0,0.0
43458624,0.0,0.0,0.0,0.00282641,0.00259152,0.380005,0.0,0.0,0.0,0.00648098,0.0,0.0,0.0,0.0,0.0,0.0,0.0,0.0,0.257221,0.257221,4.06065,0.0,0.0,0.0,0.090237,0.0,0.0,0.0,0.0,0.0,0.000436328,0.000634297,0.00123235,0.0,0.0,0.0,0.0,0.0,0.0
43662498,0.0,0.0,0.0,0.0027225,0.00217785,0.207764,0.0,0.0,0.0,0.0202789,0.0,0.0,0.0,0.0,0.0,0.0,0.0,0.0,0.25724,0.25724,4.06066,0.0,0.0,0.0,0.0902358,0.0,0.0,0.0,0.0,0.0,0.000560543,0.00103973,0.00262468,0.0,0.0,0.0,0.0,0.0,0.0
43862603,0.0,0.0,0.0,0.00255957,0.00175636,-0.0186768,0.0,0.0,0.0,-0.00506766,0.0,0.0,0.0,0.0,0.0,0.0,0.0,0.0,0.257178,0.257178,4.06032,0.0,0.0,0.0,0.0902351,0.0,0.0,0.0,0.0,0.0,0.000286942,0.00238509,0.00716174,0.0,0.0,0.0,0.0,0.0,0.0
44064030,0.0,0.0,0.0,0.00241901,0.00135495,-0.414459,0.0,0.0,0.0,0.0116719,0.0,0.0,0.0,0.0,0.0,0.0,0.0,0.0,0.257251,0.257251,4.06058,0.0,0.0,0.0,0.0902342,0.0,0.0,0.0,0.0,0.0,0.000117124,0.000730686,0.00248684,0.0,0.0,0.0,0.0,0.0,0.0
44268111,0.0,0.0,0.0,0.00220169,0.00104003,0.0671387,0.0,0.0,0.0,-0.0323966,0.0,0.0,0.0,0.0,0.0,0.0,0.0,0.0,0.257257,0.257257,4.06056,0.0,0.0,0.0,0.0902331,0.0,0.0,0.0,0.0,0.0,0.000429469,0.00116913,0.00250928,0.0,0.0,0.0,0.0,0.0,0.0
44472166,0.0,0.0,0.0,0.00186769,0.000683568,-0.240051,0.0,0.0,0.0,-0.00266875,0.0,0.0,0.0,0.0,0.0,0.0,0.0,0.0,0.257195,0.257194,4.06026,0.0,0.0,0.0,0.0902322,0.0,0.0,0.0,0.0,0.0,0.0001142,0.000589544,0.000962236,0.0,0.0,0.0,0.0,0.0,0.0
44672090,0.0,0.0,0.0,0.00163501,0.000202436,0.28949,0.0,0.0,0.0,-0.011108,0.0,0.0,0.0,0.0,0.0,0.0,0.0,0.0,0.257265,0.257264,4.06054,0.0,0.0,0.0,0.0902311,0.0,0.0,0.0,0.0,0.0,2.95733e-05,0.00116251,0.00317937,0.0,0.0,0.0,0.0,0.0,0.0
44876229,0.0,0.0,0.0,0.00141626,-0.000232614,0.214813,0.0,0.0,0.0,0.0126219,0.0,0.0,0.0,0.0,0.0,0.0,0.0,0.0,0.257256,0.257255,4.06048,0.0,0.0,0.0,0.0902302,0.0,0.0,0.0,0.0,0.0,3.90534e-05,0.00289817,0.00876398,0.0,0.0,0.0,0.0,0.0,0.0
45080183,0.0,0.0,0.0,0.00123829,-0.000630837,-0.01651,0.0,0.0,0.0,-0.00587597,0.0,0.0,0.0,0.0,0.0,0.0,0.0,0.0,0.257192,0.257191,4.06019,0.0,0.0,0.0,0.0902293,0.0,0.0,0.0,0.0,0.0,5.86008e-05,0.00194853,0.00496618,0.0,0.0,0.0,0.0,0.0,0.0
45282619,0.0,0.0,0.0,0.0010822,-0.00111786,-0.00747681,0.0,0.0,0.0,-0.0137954,0.0,0.0,0.0,0.0,0.0,0.0,0.0,0.0,0.257209,0.257208,4.06026,0.0,0.0,0.0,0.0902282,0.0,0.0,0.0,0.0,0.0,6.73374e-05,0.00176874,0.00480439,0.0,0.0,0.0,0.0,0.0,0.0
45486641,0.0,0.0,0.0,0.000941982,-0.0014649,0.129181,0.0,0.0,0.0,0.00514849,0.0,0.0,0.0,0.0,0.0,0.0,0.0,0.0,0.257344,0.257343,4.06087,0.0,0.0,0.0,0.090227,0.0,0.0,0.0,0.0,0.0,6.74762e-06,0.00123666,0.00377151,0.0,0.0,0.0,0.0,0.0,0.0
45687301,0.0,0.0,0.0,0.000855809,-0.00164622,0.306549,0.0,0.0,0.0,0.0160234,0.0,0.0,0.0,0.0,0.0,0.0,0.0,0.0,0.257441,0.25744,4.06139,0.0,0.0,0.0,0.090226,0.0,0.0,0.0,0.0,0.0,0.000325006,0.000863547,0.00138612,0.0,0.0,0.0,0.0,0.0,0.0
45887408,0.0,0.0,0.0,0.00086023,-0.00172322,0.216156,0.0,0.0,0.0,-0.0080176,0.0,0.0,0.0,0.0,0.0,0.0,0.0,0.0,0.257327,0.257326,4.061,0.0,0.0,0.0,0.090225,0.0,0.0,0.0,0.0,0.0,0.000128827,0.00262633,0.00685516,0.0,0.0,0.0,0.0,0.0,0.0
46091344,0.0,0.0,0.0,0.00102727,-0.00184624,0.208099,0.0,0.0,0.0,-0.00229989,0.0,0.0,0.0,0.0,0.0,0.0,0.0,0.0,0.257282,0.257282,4.06085,0.0,0.0,0.0,0.0902244,0.0,0.0,0.0,0.0,0.0,0.000641832,0.00297594,0.00860507,0.0,0.0,0.0,0.0,0.0,0.0
46293043,0.0,0.0,0.0,0.00135894,-0.00180549,0.212036,0.0,0.0,0.0,-0.0244402,0.0,0.0,0.0,0.0,0.0,0.0,0.0,0.0,0.257271,0.25727,4.06082,0.0,0.0,0.0,0.0902232,0.0,0.0,0.0,0.0,0.0,0.000354168,0.000998734,0.00276794,0.0,0.0,0.0,0.0,0.0,0.0
46492883,0.0,0.0,0.0,0.00154966,-0.00180593,0.298828,0.0,0.0,0.0,0.00988306,0.0,0.0,0.0,0.0,0.0,0.0,0.0,0.0,0.257329,0.257328,4.0611,0.0,0.0,0.0,0.0902223,0.0,0.0,0.0,0.0,0.0,0.000176521,0.00158806,0.00444604,0.0,0.0,0.0,0.0,0.0,0.0
46696995,0.0,0.0,0.0,0.00174218,-0.00190137,-0.042511,0.0,0.0,0.0,-0.0133748,0.0,0.0,0.0,0.0,0.0,0.0,0.0,0.0,0.257481,0.25748,4.06183,0.0,0.0,0.0,0.0902217,0.0,0.0,0.0,0.0,0.0,4.5688e-05,0.00125241,0.00312427,0.0,0.0,0.0,0.0,0.0,0.0
46900911,0.0,0.0,0.0,0.00205682,-0.00224516,0.0238953,0.0,0.0,0.0,-0.0106605,0.0,0.0,0.0,0.0,0.0,0.0,0.0,0.0,0.257616,0.257616,4.06256,0.0,0.0,0.0,0.0902208,0.0,0.0,0.0,0.0,0.0,0.000228695,0.0044802,0.0132044,0.0,0.0,0.0,0.0,0.0,0.0
47101721,0.0,0.0,0.0,0.00231566,-0.00268587,-0.103943,0.0,0.0,0.0,-0.00546513,0.0,0.0,0.0,0.0,0.0,0.0,0.0,0.0,0.257564,0.257563,4.06252,0.0,0.0,0.0,0.09022,0.0,0.0,0.0,0.0,0.0,0.000146074,0.000816866,0.00242227,0.0,0.0,0.0,0.0,0.0,0.0
47304170,0.0,0.0,0.0,0.00260851,-0.00328472,0.35791,0.0,0.0,0.0,0.0174744,0.0,0.0,0.0,0.0,0.0,0.0,0.0,0.0,0.257539,0.257539,4.06255,0.0,0.0,0.0,0.0902192,0.0,0.0,0.0,0.0,0.0,0.000653289,0.00425298,0.0124988,0.0,0.0,0.0,0.0,0.0,0.0
47504943,0.0,0.0,0.0,0.00289869,-0.00365408,0.0189819,0.0,0.0,0.0,0.0147776,0.0,0.0,0.0,0.0,0.0,0.0,0.0,0.0,0.257454,0.257453,4.06225,0.0,0.0,0.0,0.0902183,0.0,0.0,0.0,0.0,0.0,0.000976413,0.000925315,0.00182088,0.0,0.0,0.0,0.0,0.0,0.0
47708919,0.0,0.0,0.0,0.00318364,-0.00392129,-0.0490417,0.0,0.0,0.0,-0.0169602,0.0,0.0,0.0,0.0,0.0,0.0,0.0,0.0,0.257525,0.257525,4.06261,0.0,0.0,0.0,0.0902176,0.0,0.0,0.0,0.0,0.0,0.000419193,0.0056052,0.0163575,0.0,0.0,0.0,0.0,0.0,0.0
47912933,0.0,0.0,0.0,0.00340316,-0.00416725,-0.0937805,0.0,0.0,0.0,0.00474086,0.0,0.0,0.0,0.0,0.0,0.0,0.0,0.0,0.257567,0.257567,4.06287,0.0,0.0,0.0,0.0902165,0.0,0.0,0.0,0.0,0.0,8.3623e-05,0.0020706,0.00645386,0.0,0.0,0.0,0.0,0.0,0.0
48112963,0.0,0.0,0.0,0.00345628,-0.00422517,0.110229,0.0,0.0,0.0,0.0202666,0.0,0.0,0.0,0.0,0.0,0.0,0.0,0.0,0.257533,0.257532,4.06278,0.0,0.0,0.0,0.0902157,0.0,0.0,0.0,0.0,0.0,0.000154964,0.0023475,0.00594606,0.0,0.0,0.0,0.0,0.0,0.0
48316847,0.0,0.0,0.0,0.00356236,-0.00419535,0.0292358,0.0,0.0,0.0,0.0303135,0.0,0.0,0.0,0.0,0.0,0.0,0.0,0.0,0.257632,0.257632,4.06329,0.0,0.0,0.0,0.0902146,0.0,0.0,0.0,0.0,0.0,0.00024761,0.000811872,0.00142398,0.0,0.0,0.0,0.0,0.0,0.0
48518487,0.0,0.0,0.0,0.00355152,-0.00381693,-0.241058,0.0,0.0,0.0,0.0538198,0.0,0.0,0.0,0.0,0.0,0.0,0.0,0.0,0.257571,0.25757,4.0631,0.0,0.0,0.0,0.0902136,0.0,0.0,0.0,0.0,0.0,0.000641831,0.000957669,0.0022454,0.0,0.0,0.0,0.0,0.0,0.0
48719357,0.0,0.0,0.0,0.00340907,-0.00349701,-0.238556,0.0,0.0,0.0,-0.00716791,0.0,0.0,0.0,0.0,0.0,0.0,0.0,0.0,0.25741,0.257409,4.06241,0.0,0.0,0.0,0.0902127,0.0,0.0,0.0,0.0,0.0,0.000604156,0.00125804,0.00309614,0.0,0.0,0.0,0.0,0.0,0.0
48923340,0.0,0.0,0.0,0.00338826,-0.00317205,0.275208,0.0,0.0,0.0,0.01954,0.0,0.0,0.0,0.0,0.0,0.0,0.0,0.0,0.257411,0.257411,4.06237,0.0,0.0,0.0,0.0902119,0.0,0.0,0.0,0.0,0.0,0.000323724,0.00202795,0.00567255,0.0,0.0,0.0,0.0,0.0,0.0
49123482,0.0,0.0,0.0,0.00314461,-0.00285485,-0.0900879,0.0,0.0,0.0,0.0122357,0.0,0.0,0.0,0.0,0.0,0.0,0.0,0.0,0.25729,0.25729,4.06174,0.0,0.0,0.0,0.0902113,0.0,0.0,0.0,0.0,0.0,0.000473012,0.00405467,0.0120574,0.0,0.0,0.0,0.0,0.0,0.0
49323364,0.0,0.0,0.0,0.00282916,-0.00250616,0.00262451,0.0,0.0,0.0,0.0403017,0.0,0.0,0.0,0.0,0.0,0.0,0.0,0.0,0.257323,0.257323,4.06177,0.0,0.0,0.0,0.0902109,0.0,0.0,0.0,0.0,0.0,0.00085649,0.000505361,0.000625249,0.0,0.0,0.0,0.0,0.0,0.0
49523280,0.0,0.0,0.0,0.0025228,-0.00216621,0.191193,0.0,0.0,0.0,0.0141138,0.0,0.0,0.0,0.0,0.0,0.0,0.0,0.0,0.257287,0.257287,4.06149,0.0,0.0,0.0,0.0902097,0.0,0.0,0.0,0.0,0.0,0.000775882,0.00462311,0.0133797,0.0,0.0,0.0,0.0,0.0,0.0
49727350,0.0,0.0,0.0,0.00227519,-0.0019506,0.0701599,0.0,0.0,0.0,-0.0131239,0.0,0.0,0.0,0.0,0.0,0.0,0.0,0.0,0.257207,0.257207,4.061,0.0,0.0,0.0,0.0902091,0.0,0.0,0.0,0.0,0.0,0.000574318,0.0053746,0.0153187,0.0,0.0,0.0,0.0,0.0,0.0
49928980,0.0,0.0,0.0,0.00186123,-0.00174044,-0.0512695,0.0,0.0,0.0,0.0320711,0.0,0.0,0.0,0.0,0.0,0.0,0.0,0.0,0.257191,0.257191,4.0608,0.0,0.0,0.0,0.0902084,0.0,0.0,0.0,0.0,0.0,0.000515664,0.000959529,0.0023674,0.0,0.0,0.0,0.0,0.0,0.0
50128969,0.0,0.0,0.0,0.00144078,-0.00149306,-0.11087,0.0,0.0,0.0,0.0211697,0.0,0.0,0.0,0.0,0.0,0.0,0.0,0.0,0.257264,0.257264,4.06102,0.0,0.0,0.0,0.0902077,0.0,0.0,0.0,0.0,0.0,0.000553156,0.00161178,0.00482546,0.0,0.0,0.0,0.0,0.0,0.0
50333729,0.0,0.0,0.0,0.00114339,-0.00123792,-0.0316772,0.0,0.0,0.0,0.02038,0.0,0.0,0.0,0.0,0.0,0.0,0.0,0.0,0.257382,0.257382,4.06148,0.0,0.0,0.0,0.090207,0.0,0.0,0.0,0.0,0.0,0.000492116,0.000644959,0.00219166,0.0,0.0,0.0,0.0,0.0,0.0
50537823,0.0,0.0,0.0,0.000983204,-0.00114279,0.136505,0.0,0.0,0.0,-0.0237615,0.0,0.0,0.0,0.0,0.0,0.0,0.0,0.0,0.257402,0.257402,4.06158,0.0,0.0,0.0,0.0902064,0.0,0.0,0.0,0.0,0.0,6.15313e-05,0.000611157,0.00172614,0.0,0.0,0.0,0.0,0.0,0.0
50737892,0.0,0.0,0.0,0.000760689,-0.00112212,0.0143738,0.0,0.0,0.0,-0.00776619,0.0,0.0,0.0,0.0,0.0,0.0,0.0,0.0,0.257342,0.257342,4.06133,0.0,0.0,0.0,0.0902056,0.0,0.0,0.0,0.0,0.0,2.25735e-05,0.00243043,0.00714345,0.0,0.0,0.0,0.0,0.0,0.0
50939353,0.0,0.0,0.0,0.00049259,-0.00117742,-0.105011,0.0,0.0,0.0,0.0144985,0.0,0.0,0.0,0.0,0.0,0.0,0.0,0.0,0.257373,0.257373,4.06145,0.0,0.0,0.0,0.090205,0.0,0.0,0.0,0.0,0.0,0.000192029,0.00475572,0.0144749,0.0,0.0,0.0,0.0,0.0,0.0
51143284,0.0,0.0,0.0,7.52735e-05,-0.000903468,-0.182404,0.0,0.0,0.0,0.00584924,0.0,0.0,0.0,0.0,0.0,0.0,0.0,0.0,0.257548,0.257548,4.06226,0.0,0.0,0.0,0.0902043,0.0,0.0,0.0,0.0,0.0,9.7469e-05,0.00433815,0.013943,0.0,0.0,0.0,0.0,0.0,0.0
51343358,0.0,0.0,0.0,-0.000381195,-0.000569727,0.0908813,0.0,0.0,0.0,-0.00592786,0.0,0.0,0.0,0.0,0.0,0.0,0.0,0.0,0.257651,0.257651,4.06284,0.0,0.0,0.0,0.0902037,0.0,0.0,0.0,0.0,0.0,5.77774e-05,0.00150278,0.00311601,0.0,0.0,0.0,0.0,0.0,0.0
51547381,0.0,0.0,0.0,-0.000811066,-0.000257724,0.154297,0.0,0.0,0.0,-0.0280392,0.0,0.0,0.0,0.0,0.0,0.0,0.0,0.0,0.257737,0.257737,4.0634,0.0,0.0,0.0,0.0902031,0.0,0.0,0.0,0.0,0.0,0.000101383,0.00131019,0.00389545,0.0,0.0,0.0,0.0,0.0,0.0
51751320,0.0,0.0,0.0,-0.00119213,-0.000118629,0.226379,0.0,0.0,0.0,0.0110292,0.0,0.0,0.0,0.0,0.0,0.0,0.0,0.0,0.257791,0.257791,4.06384,0.0,0.0,0.0,0.0902023,0.0,0.0,0.0,0.0,0.0,0.000113689,0.00203996,0.00580741,0.0,0.0,0.0,0.0,0.0,0.0
51955433,0.0,0.0,0.0,-0.00158063,-0.000158788,-0.125916,0.0,0.0,0.0,-0.0119047,0.0,0.0,0.0,0.0,0.0,0.0,0.0,0.0,0.257756,0.257756,4.06392,0.0,0.0,0.0,0.0902018,0.0,0.0,0.0,0.0,0.0,2.1041e-05,0.000734006,0.00125875,0.0,0.0,0.0,0.0,0.0,0.0
52157714,0.0,0.0,0.0,-0.00196686,-0.000182953,-0.0429382,0.0,0.0,0.0,0.00634919,0.0,0.0,0.0,0.0,0.0,0.0,0.0,0.0,0.257742,0.257742,4.06402,0.0,0.0,0.0,0.0902011,0.0,0.0,0.0,0.0,0.0,0.000131841,0.000836857,0.00145284,0.0,0.0,0.0,0.0,0.0,0.0
52361824,0.0,0.0,0.0,-0.00243141,-0.000289836,0.184845,0.0,0.0,0.0,-0.00671965,0.0,0.0,0.0,0.0,0.0,0.0,0.0,0.0,0.25774,0.25774,4.06417,0.0,0.0,0.0,0.0902005,0.0,0.0,0.0,0.0,0.0,3.69215e-05,0.00301109,0.00898797,0.0,0.0,0.0,0.0,0.0,0.0
52562572,0.0,0.0,0.0,-0.0027419,-0.000298784,-0.302734,0.0,0.0,0.0,-0.00155646,0.0,0.0,0.0,0.0,0.0,0.0,0.0,0.0,0.257586,0.257586,4.06357,0.0,0.0,0.0,0.0902002,0.0,0.0,0.0,0.0,0.0,4.30135e-05,0.000815494,0.00161134,0.0,0.0,0.0,0.0,0.0,0.0
52766479,0.0,0.0,0.0,-0.00289526,-0.00036418,-0.155151,0.0,0.0,0.0,-0.0161934,0.0,0.0,0.0,0.0,0.0,0.0,0.0,0.0,0.257538,0.257538,4.06335,0.0,0.0,0.0,0.0901997,0.0,0.0,0.0,0.0,0.0,0.000312078,0.00116244,0.00302342,0.0,0.0,0.0,0.0,0.0,0.0
52967465,0.0,0.0,0.0,-0.00289497,-0.000442676,0.0300598,0.0,0.0,0.0,0.00405025,0.0,0.0,0.0,0.0,0.0,0.0,0.0,0.0,0.257567,0.257567,4.06349,0.0,0.0,0.0,0.0901992,0.0,0.0,0.0,0.0,0.0,8.44511e-05,0.00390939,0.0110765,0.0,0.0,0.0,0.0,0.0,0.0
53169055,0.0,0.0,0.0,-0.00288777,-0.00045697,-0.139771,0.0,0.0,0.0,-0.0052243,0.0,0.0,0.0,0.0,0.0,0.0,0.0,0.0,0.257453,0.257453,4.06295,0.0,0.0,0.0,0.0901986,0.0,0.0,0.0,0.0,0.0,3.18267e-05,0.00102839,0.0020725,0.0,0.0,0.0,0.0,0.0,0.0
53372971,0.0,0.0,0.0,-0.00292391,-0.000544428,-0.118378,0.0,0.0,0.0,0.024571,0.0,0.0,0.0,0.0,0.0,0.0,0.0,0.0,0.257592,0.257592,4.06352,0.0,0.0,0.0,0.090198,0.0,0.0,0.0,0.0,0.0,0.000127762,0.00529724,0.0155253,0.0,0.0,0.0,0.0,0.0,0.0
53572987,0.0,0.0,0.0,-0.0028649,-0.000665852,-0.0124512,0.0,0.0,0.0,0.00382063,0.0,0.0,0.0,0.0,0.0,0.0,0.0,0.0,0.257678,0.257679,4.0639,0.0,0.0,0.0,0.0901974,0.0,0.0,0.0,0.0,0.0,2.39603e-05,0.00299288,0.00812097,0.0,0.0,0.0,0.0,0.0,0.0
53776887,0.0,0.0,0.0,-0.00282708,-0.000786682,0.0371094,0.0,0.0,0.0,-0.024242,0.0,0.0,0.0,0.0,0.0,0.0,0.0,0.0,0.257679,0.257679,4.06395,0.0,0.0,0.0,0.0901968,0.0,0.0,0.0,0.0,0.0,0.000309884,0.00100421,0.00245739,0.0,0.0,0.0,0.0,0.0,0.0
53979399,0.0,0.0,0.0,-0.00278387,-0.000830089,-0.259766,0.0,0.0,0.0,0.0330157,0.0,0.0,0.0,0.0,0.0,0.0,0.0,0.0,0.257613,0.257613,4.06366,0.0,0.0,0.0,0.0901963,0.0,0.0,0.0,0.0,0.0,0.000189176,0.00321701,0.00915155,0.0,0.0,0.0,0.0,0.0,0.0
54183465,0.0,0.0,0.0,-0.00276726,-0.000991831,0.22757,0.0,0.0,0.0,0.015329,0.0,0.0,0.0,0.0,0.0,0.0,0.0,0.0,0.257575,0.257575,4.06349,0.0,0.0,0.0,0.0901958,0.0,0.0,0.0,0.0,0.0,0.000178242,0.00271671,0.00879906,0.0,0.0,0.0,0.0,0.0,0.0
54387480,0.0,0.0,0.0,-0.00271753,-0.00116779,0.00933838,0.0,0.0,0.0,-0.0189291,0.0,0.0,0.0,0.0,0.0,0.0,0.0,0.0,0.257458,0.257459,4.06292,0.0,0.0,0.0,0.0901953,0.0,0.0,0.0,0.0,0.0,0.000278266,0.00217201,0.00686205,0.0,0.0,0.0,0.0,0.0,0.0
54591421,0.0,0.0,0.0,-0.00269704,-0.00142934,0.141693,0.0,0.0,0.0,0.0194439,0.0,0.0,0.0,0.0,0.0,0.0,0.0,0.0,0.257382,0.257382,4.06248,0.0,0.0,0.0,0.0901948,0.0,0.0,0.0,0.0,0.0,0.000298096,0.000672923,0.00223461,0.0,0.0,0.0,0.0,0.0,0.0
54791388,0.0,0.0,0.0,-0.00267852,-0.00155975,0.308807,0.0,0.0,0.0,0.00954829,0.0,0.0,0.0,0.0,0.0,0.0,0.0,0.0,0.257314,0.257314,4.06205,0.0,0.0,0.0,0.0901941,0.0,0.0,0.0,0.0,0.0,0.000210367,0.00278476,0.007747,0.0,0.0,0.0,0.0,0.0,0.0
54995330,0.0,0.0,0.0,-0.00280164,-0.0015945,-0.120544,0.0,0.0,0.0,-0.0108408,0.0,0.0,0.0,0.0,0.0,0.0,0.0,0.0,0.257478,0.257478,4.06266,0.0,0.0,0.0,0.0901935,0.0,0.0,0.0,0.0,0.0,8.63171e-05,0.000498484,0.00142157,0.0,0.0,0.0,0.0,0.0,0.0
55199331,0.0,0.0,0.0,-0.00295508,-0.00158135,-0.089325,0.0,0.0,0.0,0.00876148,0.0,0.0,0.0,0.0,0.0,0.0,0.0,0.0,0.257599,0.257599,4.06316,0.0,0.0,0.0,0.0901932,0.0,0.0,0.0,0.0,0.0,7.86952e-05,0.000257325,0.000435224,0.0,0.0,0.0,0.0,0.0,0.0
55399373,0.0,0.0,0.0,-0.00292972,-0.00167941,0.00558472,0.0,0.0,0.0,-0.00977458,0.0,0.0,0.0,0.0,0.0,0.0,0.0,0.0,0.257491,0.257491,4.0627,0.0,0.0,0.0,0.0901927,0.0,0.0,0.0,0.0,0.0,5.3094e-05,0.000682777,0.00232322,0.0,0.0,0.0,0.0,0.0,0.0
55599409,0.0,0.0,0.0,-0.0028726,-0.00161144,-0.441559,0.0,0.0,0.0,0.00344028,0.0,0.0,0.0,0.0,0.0,0.0,0.0,0.0,0.257476,0.257476,4.06259,0.0,0.0,0.0,0.0901923,0.0,0.0,0.0,0.0,0.0,0.000183912,0.00691623,0.0198476,0.0,0.0,0.0,0.0,0.0,0.0
55799371,0.0,0.0,0.0,-0.00272805,-0.00136599,0.0898743,0.0,0.0,0.0,0.0142867,0.0,0.0,0.0,0.0,0.0,0.0,0.0,0.0,0.2574,0.2574,4.06219,0.0,0.0,0.0,0.0901918,0.0,0.0,0.0,0.0,0.0,0.000429951,0.00458855,0.0141433,0.0,0.0,0.0,0.0,0.0,0.0
56003318,0.0,0.0,0.0,-0.00264841,-0.00097347,-0.0248108,0.0,0.0,0.0,0.0237387,0.0,0.0,0.0,0.0,0.0,0.0,0.0,0.0,0.257286,0.257287,4.06159,0.0,0.0,0.0,0.0901912,0.0,0.0,0.0,0.0,0.0,0.000530626,0.00487465,0.015244,0.0,0.0,0.0,0.0,0.0,0.0
56207292,0.0,0.0,0.0,-0.00262098,-0.000713457,0.197998,0.0,0.0,0.0,-0.00502351,0.0,0.0,0.0,0.0,0.0,0.0,0.0,0.0,0.257399,0.257399,4.06198,0.0,0.0,0.0,0.0901907,0.0,0.0,0.0,0.0,0.0,0.00040726,0.000763423,0.00338458,0.0,0.0,0.0,0.0,0.0,0.0
56408892,0.0,0.0,0.0,-0.00259317,-0.000424105,0.282898,0.0,0.0,0.0,0.0230126,0.0,0.0,0.0,0.0,0.0,0.0,0.0,0.0,0.257401,0.257401,4.06197,0.0,0.0,0.0,0.0901902,0.0,0.0,0.0,0.0,0.0,0.000366203,0.00329187,0.00884477,0.0,0.0,0.0,0.0,0.0,0.0
56613674,0.0,0.0,0.0,-0.00259537,-0.000253238,-0.142181,0.0,0.0,0.0,0.00931816,0.0,0.0,0.0,0.0,0.0,0.0,0.0,0.0,0.257549,0.257549,4.06262,0.0,0.0,0.0,0.0901898,0.0,0.0,0.0,0.0,0.0,0.000193396,0.00083273,0.00246969,0.0,0.0,0.0,0.0,0.0,0.0
56813828,0.0,0.0,0.0,-0.00249355,-0.000160063,0.0687256,0.0,0.0,0.0,0.000429034,0.0,0.0,0.0,0.0,0.0,0.0,0.0,0.0,0.257515,0.257516,4.06255,0.0,0.0,0.0,0.0901892,0.0,0.0,0.0,0.0,0.0,0.000370681,0.00323831,0.00988768,0.0,0.0,0.0,0.0,0.0,0.0
57013742,0.0,0.0,0.0,-0.00241493,-9.28218e-05,-0.0663452,0.0,0.0,0.0,-0.336347,0.0,0.0,0.0,0.0,0.0,0.0,0.0,0.0,0.25769,0.25769,4.0634,0.0,0.0,0.0,0.0901889,0.0,0.0,0.0,0.0,0.0,0.000246609,0.00370413,0.0118983,0.0,0.0,0.0,0.0,0.0,0.0
57217735,0.0,0.0,0.0,-0.00225884,2.0208e-05,0.111023,0.0,0.0,0.0,-0.0150511,0.0,0.0,0.0,0.0,0.0,0.0,0.0,0.0,0.257496,0.257496,4.06263,0.0,0.0,0.0,0.0901882,0.0,0.0,0.0,0.0,0.0,0.00100821,0.00276122,0.00926448,0.0,0.0,0.0,0.0,0.0,0.0
57421696,0.0,0.0,0.0,-0.00222214,2.89351e-05,-0.231659,0.0,0.0,0.0,0.0101315,0.0,0.0,0.0,0.0,0.0,0.0,0.0,0.0,0.2574,0.257401,4.06222,0.0,0.0,0.0,0.0901879,0.0,0.0,0.0,0.0,0.0,0.00033111,0.00120118,0.00453475,0.0,0.0,0.0,0.0,0.0,0.0
57622718,0.0,0.0,0.0,-0.00223273,3.85495e-05,-0.00558472,0.0,0.0,0.0,0.000299096,0.0,0.0,0.0,0.0,0.0,0.0,0.0,0.0,0.257351,0.257351,4.06195,0.0,0.0,0.0,0.0901875,0.0,0.0,0.0,0.0,0.0,0.000278757,0.000275439,0.00129678,0.0,0.0,0.0,0.0,0.0,0.0
57823304,0.0,0.0,0.0,-0.00227596,2.27005e-05,0.0306702,0.0,0.0,0.0,-0.0137256,0.0,0.0,0.0,0.0,0.0,0.0,0.0,0.0,0.257315,0.257315,4.06172,0.0,0.0,0.0,0.0901871,0.0,0.0,0.0,0.0,0.0,0.000389338,0.00391395,0.0115337,0.0,0.0,0.0,0.0,0.0,0.0
58027286,0.0,0.0,0.0,-0.0024331,-0.000213075,-0.394806,0.0,0.0,0.0,-0.00347109,0.0,0.0,0.0,0.0,0.0,0.0,0.0,0.0,0.257293,0.257293,4.06153,0.0,0.0,0.0,0.0901866,0.0,0.0,0.0,0.0,0.0,5.20463e-05,0.000231816,0.00113542,0.0,0.0,0.0,0.0,0.0,0.0
58228172,0.0,0.0,0.0,-0.00248442,-0.000659102,-0.122284,0.0,0.0,0.0,-0.0143975,0.0,0.0,0.0,0.0,0.0,0.0,0.0,0.0,0.257266,0.257266,4.06133,0.0,0.0,0.0,0.0901862,0.0,0.0,0.0,0.0,0.0,0.000251857,0.00247273,0.00677735,0.0,0.0,0.0,0.0,0.0,0.0
58430492,0.0,0.0,0.0,-0.00251802,-0.00118439,0.218872,0.0,0.0,0.0,0.00588772,0.0,0.0,0.0,0.0,0.0,0.0,0.0,0.0,0.257233,0.257233,4.0611,0.0,0.0,0.0,0.0901858,0.0,0.0,0.0,0.0,0.0,0.000264238,0.00193034,0.00544592,0.0,0.0,0.0,0.0,0.0,0.0
58631369,0.0,0.0,0.0,-0.00261037,-0.0017719,-0.048584,0.0,0.0,0.0,0.0178545,0.0,0.0,0.0,0.0,0.0,0.0,0.0,0.0,0.25725,0.25725,4.06109,0.0,0.0,0.0,0.0901852,0.0,0.0,0.0,0.0,0.0,4.97384e-05,0.00351343,0.0103934,0.0,0.0,0.0,0.0,0.0,0.0
58835332,0.0,0.0,0.0,-0.00279505,-0.00233631,0.0129395,0.0,0.0,0.0,-0.0147902,0.0,0.0,0.0,0.0,0.0,0.0,0.0,0.0,0.257236,0.257236,4.06095,0.0,0.0,0.0,0.0901848,0.0,0.0,0.0,0.0,0.0,7.78075e-05,0.000793951,0.00181806,0.0,0.0,0.0,0.0,0.0,0.0
59039324,0.0,0.0,0.0,-0.00306644,-0.00272427,0.27301,0.0,0.0,0.0,-0.010118,0.0,0.0,0.0,0.0,0.0,0.0,0.0,0.0,0.257243,0.257243,4.06089,0.0,0.0,0.0,0.0901844,0.0,0.0,0.0,0.0,0.0,3.13211e-05,0.00140639,0.0041018,0.0,0.0,0.0,0.0,0.0,0.0
59239436,0.0,0.0,0.0,-0.00317445,-0.00291586,0.226227,0.0,0.0,0.0,-0.0163624,0.0,0.0,0.0,0.0,0.0,0.0,0.0,0.0,0.257227,0.257227,4.06076,0.0,0.0,0.0,0.090184,0.0,0.0,0.0,0.0,0.0,0.000470691,0.00329462,0.00963403,0.0,0.0,0.0,0.0,0.0,0.0
59444930,0.0,0.0,0.0,-0.00330271,-0.00295859,0.269928,0.0,0.0,0.0,0.00242838,0.0,0.0,0.0,0.0,0.0,0.0,0.0,0.0,0.257216,0.257216,4.06065,0.0,0.0,0.0,0.0901835,0.0,0.0,0.0,0.0,0.0,0.000286615,0.00321827,0.0096492,0.0,0.0,0.0,0.0,0.0,0.0
59648895,0.0,0.0,0.0,-0.00356559,-0.00282125,-0.166077,0.0,0.0,0.0,-0.00539164,0.0,0.0,0.0,0.0,0.0,0.0,0.0,0.0,0.257317,0.257317,4.06105,0.0,0.0,0.0,0.0901832,0.0,0.0,0.0,0.0,0.0,7.5851e-05,0.00287061,0.00866068,0.0,0.0,0.0,0.0,0.0,0.0
