timestamp,roll,pitch,yaw,thrust
4240601,0.0,0.0,0.0,0.0
4244626,0.0,0.0,0.0,0.0
4276632,0.0,0.0,0.0,0.0
4308624,0.0,0.0,0.0,0.0
4340594,0.0,0.0,0.0,0.0
4372610,0.0,0.0,0.0,0.0
4404645,0.0,0.0,0.0,0.0
4432645,0.0,0.0,0.0,0.0
4465449,0.0,0.0,0.0,0.0
4498236,0.0,0.0,0.0,0.0
4530243,0.0,0.0,0.0,0.0
4562205,0.0,0.0,0.0,0.0
4590204,0.0,0.0,0.0,0.0
4622998,0.0,0.0,0.0,0.0
4655095,0.0,0.0,0.0,0.0
4687021,0.0,0.0,0.0,0.0
4719038,0.0,0.0,0.0,0.0
4750997,0.0,0.0,0.0,0.0
4778978,0.0,0.0,0.0,0.0
4810971,0.0,0.0,0.0,0.0
4843038,0.0,0.0,0.0,0.0
4875017,0.0,0.0,0.0,0.0
4907005,0.0,0.0,0.0,0.0
4938995,0.0,0.0,0.0,0.0
4971063,0.0,0.0,0.0,0.0
5003069,0.0,0.0,0.0,0.0
5031051,0.0,0.0,0.0,0.0
5063057,0.0,0.0,0.0,0.0
5095012,0.0,0.0,0.0,0.0
5127006,0.0,0.0,0.0,0.0
5159101,0.0,0.0,0.0,0.0
5191024,0.0,0.0,0.0,0.0
5223032,0.0,0.0,0.0,0.0
5255019,0.0,0.0,0.0,0.0
5282999,0.0,0.0,0.0,0.0
5314994,0.0,0.0,0.0,0.0
5347026,0.0,0.0,0.0,0.0
5378990,0.0,0.0,0.0,0.0
5411034,0.0,0.0,0.0,0.0
5442987,0.0,0.0,0.0,0.0
5475063,0.0,0.0,0.0,0.0
5507056,0.0,0.0,0.0,0.0
5539016,0.0,0.0,0.0,0.0
5570962,0.0,0.0,0.0,0.0
5603042,0.0,0.0,0.0,0.0
5634962,0.0,0.0,0.0,0.0
5666973,0.0,0.0,0.0,0.0
5698967,0.0,0.0,0.0,0.0
5731036,0.0,0.0,0.0,0.0
5759014,0.0,0.0,0.0,0.0
5791062,0.0,0.0,0.0,0.0
5822986,0.0,0.0,0.0,0.0
5855037,0.0,0.0,0.0,0.0
5886986,0.0,0.0,0.0,0.0
5919059,0.0,0.0,0.0,0.0
5950989,0.0,0.0,0.0,0.0
5982996,0.0,0.0,0.0,0.0
6011850,0.0,0.0,0.0,0.0
6044593,0.0,0.0,0.0,0.0
6076613,0.0,0.0,0.0,0.0
6108620,0.0,0.0,0.0,0.0
6140652,0.0,0.0,0.0,0.0
6172580,0.0,0.0,0.0,0.0
6204569,0.0,0.0,0.0,0.0
6236613,0.0,0.0,0.0,0.0
6268626,0.0,0.0,0.0,0.0
6300646,0.0,0.0,0.0,0.0
6332600,0.0,0.0,0.0,0.0
6364609,0.0,0.0,0.0,0.0
6392641,0.0,0.0,0.0,0.0
6424603,0.0,0.0,0.0,0.0
6456685,0.0,0.0,0.0,0.0
6488591,0.0,0.0,0.0,0.0
6520597,0.0,0.0,0.0,0.0
6552612,0.0,0.0,0.0,0.0
6584635,0.0,0.0,0.0,0.0
6616603,0.0,0.0,0.0,0.0
6644676,0.0,0.0,0.0,0.0
6676592,0.0,0.0,0.0,0.0
6708634,0.0,0.0,0.0,0.0
6740629,0.0,0.0,0.0,0.0
6772629,0.0,0.0,0.0,0.0
6804606,0.0,0.0,0.0,0.0
6836600,0.0,0.0,0.0,0.0
6868610,0.0,0.0,0.0,0.0
6900604,0.0,0.0,0.0,0.0
6932566,0.0,0.0,0.0,0.0
6964573,0.0,0.0,0.0,0.0
6996614,0.0,0.0,0.0,0.0
7028646,0.0,0.0,0.0,0.0
7060598,0.0,0.0,0.0,0.0
7092606,0.0,0.0,0.0,0.0
7120602,0.0,0.0,0.0,0.0
7152602,0.0,0.0,0.0,0.0
7184638,0.0,0.0,0.0,0.0
7216645,0.0,0.0,0.0,0.0
7248617,0.0,0.0,0.0,0.0
7280610,0.0,0.0,0.0,0.0
7312650,0.0,0.0,0.0,0.0
7344636,0.0,0.0,0.0,0.0
7372624,0.0,0.0,0.0,0.0
7404604,0.0,0.0,0.0,0.0
7436598,0.0,0.0,0.0,0.0
7468597,0.0,0.0,0.0,0.0
7500634,0.0,0.0,0.0,0.0
7532630,0.0,0.0,0.0,0.0
7564640,0.0,0.0,0.0,0.0
7596621,0.0,0.0,0.0,0.0
7628683,0.0,0.0,0.0,0.0
7660570,0.0,0.0,0.0,0.0
7693400,0.0,0.0,0.0,0.0
7726245,0.0,0.0,0.0,0.0
7758207,0.0,0.0,0.0,0.0
7790276,0.0,0.0,0.0,0.0
7822227,0.0,0.0,0.0,0.0
7854253,0.0,0.0,0.0,0.0
7886202,0.0,0.0,0.0,0.0
7918268,0.0,0.0,0.0,0.0
7950232,0.0,0.0,0.0,0.0
7978261,0.0,0.0,0.0,0.0
8010195,0.0,0.0,0.0,0.0
8042234,0.0,0.0,0.0,0.0
8074190,0.0,0.0,0.0,0.0
8106278,0.0,0.0,0.0,0.0
8138171,0.0,0.0,0.0,0.0
8170167,0.0,0.0,0.0,0.0
8202175,0.0,0.0,0.0,0.0
8230224,-3.83972,0.186379,-0.0515376,0.0
8262210,-3.83972,0.186385,-0.0515392,0.0
8294259,-3.83972,0.186319,-0.0515212,0.0
8326209,-3.83972,0.186395,-0.0515424,0.0
8358249,-3.83972,0.186698,-0.0516267,0.0
8390222,-3.83972,0.186792,-0.0516522,0.0
8422270,-3.83972,0.186719,-0.0516323,0.0
8454207,-3.83972,0.186897,-0.0516815,0.0
8482272,-3.83972,0.186733,-0.0516362,0.0
8514200,-3.83972,0.186761,-0.051644,0.0
8546220,-3.83972,0.186929,-0.0516907,0.0
8579032,-3.83972,0.186884,-0.0516779,0.0
8611862,-3.83972,0.186936,-0.0516921,0.0
8639924,-3.83972,0.186529,-0.0515792,0.0
8671819,-3.83972,0.186395,-0.0515419,0.0
8703864,-3.83972,0.186444,-0.0515556,0.0
8735786,-3.83972,0.186519,-0.0515758,0.0
8767820,-3.83972,0.18639,-0.0515406,0.0
8799881,-3.83972,0.186419,-0.0515487,0.0
8831861,-3.83972,0.1864,-0.051543,0.0
8863824,-3.83972,0.186191,-0.0514853,0.0
8897448,-3.83972,0.18601,-0.0514356,0.0
8929463,-3.83972,0.185915,-0.051409,0.0
8961436,-3.83972,0.185786,-0.0513737,0.0
8993517,-3.83972,0.185852,-0.0513919,0.0
9025407,-3.83972,0.185756,-0.0513651,0.0
9057448,-3.83972,0.185783,-0.0513724,0.0
9089433,-3.83972,0.185812,-0.0513805,0.0
9121450,-3.83972,0.185492,-0.0512918,0.0
9153378,-3.83972,0.185623,-0.0513283,0.0
9185380,-3.83972,0.185563,-0.0513117,0.0
9213391,-3.83972,0.185369,-0.0512578,0.0
9245435,-3.83972,0.185402,-0.051267,0.0
9277472,-3.83972,0.185492,-0.0512924,0.0
9309511,-3.83972,0.185515,-0.0512987,0.0
9341419,-3.83972,0.185336,-0.051249,0.0
9373434,-3.83972,0.185389,-0.0512635,0.0
9405429,-3.83972,0.185241,-0.0512229,0.0
9437440,-3.83972,0.185161,-0.0512005,0.0
9465430,-3.83972,0.184942,-0.05114,0.0
9497529,-3.83972,0.184899,-0.051128,0.0
9529406,-3.83972,0.184777,-0.0510944,0.0
9561461,-3.83972,0.184733,-0.0510822,0.0
9593449,-3.83972,0.18462,-0.0510512,0.0
9625464,-3.83972,0.18456,-0.0510347,0.0
9657439,-3.83972,0.18437,-0.0509815,0.0
9689420,-3.83972,0.184081,-0.0509019,0.0
9721452,-3.83972,0.184087,-0.0509035,0.0
9753450,-3.83972,0.184018,-0.0508846,0.0
9785419,-3.83972,0.183679,-0.0507907,0.0
9817448,-3.83972,0.183836,-0.0508338,0.0
9849475,-3.83972,0.183548,-0.0507545,0.0
9881405,-3.83972,0.183564,-0.0507592,0.0
9913414,-3.83972,0.183462,-0.0507306,0.0
9941375,-3.83972,0.183273,-0.0506781,0.0
9973390,-3.83972,0.1832,-0.0506577,0.0
10005376,-3.83972,0.182969,-0.0505939,0.0
10037453,-3.83972,0.182848,-0.05056,0.0
10069405,-3.83972,0.182787,-0.0505434,0.0
10101458,-3.83972,0.182634,-0.0505012,0.0
10133422,-3.83972,0.182652,-0.0505067,0.0
10165490,-3.83972,0.18269,-0.050517,0.0
10193418,-3.83972,0.182582,-0.0504867,0.0
10225455,-3.83972,0.182546,-0.0504766,0.0
10258246,-3.83972,0.182657,-0.0505076,0.0
10290256,-3.83972,0.18273,-0.0505273,0.0
10323034,-3.83972,0.182514,-0.0504675,0.0
10355811,-3.83972,0.182468,-0.0504538,0.0
10387882,-3.83972,0.182396,-0.050434,0.0
10419898,-3.83972,0.182194,-0.0503777,0.0
10451829,-3.83972,0.182149,-0.0503652,0.0
10483803,-3.83972,0.182111,-0.050355,0.0
10515835,-3.83972,0.182033,-0.0503335,0.0
10547831,-3.83972,0.182281,-0.0504022,0.0
10579845,-3.83972,0.1823,-0.0504068,0.0
10611819,-3.83972,0.182068,-0.0503425,0.0
10643838,-3.83972,0.18191,-0.0502986,0.0
10675847,-3.83972,0.181863,-0.0502853,0.0
10707801,-3.83972,0.181795,-0.0502665,0.0
10739906,-3.83972,0.181602,-0.0502134,0.0
10771818,-3.83972,0.181507,-0.0501868,0.0
10803896,-3.83972,0.181584,-0.0502081,0.0
10835799,-3.83972,0.181411,-0.0501603,0.0
10867854,-3.83972,0.181403,-0.0501578,0.0
10899869,-3.83972,0.181391,-0.0501545,0.0
10931887,-3.83972,0.181285,-0.0501245,0.0
10963812,-3.83972,0.181291,-0.0501265,0.0
10995853,-3.83972,0.181354,-0.0501439,0.0
11027775,-3.83972,0.181355,-0.050144,0.0
11059905,-3.83972,0.181296,-0.0501278,0.0
11091788,-3.83972,0.181191,-0.0500981,0.0
11123776,-3.83972,0.181393,-0.0501536,0.0
11155831,-3.83972,0.181422,-0.0501615,0.0
11187829,-3.83972,0.181574,-0.0502031,0.0
11219940,-3.83972,0.181672,-0.0502302,0.0
11251806,-3.83972,0.181622,-0.0502161,0.0
11283859,-3.83972,0.181603,-0.0502107,0.0
11315858,-3.83972,0.181532,-0.0501915,0.0
11347885,-3.83972,0.1815,-0.0501824,0.0
11379856,-3.83972,0.181369,-0.050146,0.0
11411851,-3.83972,0.181198,-0.0500984,0.0
11443852,-3.83972,0.181032,-0.0500526,0.0
11475895,-3.83972,0.180961,-0.0500329,0.0
11507805,-3.83972,0.180779,-0.0499827,0.0
11540609,-3.83972,0.180725,-0.0499679,0.0
11572626,-3.83972,0.180815,-0.0499922,0.0
11604650,-3.83972,0.180636,-0.0499426,0.0
11637501,-3.83972,0.18047,-0.0498962,0.0
11670206,-3.83972,0.180358,-0.0498647,0.0
11702207,-3.83972,0.180321,-0.0498546,0.0
11734257,-3.83972,0.180354,-0.0498638,0.0
11766234,-3.83972,0.180259,-0.0498371,0.0
11798216,-3.83972,0.180089,-0.0497899,0.0
11830221,-3.83972,0.179962,-0.049755,0.0
11862293,-3.83972,0.179969,-0.049757,0.0
11890999,-3.83972,0.180219,-0.0498271,0.0
11923071,-3.83972,0.180325,-0.0498561,0.0
11955012,-3.83972,0.180339,-0.0498598,0.0
11987020,-3.83972,0.180488,-0.0499009,0.0
12018979,-3.83972,0.18045,-0.0498904,0.0
12050974,-3.83972,0.180484,-0.0498993,0.0
12083002,-3.83972,0.180754,-0.049974,0.0
12114973,-3.83972,0.180978,-0.0500355,0.0
12143036,-3.83972,0.180969,-0.0500331,0.0
12175035,-3.83972,0.180807,-0.0499881,0.0
12206997,-3.83972,0.180842,-0.049997,0.0
12239100,-3.83972,0.180839,-0.0499966,0.0
12271036,-3.83972,0.18107,-0.0500604,0.0
12303038,-3.83972,0.181232,-0.0501053,0.0
12335002,-3.83972,0.181084,-0.0500642,0.0
12367049,-3.83972,0.181285,-0.0501198,0.0
12399048,-3.83972,0.181435,-0.0501615,0.0
12430998,-3.83972,0.181331,-0.0501324,0.0
12462997,-3.83972,0.181259,-0.0501124,0.0
12495026,-3.83972,0.181324,-0.0501304,0.0
12527050,-3.83972,0.181406,-0.0501531,0.0
12556577,-3.83972,0.181268,-0.050115,0.0
12589409,-3.83972,0.181406,-0.0501534,0.0
12621482,-3.83972,0.181571,-0.0501988,0.0
12653400,-3.83972,0.181716,-0.0502387,0.0
12685452,-3.83972,0.181441,-0.0501632,0.0
12713397,-3.83972,0.181538,-0.0501894,0.0
12745402,-3.83972,0.181406,-0.0501532,0.0
12777450,-3.83972,0.181382,-0.0501462,0.0
12809442,-3.83972,0.181376,-0.0501442,0.0
12841398,-3.83972,0.181023,-0.0500467,0.0
12873423,-3.83972,0.180963,-0.0500297,0.0
12905404,-3.83972,0.181101,-0.0500678,0.0
12937533,-3.83972,0.181056,-0.0500555,0.0
12969398,-3.83972,0.180973,-0.0500321,0.0
13001439,-3.83972,0.181046,-0.0500523,0.0
13033418,-3.83972,0.180951,-0.0500258,0.0
13065472,-3.83972,0.180968,-0.0500307,0.0
13098230,-3.83972,0.181104,-0.0500684,0.0
13130220,-3.83972,0.181221,-0.050101,0.0
13158207,-3.83972,0.181461,-0.0501674,0.0
13190209,-3.83972,0.181349,-0.0501363,0.0
13223807,-3.83972,0.181494,-0.050176,0.0
13255818,-3.83972,0.181433,-0.0501592,0.0
13287878,-3.83972,0.181263,-0.0501113,0.0
13315853,-3.83972,0.181219,-0.0500995,0.0
13347866,-3.83972,0.181262,-0.0501108,0.0
13379850,-3.83972,0.181407,-0.0501506,0.0
13411774,-3.83972,0.181425,-0.0501558,0.0
13443797,-3.83972,0.181414,-0.0501531,0.0
13475809,-3.83972,0.18121,-0.0500965,0.0
13507772,-3.83972,0.181286,-0.0501172,0.0
13539869,-3.83972,0.181214,-0.0500976,0.0
13571805,-3.83972,0.181029,-0.0500461,0.0
13603835,-3.83972,0.180811,-0.0499855,0.0
13635806,-3.83972,0.180751,-0.0499688,0.0
13667807,-3.83972,0.180649,-0.0499411,0.0
13699844,-3.83972,0.180765,-0.0499729,0.0
13731850,-3.83972,0.180742,-0.0499661,0.0
13760648,-3.83972,0.180829,-0.0499898,0.0
13792640,-3.83972,0.180664,-0.0499437,0.0
13824683,-3.83972,0.180607,-0.0499278,0.0
13856614,-3.83972,0.180873,-0.0500009,0.0
13888653,-3.83972,0.18111,-0.0500668,0.0
13920664,-3.83972,0.181104,-0.0500654,0.0
13952700,-3.83972,0.181046,-0.050049,0.0
13980626,-3.83972,0.181205,-0.0500932,0.0
14012622,-3.83972,0.181382,-0.0501415,0.0
14044583,-3.83972,0.181251,-0.0501051,0.0
14076628,-3.83972,0.181369,-0.0501377,0.0
14108622,-3.83972,0.181321,-0.0501245,0.0
14140615,-3.83972,0.181473,-0.0501667,0.0
14172601,-3.83972,0.18141,-0.0501491,0.0
14204658,-3.83972,0.181257,-0.0501068,0.0
14236649,-3.83972,0.181277,-0.0501119,0.0
14268685,-3.83972,0.181262,-0.0501079,0.0
14300611,-3.83972,0.181285,-0.0501143,0.0
14332613,-3.83972,0.181215,-0.0500947,0.0
14364644,-3.83972,0.181176,-0.0500837,0.0
14396656,-3.83972,0.181115,-0.0500666,0.0
14428652,-3.83972,0.181191,-0.0500879,0.0
14456703,-3.83972,0.181195,-0.0500891,0.0
14488601,-3.83972,0.181222,-0.050096,0.0
14520673,-3.83972,0.181118,-0.050068,0.0
14552652,-3.83972,0.18105,-0.050049,0.0
14584611,-3.83972,0.180986,-0.0500312,0.0
14616607,-3.83972,0.180726,-0.0499593,0.0
14648614,-3.83972,0.18061,-0.0499269,0.0
14680650,-3.83972,0.180675,-0.0499448,0.0
14708702,-3.83972,0.180888,-0.0500038,0.0
14740647,-3.83972,0.180995,-0.0500332,0.0
14772577,-3.83972,0.180962,-0.0500243,0.0
14804590,-3.83972,0.18099,-0.050032,0.0
14836620,-3.83972,0.181131,-0.0500712,0.0
14868660,-3.83972,0.18126,-0.0501068,0.0
14900620,-3.83972,0.181053,-0.0500499,0.0
14932612,-3.83972,0.181018,-0.05004,0.0
14964627,-3.83972,0.180972,-0.0500273,0.0
14996648,-3.83972,0.18105,-0.050049,0.0
15028604,-3.83972,0.180993,-0.0500336,0.0
15060630,-3.83972,0.181151,-0.0500768,0.0
15092636,-3.83972,0.181089,-0.05006,0.0
15124666,-3.83972,0.180989,-0.0500322,0.0
15154214,-3.83972,0.181292,-0.0501157,0.0
15186230,-3.83972,0.181262,-0.0501078,0.0
15218238,-3.83972,0.181239,-0.0501017,0.0
15250184,-3.83972,0.181242,-0.0501025,0.0
15282178,-3.83972,0.181271,-0.0501106,0.0
15311014,-3.83972,0.181245,-0.0501036,0.0
15343013,-3.83972,0.181242,-0.050103,0.0
15375050,-3.83972,0.181341,-0.0501306,0.0
15407068,-3.83972,0.181212,-0.0500949,0.0
15438975,-3.83972,0.181275,-0.0501124,0.0
15471043,-3.83972,0.181244,-0.0501038,0.0
15499906,-3.83972,0.181374,-0.0501403,0.0
15531823,-3.83972,0.181498,-0.0501744,0.0
15563803,-3.83972,0.181513,-0.0501789,0.0
15595903,-3.83972,0.181516,-0.05018,0.0
15627798,-3.83972,0.181722,-0.0502369,0.0
15659888,-3.83972,0.181827,-0.0502662,0.0
15691799,-3.83972,0.181787,-0.0502552,0.0
15723826,-3.83972,0.181922,-0.0502927,0.0
15753455,-3.83972,0.182067,-0.0503328,0.0
15785409,-3.83972,0.181943,-0.0502984,0.0
15817501,-3.83972,0.181734,-0.0502405,0.0
15849399,-3.83972,0.181752,-0.050246,0.0
15881460,-3.83972,0.181835,-0.0502687,0.0
15909402,-3.83972,0.181902,-0.0502869,0.0
15941448,-3.83972,0.181966,-0.0503048,0.0
15973441,-3.83972,0.181897,-0.0502853,0.0
16005483,-3.83972,0.182056,-0.0503291,0.0
16037467,-3.83972,0.181969,-0.0503053,0.0
16069447,-3.83972,0.181856,-0.0502745,0.0
16101428,-3.83972,0.181796,-0.0502579,0.0
16129455,-3.83972,0.181615,-0.0502077,0.0
16161467,-3.83972,0.18163,-0.0502117,0.0
16193436,-3.83972,0.181826,-0.0502655,0.0
16225373,-3.83972,0.181788,-0.0502549,0.0
16257451,-3.83972,0.181853,-0.0502729,0.0
16289466,-3.83972,0.181998,-0.0503134,0.0
16321471,-3.83972,0.182118,-0.0503466,0.0
16353410,-3.83972,0.182097,-0.0503408,0.0
16385454,-3.83972,0.182239,-0.0503804,0.0
16417496,-3.83972,0.182203,-0.0503707,0.0
16449458,-3.83972,0.182077,-0.0503361,0.0
16481410,-3.83972,0.182192,-0.0503677,0.0
16513459,-3.83972,0.182103,-0.0503427,0.0
16545471,-3.83972,0.182045,-0.0503271,0.0
16577493,-3.83972,0.182033,-0.0503235,0.0
16605456,-3.83972,0.181851,-0.0502734,0.0
16637507,-3.83972,0.181748,-0.0502453,0.0
16669404,-3.83972,0.181848,-0.050273,0.0
16701470,-3.83972,0.18163,-0.0502129,0.0
16733443,-3.83972,0.18167,-0.0502239,0.0
16765483,-3.83972,0.181617,-0.0502093,0.0
16797437,-3.83972,0.181499,-0.0501768,0.0
16829408,-3.83972,0.181317,-0.0501266,0.0
16857405,-3.83972,0.181122,-0.0500728,0.0
16889472,-3.83972,0.18105,-0.050053,0.0
16921450,-3.83972,0.180913,-0.0500152,0.0
16953403,-3.83972,0.180927,-0.050019,0.0
16985373,-3.83972,0.180927,-0.050019,0.0
17017423,-3.83972,0.180924,-0.0500179,0.0
17049431,-3.83972,0.18083,-0.0499921,0.0
17081373,-3.83972,0.180683,-0.049951,0.0
17114264,-3.83972,0.180809,-0.0499862,0.0
17146211,-3.83972,0.180871,-0.050003,0.0
17179870,-3.83972,0.180737,-0.0499661,0.0
17207860,-3.83972,0.180779,-0.049978,0.0
17239854,-3.83972,0.180695,-0.0499552,0.0
17271873,-3.83972,0.180628,-0.0499367,0.0
17303818,-3.83972,0.180619,-0.0499342,0.0
17335828,-3.83972,0.180917,-0.0500166,0.0
17367802,-3.83972,0.180869,-0.0500038,0.0
17399890,-3.83972,0.180836,-0.0499942,0.0
17431845,-3.83972,0.180724,-0.0499634,0.0
17459949,-3.83972,0.180829,-0.0499922,0.0
17491800,-3.83972,0.181001,-0.0500394,0.0
17524612,-3.83972,0.181057,-0.050055,0.0
17556613,-3.83972,0.181022,-0.0500451,0.0
17588634,-3.83972,0.180908,-0.0500131,0.0
17620643,-3.83972,0.180855,-0.0499988,0.0
17652654,-3.83972,0.180746,-0.0499692,0.0
17684607,-3.83972,0.180657,-0.0499446,0.0
17716611,-3.83972,0.180579,-0.0499231,0.0
17748655,-3.83972,0.180602,-0.0499299,0.0
17781373,-3.83972,0.180538,-0.0499116,0.0
17814996,-3.83972,0.180447,-0.0498869,0.0
17847047,-3.83972,0.180368,-0.0498651,0.0
17879004,-3.83972,0.18013,-0.049799,0.0
17911056,-3.83972,0.180103,-0.0497917,0.0
17943041,-3.83972,0.180019,-0.049769,0.0
17975804,-3.83972,0.179859,-0.0497246,0.0
18007853,-3.83972,0.179694,-0.0496791,0.0
18039855,-3.83972,0.17973,-0.049689,0.0
18071884,-3.83972,0.179662,-0.04967,0.0
18103788,-3.83972,0.179712,-0.0496841,0.0
18136602,-3.83972,0.179639,-0.0496638,0.0
18168664,-3.83972,0.179663,-0.0496707,0.0
18200636,-3.83972,0.179615,-0.0496576,0.0
18232641,-3.83972,0.17958,-0.0496484,0.0
18264616,-3.83972,0.17954,-0.0496374,0.0
18294250,-3.83972,0.179611,-0.0496569,0.0
18326204,-3.83972,0.179518,-0.0496314,0.0
18358211,-3.83972,0.179418,-0.0496038,0.0
18390182,-3.83972,0.179361,-0.0495879,0.0
18422230,-3.83972,0.179316,-0.0495756,0.0
18450199,-3.83972,0.179211,-0.0495463,0.0
18482218,-3.83972,0.179171,-0.0495358,0.0
18514175,-3.83972,0.179099,-0.0495157,0.0
18546214,-3.83972,0.179197,-0.0495422,0.0
18578248,-3.83972,0.179332,-0.0495802,0.0
18610230,-3.83972,0.179224,-0.0495501,0.0
18642204,-3.83972,0.179042,-0.0494997,0.0
18674213,-3.83972,0.178961,-0.0494772,0.0
18706249,-3.83972,0.178857,-0.0494483,0.0
18738229,-3.83972,0.178827,-0.0494402,0.0
18770213,-3.83972,0.178772,-0.0494246,0.0
18802212,-3.83972,0.178544,-0.0493615,0.0
18834246,-3.83972,0.178622,-0.049383,0.0
18866235,-3.83972,0.178544,-0.0493617,0.0
18898297,-3.83972,0.178523,-0.0493561,0.0
18926257,-3.83972,0.178408,-0.0493239,0.0
18958214,-3.83972,0.178391,-0.0493192,0.0
18990212,-3.83972,0.178401,-0.049322,0.0
19022262,-3.83972,0.178444,-0.0493336,0.0
19054270,-3.83972,0.178372,-0.0493137,0.0
19086248,-3.83972,0.178251,-0.0492801,0.0
19118208,-3.83972,0.178046,-0.0492232,0.0
19150291,-3.83972,0.177886,-0.049179,0.0
19178191,-3.83972,0.177807,-0.0491571,0.0
19210223,-3.83972,0.177564,-0.0490896,0.0
19242213,-3.83972,0.177441,-0.0490557,0.0
19274185,-3.83972,0.177399,-0.049044,0.0
19306205,-3.83972,0.177403,-0.0490452,0.0
19339015,-3.83972,0.177189,-0.0489858,0.0
19371029,-3.83972,0.177142,-0.0489729,0.0
19403005,-3.83972,0.17707,-0.0489529,0.0
19435009,-3.83972,0.177294,-0.0490147,0.0
19467003,-3.83972,0.177418,-0.0490489,0.0
19499024,-3.83972,0.177685,-0.0491226,0.0
19531004,-3.83972,0.177697,-0.0491254,0.0
19563001,-3.83972,0.177558,-0.0490867,0.0
19590999,-3.83972,0.177504,-0.0490714,0.0
19623001,-3.83972,0.177634,-0.0491069,0.0
19655021,-3.83972,0.177653,-0.0491122,0.0
19687046,-3.83972,0.177759,-0.0491414,0.0
19718997,-3.83972,0.177752,-0.0491395,0.0
19750998,-3.83972,0.177913,-0.0491839,0.0
19783032,-3.83972,0.177715,-0.0491293,0.0
19815054,-3.83972,0.177465,-0.0490604,0.0
19844611,-3.83972,0.177639,-0.0491083,0.0
19876628,-3.83972,0.177674,-0.049118,0.0
19909485,-3.83972,0.177637,-0.0491079,0.0
19937460,-3.83972,0.177469,-0.0490613,0.0
19969446,-3.83972,0.177486,-0.0490658,0.0
20001405,-3.83972,0.177382,-0.0490372,0.0
20033415,-3.83972,0.177222,-0.0489929,0.0
20065413,-3.83972,0.177244,-0.0489992,0.0
20097466,-3.83972,0.177293,-0.0490124,0.0
20129373,-3.83972,0.177481,-0.0490643,0.0
20158291,-3.83972,0.177369,-0.0490332,0.0
20190203,-3.83972,0.177269,-0.0490062,0.0
20223805,-3.83972,0.17727,-0.0490059,0.0
20255849,-3.83972,0.177338,-0.0490247,0.0
20287802,-3.83972,0.177326,-0.0490219,0.0
20319917,-3.83972,0.177375,-0.0490351,0.0
20351809,-3.83972,0.177412,-0.0490456,0.0
20383833,-3.83972,0.177533,-0.0490787,0.0
20415777,-3.83972,0.177734,-0.0491338,0.0
20447814,-3.83972,0.177889,-0.0491764,0.0
20479906,-3.83972,0.178058,-0.0492232,0.0
20511786,-3.83972,0.178183,-0.0492577,0.0
20539842,-3.83972,0.178362,-0.0493069,0.0
20571803,-3.83972,0.17835,-0.0493036,0.0
20603849,-3.83972,0.178395,-0.0493159,0.0
20635879,-3.83972,0.178703,-0.0494006,0.0
20667809,-3.83972,0.178629,-0.0493801,0.0
20699891,-3.83972,0.178653,-0.0493867,0.0
20731823,-3.83972,0.178672,-0.049392,0.0
20763837,-3.83972,0.178868,-0.0494461,0.0
20791836,-3.83972,0.178807,-0.0494292,0.0
20823887,-3.83972,0.178738,-0.0494098,0.0
20855804,-3.83972,0.178893,-0.0494523,0.0
20887843,-3.83972,0.178694,-0.0493971,0.0
20919873,-3.83972,0.179028,-0.0494895,0.0
20951884,-3.83972,0.179118,-0.0495144,0.0
20983831,-3.83972,0.179227,-0.049544,0.0
21015826,-3.83972,0.17922,-0.0495416,0.0
21047853,-3.83972,0.179392,-0.0495891,0.0
21079898,-3.83972,0.179444,-0.0496034,0.0
21111812,-3.83972,0.17927,-0.0495555,0.0
21143821,-3.83972,0.179059,-0.0494974,0.0
21175850,-3.83972,0.178957,-0.0494688,0.0
21207830,-3.83972,0.178929,-0.0494608,0.0
21239909,-3.83972,0.178867,-0.049444,0.0
21271787,-3.83972,0.178913,-0.0494565,0.0
21303863,-3.83972,0.179176,-0.0495297,0.0
21336663,-3.83972,0.179083,-0.0495032,0.0
21368661,-3.83972,0.179011,-0.0494833,0.0
21400621,-3.83972,0.179189,-0.0495323,0.0
21428692,-3.83972,0.17933,-0.0495712,0.0
21460608,-3.83972,0.179211,-0.0495378,0.0
21492657,-3.83972,0.179413,-0.0495938,0.0
21524649,-3.83972,0.179598,-0.0496447,0.0
21557477,-3.83972,0.179792,-0.049698,0.0
21586260,-3.83972,0.179794,-0.0496989,0.0
21618207,-3.83972,0.179866,-0.0497187,0.0
21650227,-3.83972,0.179844,-0.0497122,0.0
21682210,-3.83972,0.179829,-0.0497081,0.0
21714282,-3.83972,0.179747,-0.0496851,0.0
21746262,-3.83972,0.179686,-0.0496682,0.0
21778252,-3.83972,0.179546,-0.0496288,0.0
21810222,-3.83972,0.179471,-0.0496081,0.0
21842279,-3.83972,0.179452,-0.0496022,0.0
21874246,-3.83972,0.179387,-0.0495847,0.0
21906201,-3.83972,0.179318,-0.0495657,0.0
21938209,-3.83972,0.17913,-0.0495134,0.0
21970224,-3.83972,0.178939,-0.0494607,0.0
22002227,-3.83972,0.179073,-0.0494976,0.0
22034209,-3.83972,0.17917,-0.0495244,0.0
22066212,-3.83972,0.178997,-0.0494766,0.0
22098200,-3.83972,0.179126,-0.0495126,0.0
22130253,-3.83972,0.179104,-0.0495061,0.0
22162208,-3.83972,0.179119,-0.04951,0.0
22194250,-3.83972,0.179194,-0.0495307,0.0
22226215,-3.83972,0.179526,-0.0496218,0.0
22255042,-3.83972,0.179462,-0.0496044,0.0
22287006,-3.83972,0.17945,-0.049601,0.0
22319063,-3.83972,0.179424,-0.0495937,0.0
22351046,-3.83972,0.179271,-0.0495517,0.0
22383098,-3.83972,0.179268,-0.0495506,0.0
22415009,-3.83972,0.179135,-0.0495141,0.0
22447048,-3.83972,0.179123,-0.049511,0.0
22475034,-3.83972,0.179172,-0.0495244,0.0
22507076,-3.83972,0.17921,-0.0495348,0.0
22539008,-3.83972,0.179139,-0.0495152,0.0
22571050,-3.83972,0.179284,-0.0495554,0.0
22602997,-3.83972,0.179283,-0.0495547,0.0
22635081,-3.83972,0.179271,-0.0495519,0.0
22667051,-3.83972,0.179132,-0.0495132,0.0
22698999,-3.83972,0.179181,-0.0495261,0.0
22726997,-3.83972,0.179322,-0.0495655,0.0
22759040,-3.83972,0.179119,-0.04951,0.0
22791039,-3.83972,0.179281,-0.0495545,0.0
22823076,-3.83972,0.179315,-0.0495639,0.0
22854997,-3.83972,0.179141,-0.0495155,0.0
22887071,-3.83972,0.178834,-0.0494312,0.0
22918980,-3.83972,0.178911,-0.0494528,0.0
22951014,-3.83972,0.178948,-0.0494632,0.0
22982983,-3.83972,0.178935,-0.0494594,0.0
23011043,-3.83972,0.17883,-0.0494309,0.0
23043008,-3.83972,0.178745,-0.0494076,0.0
23075049,-3.83972,0.178785,-0.0494183,0.0
23107053,-3.83972,0.17885,-0.0494363,0.0
23139103,-3.83972,0.178869,-0.0494415,0.0
23171004,-3.83972,0.178795,-0.0494208,0.0
23203088,-3.83972,0.178577,-0.0493606,0.0
23230997,-3.83972,0.178482,-0.049334,0.0
23263035,-3.83972,0.178466,-0.04933,0.0
23295037,-3.83972,0.178318,-0.0492889,0.0
23328643,-3.83972,0.178206,-0.0492583,0.0
23360652,-3.83972,0.178152,-0.0492431,0.0
23388615,-3.83972,0.178189,-0.0492533,0.0
23420653,-3.83972,0.178364,-0.0493014,0.0
23452581,-3.83972,0.178351,-0.0492981,0.0
23484623,-3.83972,0.178203,-0.049257,0.0
23516657,-3.83972,0.178103,-0.0492292,0.0
23548725,-3.83972,0.178097,-0.0492278,0.0
23580610,-3.83972,0.17814,-0.0492391,0.0
23612649,-3.83972,0.178154,-0.0492434,0.0
23644700,-3.83972,0.17826,-0.0492726,0.0
23676694,-3.83972,0.178296,-0.0492826,0.0
23709421,-3.83972,0.178363,-0.049301,0.0
23741408,-3.83972,0.178345,-0.0492958,0.0
23773447,-3.83972,0.178189,-0.0492528,0.0
23801405,-3.83972,0.178218,-0.0492608,0.0
23833450,-3.83972,0.178218,-0.0492611,0.0
23865449,-3.83972,0.178032,-0.0492098,0.0
23897453,-3.83972,0.178118,-0.0492331,0.0
23929401,-3.83972,0.178006,-0.049202,0.0
23961454,-3.83972,0.178033,-0.0492095,0.0
23993423,-3.83972,0.178029,-0.0492081,0.0
24025414,-3.83972,0.178123,-0.0492345,0.0
24053375,-3.83972,0.178129,-0.0492361,0.0
24085377,-3.83972,0.178261,-0.0492725,0.0
24117379,-3.83972,0.178242,-0.0492673,0.0
24149437,-3.83972,0.178312,-0.0492864,0.0
24181438,-3.83972,0.178349,-0.049297,0.0
24213417,-3.83972,0.178162,-0.0492452,0.0
24245444,-3.83972,0.178253,-0.0492702,0.0
24277543,-3.83972,0.17823,-0.0492639,0.0
24309461,-3.83972,0.178268,-0.0492744,0.0
24341412,-3.83972,0.178106,-0.0492295,0.0
24373396,-3.83972,0.178077,-0.0492216,0.0
24405499,-3.83972,0.178028,-0.0492076,0.0
24437478,-3.83972,0.177936,-0.0491824,0.0
24469460,-3.83972,0.178055,-0.0492155,0.0
24501397,-3.83972,0.178242,-0.0492669,0.0
24529444,-3.83972,0.17807,-0.049219,0.0
24561398,-3.83972,0.17784,-0.0491555,0.0
24593489,-3.83972,0.177968,-0.0491906,0.0
24625442,-3.83972,0.177931,-0.0491804,0.0
24657482,-3.83972,0.17765,-0.0491031,0.0
24687049,-3.83972,0.177644,-0.0491013,0.0
24719008,-3.83972,0.177439,-0.0490442,0.0
24751018,-3.83972,0.17737,-0.049025,0.0
24783013,-3.83972,0.177308,-0.0490082,0.0
24815096,-3.83972,0.177382,-0.0490282,0.0
24846998,-3.83972,0.177389,-0.0490298,0.0
24879035,-3.83972,0.17752,-0.0490662,0.0
24911024,-3.83972,0.177506,-0.0490627,0.0
24939018,-3.83972,0.177467,-0.0490516,0.0
24971007,-3.83972,0.177318,-0.0490101,0.0
25003059,-3.83972,0.177365,-0.0490233,0.0
25034997,-3.83972,0.177189,-0.0489744,0.0
25067036,-3.83972,0.177232,-0.0489865,0.0
25099002,-3.83972,0.177254,-0.0489927,0.0
25131066,-3.83972,0.17754,-0.0490715,0.0
25163000,-3.83972,0.177483,-0.0490556,0.0
25191054,-3.83972,0.177408,-0.0490348,0.0
25222972,-3.83972,0.177219,-0.0489829,0.0
25254983,-3.83972,0.177215,-0.0489818,0.0
25287000,-3.83972,0.177376,-0.0490263,0.0
25319063,-3.83972,0.17704,-0.0489334,0.0
25351003,-3.83972,0.176953,-0.0489094,0.0
25383039,-3.83972,0.177111,-0.0489533,0.0
25415044,-3.83972,0.177059,-0.0489388,0.0
25447147,-3.83972,0.177095,-0.048949,0.0
25478996,-3.83972,0.177154,-0.0489648,0.0
25511044,-3.83972,0.177123,-0.0489564,0.0
25543015,-3.83972,0.177185,-0.0489738,0.0
25575079,-3.83972,0.177121,-0.0489563,0.0
25606996,-3.83972,0.177199,-0.0489783,0.0
25638999,-3.83972,0.17736,-0.0490224,0.0
25667025,-3.83972,0.177596,-0.049088,0.0
25699042,-3.83972,0.177527,-0.049069,0.0
25731023,-3.83972,0.17761,-0.0490917,0.0
25763071,-3.83972,0.177408,-0.0490359,0.0
25794999,-3.83972,0.177639,-0.0490995,0.0
25827056,-3.83972,0.177552,-0.0490758,0.0
25859028,-3.83972,0.177533,-0.04907,0.0
25891049,-3.83972,0.177439,-0.0490443,0.0
25919054,-3.83972,0.177472,-0.0490532,0.0
25951086,-3.83972,0.177384,-0.0490287,0.0
25982987,-3.83972,0.177532,-0.0490692,0.0
26015021,-3.83972,0.177607,-0.0490898,0.0
26047014,-3.83972,0.177629,-0.0490957,0.0
26078977,-3.83972,0.177647,-0.0491009,0.0
26111004,-3.83972,0.17765,-0.0491019,0.0
26143017,-3.83972,0.177532,-0.0490698,0.0
26172681,-3.83972,0.177577,-0.0490813,0.0
26205399,-3.83972,0.177603,-0.0490888,0.0
26237437,-3.83972,0.177539,-0.0490709,0.0
26265375,-3.83972,0.177452,-0.0490471,0.0
26297467,-3.83972,0.17744,-0.0490437,0.0
26329421,-3.83972,0.177547,-0.0490732,0.0
26361384,-3.83972,0.177456,-0.0490484,0.0
26393373,-3.83972,0.17762,-0.0490935,0.0
26425413,-3.83972,0.177645,-0.0491003,0.0
26458271,-3.83972,0.177786,-0.0491398,0.0
26490247,-3.83972,0.177566,-0.0490792,0.0
26522233,-3.83972,0.177643,-0.0491005,0.0
26554219,-3.83972,0.177625,-0.0490951,0.0
26586280,-3.83972,0.177613,-0.0490926,0.0
26618234,-3.83972,0.177927,-0.0491793,0.0
26650256,-3.83972,0.177905,-0.049174,0.0
26682219,-3.83972,0.177872,-0.0491645,0.0
26714228,-3.83972,0.177733,-0.0491268,0.0
26746236,-3.83972,0.177726,-0.0491249,0.0
26778208,-3.83972,0.177828,-0.0491529,0.0
26810215,-3.83972,0.177885,-0.0491682,0.0
26842220,-3.83972,0.178084,-0.0492239,0.0
26874256,-3.83972,0.178042,-0.0492118,0.0
26906183,-3.83972,0.178037,-0.0492108,0.0
26934246,-3.83972,0.178242,-0.0492673,0.0
26966183,-3.83972,0.178057,-0.0492161,0.0
26998178,-3.83972,0.178193,-0.0492536,0.0
27030216,-3.83972,0.178166,-0.0492465,0.0
27062245,-3.83972,0.178174,-0.0492486,0.0
27094201,-3.83972,0.178196,-0.0492545,0.0
27126200,-3.83972,0.178145,-0.0492405,0.0
27158251,-3.83972,0.178045,-0.0492134,0.0
27186207,-3.83972,0.17803,-0.0492091,0.0
27218274,-3.83972,0.17806,-0.0492173,0.0
27250233,-3.83972,0.178225,-0.0492627,0.0
27282212,-3.83972,0.17814,-0.0492395,0.0
27314200,-3.83972,0.178218,-0.0492609,0.0
27346261,-3.83972,0.178322,-0.0492901,0.0
27375809,-3.83972,0.178437,-0.0493221,0.0
27407784,-3.83972,0.178684,-0.0493906,0.0
27439918,-3.83972,0.178635,-0.0493771,0.0
27471779,-3.83972,0.178683,-0.0493908,0.0
27503803,-3.83972,0.17869,-0.0493928,0.0
27535803,-3.83972,0.178648,-0.0493809,0.0
27567855,-3.83972,0.178762,-0.0494128,0.0
27595834,-3.83972,0.178769,-0.0494143,0.0
27627878,-3.83972,0.178795,-0.0494214,0.0
27659879,-3.83972,0.178515,-0.0493446,0.0
27691818,-3.83972,0.178876,-0.0494439,0.0
27723796,-3.83972,0.178828,-0.0494309,0.0
27755828,-3.83972,0.179079,-0.0495,0.0
27787792,-3.83972,0.179125,-0.0495132,0.0
27819859,-3.83972,0.179254,-0.0495484,0.0
27851805,-3.83972,0.179356,-0.0495767,0.0
27883842,-3.83972,0.179398,-0.0495881,0.0
27915799,-3.83972,0.179646,-0.0496564,0.0
27948617,-3.83972,0.179757,-0.0496869,0.0
27980639,-3.83972,0.179889,-0.0497234,0.0
28012589,-3.83972,0.180014,-0.0497583,0.0
28044663,-3.83972,0.180055,-0.0497694,0.0
28076605,-3.83972,0.179882,-0.0497216,0.0
28108620,-3.83972,0.180187,-0.0498061,0.0
28140612,-3.83972,0.180242,-0.0498214,0.0
28172652,-3.83972,0.180164,-0.0498001,0.0
28204612,-3.83972,0.180162,-0.0497992,0.0
28232702,-3.83972,0.180235,-0.0498194,0.0
28264608,-3.83972,0.180129,-0.0497896,0.0
28296647,-3.83972,0.18022,-0.0498153,0.0
28328659,-3.83972,0.180314,-0.0498417,0.0
28360642,-3.83972,0.180413,-0.0498684,0.0
28392624,-3.83972,0.180441,-0.0498762,0.0
28422203,-3.83972,0.180372,-0.0498572,0.0
28454246,-3.83972,0.180313,-0.0498409,0.0
28486176,-3.83972,0.180408,-0.0498667,0.0
28518237,-3.83972,0.180489,-0.0498897,0.0
28550242,-3.83972,0.180233,-0.0498184,0.0
28582281,-3.83972,0.180128,-0.0497899,0.0
28614220,-3.83972,0.180282,-0.0498324,0.0
28646216,-3.83972,0.180358,-0.0498535,0.0
28678259,-3.83972,0.180402,-0.0498657,0.0
28710253,-3.83972,0.180492,-0.04989,0.0
28742187,-3.83972,0.180425,-0.0498713,0.0
28774205,-3.83972,0.180392,-0.0498619,0.0
28806248,-3.83972,0.180245,-0.0498215,0.0
28838239,-3.83972,0.180087,-0.0497772,0.0
28870214,-3.83972,0.180165,-0.0497983,0.0
28902205,-3.83972,0.180062,-0.0497694,0.0
28934255,-3.83972,0.180056,-0.0497678,0.0
28966249,-3.83972,0.180069,-0.0497714,0.0
28998250,-3.83972,0.18018,-0.0498016,0.0
29030213,-3.83972,0.180305,-0.0498364,0.0
29062288,-3.83972,0.180204,-0.0498084,0.0
29094248,-3.83972,0.180264,-0.0498246,0.0
29126246,-3.83972,0.18041,-0.0498648,0.0
29158200,-3.83972,0.180351,-0.0498489,0.0
29190269,-3.83972,0.180424,-0.0498692,0.0
29222221,-3.83972,0.180543,-0.0499019,0.0
29254221,-3.83972,0.180399,-0.0498625,0.0
29286202,-3.83972,0.180414,-0.0498665,0.0
29318188,-3.83972,0.180502,-0.0498912,0.0
29350249,-3.83972,0.18053,-0.0498987,0.0
29382211,-3.83972,0.180443,-0.0498755,0.0
29414234,-3.83972,0.180542,-0.0499029,0.0
29446267,-3.83972,0.180598,-0.0499186,0.0
29478234,-3.83972,0.180442,-0.0498753,0.0
29510225,-3.83972,0.180251,-0.0498223,0.0
29538245,-3.83972,0.180187,-0.0498045,0.0
29570209,-3.83972,0.179939,-0.0497362,0.0
29602207,-3.83972,0.179936,-0.049735,0.0
29634253,-3.83972,0.17993,-0.0497335,0.0
29666264,-3.83972,0.179733,-0.0496787,0.0
29698207,-3.83972,0.179743,-0.0496813,0.0
29727060,-3.83972,0.179766,-0.0496879,0.0
29758997,-3.83972,0.17977,-0.0496896,0.0
29791021,-3.83972,0.179653,-0.0496571,0.0
29823014,-3.83972,0.179599,-0.0496417,0.0
29855042,-3.83972,0.179657,-0.0496575,0.0
29886973,-3.83972,0.179781,-0.0496917,0.0
29919013,-3.83972,0.179709,-0.0496725,0.0
29951038,-3.83972,0.17974,-0.0496807,0.0
29983074,-3.83972,0.179772,-0.0496895,0.0
30014998,-3.83972,0.179761,-0.0496863,0.0
30048606,-3.83972,0.179837,-0.049707,0.0
30080663,-3.83972,0.179709,-0.0496722,0.0
30112642,-3.83972,0.179715,-0.0496737,0.0
30144696,-3.83972,0.179761,-0.0496861,0.0
30176612,-3.83972,0.179639,-0.0496527,0.0
30208623,-3.83972,0.179603,-0.0496426,0.0
30240656,-3.83972,0.179579,-0.049636,0.0
30272608,-3.83972,0.179254,-0.0495462,0.0
30304592,-3.83972,0.179224,-0.0495378,0.0
30332672,-3.83972,0.17904,-0.0494874,0.0
30364591,-3.83972,0.178824,-0.0494279,0.0
30396623,-3.83972,0.178773,-0.0494141,0.0
30428620,-3.83972,0.17892,-0.0494543,0.0
30460676,-3.83972,0.179093,-0.0495022,0.0
30492608,-3.83972,0.179123,-0.0495106,0.0
30524608,-3.83972,0.178936,-0.0494598,0.0
30556660,-3.83972,0.179042,-0.0494877,0.0
30584654,-3.83972,0.178963,-0.0494663,0.0
30616656,-3.83972,0.178839,-0.0494327,0.0
30648665,-3.83972,0.178726,-0.0494016,0.0
30681420,-3.83972,0.178575,-0.0493599,0.0
30713415,-3.83972,0.17841,-0.0493141,0.0
30745445,-3.83972,0.178303,-0.049285,0.0
30773406,-3.83972,0.178296,-0.0492828,0.0
30805442,-3.83972,0.178228,-0.0492644,0.0
30837472,-3.83972,0.177929,-0.0491814,0.0
30869406,-3.83972,0.177878,-0.0491676,0.0
30901373,-3.83972,0.177917,-0.0491778,0.0
30933402,-3.83972,0.178066,-0.0492195,0.0
30965402,-3.83972,0.178082,-0.0492237,0.0
30997448,-3.83972,0.178234,-0.0492655,0.0
31025435,-3.83972,0.178254,-0.0492709,0.0
31057442,-3.83972,0.178322,-0.0492896,0.0
31089402,-3.83972,0.178407,-0.0493134,0.0
31121430,-3.83972,0.178408,-0.0493133,0.0
31153454,-3.83972,0.178218,-0.0492609,0.0
31185416,-3.83972,0.177935,-0.0491828,0.0
31217436,-3.83972,0.177973,-0.0491937,0.0
31249469,-3.83972,0.177865,-0.0491639,0.0
31281452,-3.83972,0.177908,-0.0491755,0.0
31313447,-3.83972,0.178062,-0.0492179,0.0
31345397,-3.83972,0.178093,-0.049226,0.0
31378976,-3.83972,0.178191,-0.0492531,0.0
31411017,-3.83972,0.178269,-0.0492749,0.0
31443005,-3.83972,0.178434,-0.0493203,0.0
31475015,-3.83972,0.178383,-0.0493062,0.0
31507014,-3.83972,0.178268,-0.0492743,0.0
31539066,-3.83972,0.178232,-0.0492644,0.0
31571038,-3.83972,0.178057,-0.049216,0.0
31603000,-3.83972,0.178026,-0.0492075,0.0
31631071,-3.83972,0.177986,-0.0491967,0.0
31663037,-3.83972,0.177839,-0.0491564,0.0
31695001,-3.83972,0.177709,-0.0491208,0.0
31727803,-3.83972,0.177639,-0.0491014,0.0
31759897,-3.83972,0.177703,-0.0491195,0.0
31791794,-3.83972,0.177594,-0.0490901,0.0
31823859,-3.83972,0.177523,-0.0490698,0.0
31851803,-3.83972,0.177533,-0.0490723,0.0
31883788,-3.83972,0.177337,-0.0490187,0.0
31915824,-3.83972,0.177314,-0.0490124,0.0
31947838,-3.83972,0.177451,-0.0490503,0.0
31979820,-3.83972,0.177683,-0.0491147,0.0
32011804,-3.83972,0.177894,-0.0491732,0.0
32043818,-3.83972,0.178115,-0.0492341,0.0
32075884,-3.83972,0.178043,-0.0492139,0.0
32103847,-3.83972,0.177989,-0.0491989,0.0
32135827,-3.83972,0.177924,-0.049181,0.0
32167798,-3.83972,0.177965,-0.0491927,0.0
32199868,-3.83972,0.177851,-0.0491607,0.0
32231820,-3.83972,0.177808,-0.0491493,0.0
32263851,-3.83972,0.177738,-0.0491299,0.0
32295812,-3.83972,0.177622,-0.0490976,0.0
32327867,-3.83972,0.177532,-0.0490723,0.0
32355816,-3.83972,0.177523,-0.0490694,0.0
32387808,-3.83972,0.177536,-0.049073,0.0
32419911,-3.83972,0.177398,-0.0490347,0.0
32451845,-3.83972,0.177162,-0.0489698,0.0
32483802,-3.83972,0.177069,-0.0489439,0.0
32515821,-3.83972,0.176961,-0.048914,0.0
32547841,-3.83972,0.176871,-0.048889,0.0
32581441,-3.83972,0.176849,-0.0488826,0.0
32613453,-3.83972,0.177,-0.0489243,0.0
32645401,-3.83972,0.177165,-0.0489697,0.0
32677482,-3.83972,0.177195,-0.0489783,0.0
32705397,-3.83972,0.177168,-0.0489704,0.0
32737467,-3.83972,0.176894,-0.0488947,0.0
32769458,-3.83972,0.17698,-0.0489182,0.0
32801445,-3.83972,0.176889,-0.0488931,0.0
32833397,-3.83972,0.17702,-0.048929,0.0
32865463,-3.83972,0.17699,-0.048921,0.0
32897490,-3.83972,0.176971,-0.0489157,0.0
32926256,-3.83972,0.177236,-0.048989,0.0
32958233,-3.83972,0.177248,-0.0489919,0.0
32990272,-3.83972,0.177143,-0.0489629,0.0
33022181,-3.83972,0.177247,-0.0489914,0.0
33054223,-3.83972,0.177253,-0.0489933,0.0
33086240,-3.83972,0.177347,-0.0490192,0.0
33118270,-3.83972,0.177478,-0.0490554,0.0
33150213,-3.83972,0.177655,-0.0491038,0.0
33182208,-3.83972,0.177442,-0.0490444,0.0
33214240,-3.83972,0.177502,-0.0490608,0.0
33246258,-3.83972,0.17757,-0.0490794,0.0
33278213,-3.83972,0.177497,-0.0490596,0.0
33310215,-3.83972,0.17759,-0.0490853,0.0
33342255,-3.83972,0.177526,-0.0490673,0.0
33374253,-3.83972,0.177438,-0.0490431,0.0
33406237,-3.83972,0.177431,-0.0490411,0.0
33438230,-3.83972,0.177457,-0.0490488,0.0
33470278,-3.83972,0.177566,-0.049079,0.0
33502257,-3.83972,0.177732,-0.049125,0.0
33534254,-3.83972,0.177853,-0.0491585,0.0
33566209,-3.83972,0.177893,-0.0491697,0.0
33598293,-3.83972,0.177981,-0.0491939,0.0
33630242,-3.83972,0.178104,-0.0492277,0.0
33662251,-3.83972,0.178085,-0.0492218,0.0
33694215,-3.83972,0.178063,-0.0492155,0.0
33726288,-3.83972,0.178038,-0.0492083,0.0
33758231,-3.83972,0.178171,-0.049245,0.0
33790178,-3.83972,0.178225,-0.04926,0.0
33819931,-3.83972,0.178115,-0.0492296,0.0
33851843,-3.83972,0.178078,-0.0492203,0.0
33883845,-3.83972,0.178176,-0.0492475,0.0
33915808,-3.83972,0.17808,-0.049221,0.0
33947873,-3.83972,0.178153,-0.0492408,0.0
33979899,-3.83972,0.177957,-0.0491871,0.0
34007876,-3.83972,0.178066,-0.0492173,0.0
34039880,-3.83972,0.178218,-0.0492589,0.0
34071837,-3.83972,0.17823,-0.0492622,0.0
34103799,-3.83972,0.178128,-0.0492343,0.0
34135880,-3.83972,0.178226,-0.0492612,0.0
34167862,-3.83972,0.17827,-0.0492732,0.0
34199887,-3.83972,0.17807,-0.0492181,0.0
34231794,-3.83972,0.177892,-0.0491691,0.0
34259891,-3.83972,0.177702,-0.0491169,0.0
34292603,-3.83972,0.17773,-0.0491242,0.0
34324642,-3.83972,0.177902,-0.0491716,0.0
34356651,-3.83972,0.178028,-0.0492066,0.0
34388601,-3.83972,0.177984,-0.0491945,0.0
34420615,-3.83972,0.177821,-0.0491494,0.0
34448646,-3.83972,0.177831,-0.0491522,0.0
34480605,-3.83972,0.177856,-0.0491593,0.0
34512694,-3.83972,0.177907,-0.0491734,0.0
34544649,-3.83972,0.177779,-0.0491381,0.0
34576620,-3.83972,0.177628,-0.0490959,0.0
34608615,-3.83972,0.177751,-0.0491301,0.0
34640640,-3.83972,0.177885,-0.0491666,0.0
34672653,-3.83972,0.177638,-0.0490991,0.0
34704628,-3.83972,0.177664,-0.0491057,0.0
34736608,-3.83972,0.17778,-0.0491381,0.0
34768644,-3.83972,0.177775,-0.0491367,0.0
34800649,-3.83972,0.177538,-0.0490711,0.0
34832578,-3.83972,0.177588,-0.0490854,0.0
34864638,-3.83972,0.177772,-0.049136,0.0
34894207,-3.83972,0.17792,-0.049177,0.0
34926214,-3.83972,0.177872,-0.0491634,0.0
34958214,-3.83972,0.177925,-0.0491785,0.0
34990246,-3.83972,0.177918,-0.0491768,0.0
35022262,-3.83972,0.177795,-0.0491426,0.0
35054216,-3.83972,0.17757,-0.0490806,0.0
35082214,-3.83972,0.177529,-0.0490689,0.0
35114201,-3.83972,0.177552,-0.0490752,0.0
35146240,-3.83972,0.177441,-0.0490449,0.0
35178231,-3.83972,0.177621,-0.0490945,0.0
35210208,-3.83972,0.177492,-0.0490587,0.0
35242212,-3.83972,0.177358,-0.0490216,0.0
35274250,-3.83972,0.177303,-0.0490064,0.0
35306216,-3.83972,0.177463,-0.0490507,0.0
35338181,-3.83972,0.177508,-0.0490631,0.0
35370176,-3.83972,0.177502,-0.0490617,0.0
35402200,-3.83972,0.177443,-0.0490454,0.0
35434255,-3.83972,0.177538,-0.049072,0.0
35466294,-3.83972,0.177545,-0.0490734,0.0
35498203,-3.83972,0.177531,-0.0490698,0.0
35530261,-3.83972,0.177407,-0.0490357,0.0
35562239,-3.83972,0.177182,-0.0489732,0.0
35594302,-3.83972,0.177293,-0.0490042,0.0
35626997,-3.83972,0.177431,-0.0490423,0.0
35659866,-3.83972,0.177348,-0.0490193,0.0
35691844,-3.83972,0.177435,-0.0490429,0.0
35723826,-3.83972,0.177521,-0.0490667,0.0
35755773,-3.83972,0.177493,-0.0490587,0.0
35787783,-3.83972,0.17761,-0.0490908,0.0
35819827,-3.83972,0.177594,-0.0490865,0.0
35849453,-3.83972,0.177655,-0.0491031,0.0
35881404,-3.83972,0.177479,-0.0490545,0.0
35913475,-3.83972,0.177581,-0.0490822,0.0
35945451,-3.83972,0.177804,-0.0491435,0.0
35977502,-3.83972,0.177813,-0.0491459,0.0
36009397,-3.83972,0.177844,-0.049155,0.0
36037480,-3.83972,0.177826,-0.0491494,0.0
36069435,-3.83972,0.177903,-0.0491704,0.0
36101449,-3.83972,0.177761,-0.0491306,0.0
36134217,-3.83972,0.178059,-0.0492131,0.0
36166180,-3.83972,0.178146,-0.0492372,0.0
36198202,-3.83972,0.178086,-0.0492203,0.0
36230213,-3.83972,0.178026,-0.0492034,0.0
36262256,-3.83972,0.178019,-0.0492012,0.0
36295053,-3.83972,0.177753,-0.049127,0.0
36327048,-3.83972,0.177694,-0.0491109,0.0
36359000,-3.83972,0.17784,-0.0491504,0.0
36391070,-3.83972,0.177791,-0.0491369,0.0
36418997,-3.83972,0.177699,-0.0491114,0.0
36451094,-3.83972,0.177705,-0.0491135,0.0
36484647,-3.83972,0.17763,-0.0490928,0.0
36516632,-3.83972,0.177579,-0.0490782,0.0
36548633,-3.83972,0.177709,-0.0491145,0.0
36577475,-3.83972,0.177584,-0.0490796,0.0
36609411,-3.83972,0.177646,-0.049097,0.0
36641404,-3.83972,0.177545,-0.049069,0.0
36673402,-3.83972,0.177677,-0.0491057,0.0
36705452,-3.83972,0.177822,-0.0491449,0.0
36737445,-3.83972,0.177974,-0.0491864,0.0
36769401,-3.83972,0.177952,-0.0491808,0.0
36797476,-3.83972,0.177881,-0.0491609,0.0
36829397,-3.83972,0.177808,-0.0491412,0.0
36861487,-3.83972,0.177758,-0.0491278,0.0
36893446,-3.83972,0.177751,-0.0491258,0.0
36925432,-3.83972,0.177711,-0.0491146,0.0
36958251,-3.83972,0.17777,-0.0491312,0.0
36986207,-3.83972,0.177813,-0.0491431,0.0
37018216,-3.83972,0.177684,-0.0491067,0.0
37050207,-3.83972,0.177827,-0.0491465,0.0
37082263,-3.83972,0.177973,-0.0491868,0.0
37114202,-3.83972,0.178198,-0.0492492,0.0
37146256,-3.83972,0.178172,-0.0492423,0.0
37178210,-3.83972,0.178246,-0.0492628,0.0
37210273,-3.83972,0.178174,-0.0492433,0.0
37242209,-3.83972,0.178084,-0.0492185,0.0
37274242,-3.83972,0.177885,-0.0491636,0.0
37306245,-3.83972,0.177798,-0.0491398,0.0
37338297,-3.83972,0.177878,-0.0491617,0.0
37367839,-3.83972,0.177596,-0.0490839,0.0
37399874,-3.83972,0.177425,-0.0490371,0.0
37431867,-3.83972,0.177619,-0.0490907,0.0
37463811,-3.83972,0.177643,-0.049097,0.0
37495860,-3.83972,0.177562,-0.0490747,0.0
37527823,-3.83972,0.177676,-0.0491061,0.0
37559935,-3.83972,0.177553,-0.0490724,0.0
37591810,-3.83972,0.177627,-0.0490926,0.0
37620666,-3.83972,0.17765,-0.0490993,0.0
37652607,-3.83972,0.177526,-0.0490646,0.0
37684618,-3.83972,0.177299,-0.0490027,0.0
37716654,-3.83972,0.177419,-0.0490359,0.0
37748640,-3.83972,0.177395,-0.0490293,0.0
37780616,-3.83972,0.177277,-0.0489963,0.0
37808676,-3.83972,0.17715,-0.0489613,0.0
37840606,-3.83972,0.177046,-0.0489325,0.0
37872622,-3.83972,0.177203,-0.0489759,0.0
37904620,-3.83972,0.177448,-0.049043,0.0
37936620,-3.83972,0.177625,-0.0490922,0.0
37968578,-3.83972,0.17757,-0.0490771,0.0
38000579,-3.83972,0.177561,-0.0490745,0.0
38032637,-3.83972,0.177815,-0.0491449,0.0
38061404,-3.83972,0.17816,-0.0492402,0.0
38094997,-3.83972,0.178227,-0.0492582,0.0
38127071,-3.83972,0.178229,-0.0492595,0.0
38154973,-3.83972,0.178211,-0.0492545,0.0
38187014,-3.83972,0.178298,-0.0492785,0.0
38219023,-3.83972,0.178261,-0.0492682,0.0
38250980,-3.83972,0.178249,-0.0492646,0.0
38282975,-3.83972,0.178208,-0.0492528,0.0
38315865,-3.83972,0.178238,-0.0492615,0.0
38347861,-3.83972,0.178282,-0.0492735,0.0
38375891,-3.83972,0.178248,-0.0492637,0.0
38407837,-3.83972,0.178295,-0.0492768,0.0
38439890,-3.83972,0.178399,-0.049306,0.0
38469411,-3.83972,0.178311,-0.0492812,0.0
38502240,-3.83972,0.178144,-0.0492352,0.0
38534244,-3.83972,0.178128,-0.0492304,0.0
38566213,-3.83972,0.178203,-0.0492507,0.0
38598294,-3.83972,0.178333,-0.0492864,0.0
38630234,-3.83972,0.17819,-0.049247,0.0
38662254,-3.83972,0.178369,-0.0492965,0.0
38694218,-3.83972,0.178282,-0.0492721,0.0
38722245,-3.83972,0.17847,-0.0493235,0.0
38754178,-3.83972,0.178419,-0.0493091,0.0
38786272,-3.83972,0.178522,-0.0493373,0.0
38818258,-3.83972,0.178486,-0.0493273,0.0
38850250,-3.83972,0.178556,-0.0493463,0.0
38882206,-3.83972,0.178411,-0.049306,0.0
38914269,-3.83972,0.178406,-0.0493049,0.0
38946256,-3.83972,0.178353,-0.0492899,0.0
38974284,-3.83972,0.178504,-0.0493324,0.0
39006257,-3.83972,0.17851,-0.0493336,0.0
39038246,-3.83972,0.178451,-0.0493172,0.0
39070237,-3.83972,0.178509,-0.0493331,0.0
39102249,-3.83972,0.178571,-0.0493502,0.0
39134210,-3.83972,0.178482,-0.0493253,0.0
39166176,-3.83972,0.178606,-0.0493593,0.0
39198185,-3.83972,0.178703,-0.0493861,0.0
39226247,-3.83972,0.178698,-0.049385,0.0
39258202,-3.83972,0.178845,-0.0494258,0.0
39290258,-3.83972,0.178849,-0.0494261,0.0
39322201,-3.83972,0.178876,-0.049434,0.0
39354243,-3.83972,0.17891,-0.0494434,0.0
39386206,-3.83972,0.178949,-0.0494547,0.0
39418301,-3.83972,0.179204,-0.0495244,0.0
39450257,-3.83972,0.179153,-0.0495102,0.0
39478272,-3.83972,0.179219,-0.0495279,0.0
39510205,-3.83972,0.179146,-0.0495079,0.0
39542242,-3.83972,0.179122,-0.0495016,0.0
39574229,-3.83972,0.179314,-0.0495545,0.0
39606293,-3.83972,0.179434,-0.0495873,0.0
39638200,-3.83972,0.179436,-0.0495877,0.0
39670262,-3.83972,0.179299,-0.0495496,0.0
39702215,-3.83972,0.179345,-0.0495622,0.0
39730249,-3.83972,0.179234,-0.0495312,0.0
39762209,-3.83972,0.179179,-0.0495158,0.0
39794268,-3.83972,0.179068,-0.0494854,0.0
39826185,-3.83972,0.179237,-0.0495321,0.0
39858227,-3.83972,0.179308,-0.0495517,0.0
39890219,-3.83972,0.179191,-0.0495192,0.0
39919021,-3.83972,0.17925,-0.0495357,0.0
39951011,-3.83972,0.179276,-0.0495434,0.0
39983036,-3.83972,0.179328,-0.0495576,0.0
40015894,-3.83972,0.179302,-0.0495501,0.0
40048610,-3.83972,0.179257,-0.0495375,0.0
40076696,-3.83972,0.179381,-0.049572,0.0
40108601,-3.83972,0.179367,-0.0495679,0.0
40140626,-3.83972,0.179667,-0.049651,0.0
40172616,-3.83972,0.179482,-0.0495998,0.0
40204632,-3.83972,0.179325,-0.0495565,0.0
40236581,-3.83972,0.179589,-0.0496292,0.0
40268614,-3.83972,0.179826,-0.0496946,0.0
40300663,-3.83972,0.179765,-0.049678,0.0
40328663,-3.83972,0.179786,-0.0496838,0.0
40361454,-3.83972,0.17984,-0.0496987,0.0
40393462,-3.83972,0.179771,-0.0496799,0.0
40425509,-3.83972,0.179635,-0.0496425,0.0
40457451,-3.83972,0.179436,-0.0495875,0.0
40489469,-3.83972,0.179315,-0.0495535,0.0
40517445,-3.83972,0.179475,-0.0495979,0.0
40549453,-3.83972,0.179309,-0.0495522,0.0
40581437,-3.83972,0.179163,-0.0495116,0.0
40613410,-3.83972,0.179106,-0.0494961,0.0
40645397,-3.83972,0.179155,-0.0495098,0.0
40677481,-3.83972,0.179184,-0.0495177,0.0
40709430,-3.83972,0.179329,-0.0495574,0.0
40741541,-3.83972,0.179358,-0.0495655,0.0
40771043,-3.83972,0.1793,-0.0495489,0.0
40803836,-3.83972,0.179304,-0.0495498,0.0
40835837,-3.83972,0.179307,-0.0495506,0.0
40867808,-3.83972,0.179312,-0.0495517,0.0
40895853,-3.83972,0.179305,-0.0495503,0.0
40927803,-3.83972,0.179344,-0.0495606,0.0
40959919,-3.83972,0.17906,-0.0494828,0.0
40991860,-3.83972,0.179039,-0.0494772,0.0
41023827,-3.83972,0.179019,-0.0494715,0.0
41055773,-3.83972,0.179313,-0.0495531,0.0
41083773,-3.83972,0.179332,-0.0495576,0.0
41116608,-3.83972,0.179081,-0.0494886,0.0
41148684,-3.83972,0.179332,-0.0495585,0.0
41180660,-3.83972,0.179627,-0.0496401,0.0
41212619,-3.83972,0.179583,-0.0496279,0.0
41244611,-3.83972,0.179735,-0.0496701,0.0
41276655,-3.83972,0.179892,-0.0497136,0.0
41308653,-3.83972,0.179853,-0.0497025,0.0
41336695,-3.83972,0.179844,-0.0496998,0.0
41368669,-3.83972,0.179748,-0.0496733,0.0
41402218,-3.83972,0.179743,-0.0496717,0.0
41434231,-3.83972,0.179833,-0.0496968,0.0
41466201,-3.83972,0.179727,-0.0496675,0.0
41494262,-3.83972,0.179797,-0.0496869,0.0
41526220,-3.83972,0.179923,-0.0497218,0.0
41558254,-3.83972,0.179956,-0.0497311,0.0
41590231,-3.83972,0.179846,-0.0497004,0.0
41622251,-3.83972,0.180015,-0.0497469,0.0
41654207,-3.83972,0.18016,-0.0497872,0.0
41686288,-3.83972,0.180008,-0.049745,0.0
41718257,-3.83972,0.180076,-0.0497638,0.0
41746296,-3.83972,0.180087,-0.0497663,0.0
41778201,-3.83972,0.180088,-0.0497665,0.0
41810243,-3.83972,0.18011,-0.0497729,0.0
41842212,-3.83972,0.180117,-0.0497746,0.0
41874259,-3.83972,0.180006,-0.0497439,0.0
41906212,-3.83972,0.180003,-0.0497428,0.0
41938253,-3.83972,0.180055,-0.0497574,0.0
41970214,-3.83972,0.180131,-0.049778,0.0
41998249,-3.83972,0.180238,-0.0498075,0.0
42030234,-3.83972,0.180251,-0.0498112,0.0
42062267,-3.83972,0.180397,-0.0498512,0.0
42094181,-3.83972,0.180476,-0.0498727,0.0
42126221,-3.83972,0.180521,-0.0498853,0.0
42158197,-3.83972,0.18039,-0.0498488,0.0
42190232,-3.83972,0.180569,-0.0498985,0.0
42219010,-3.83972,0.180501,-0.0498794,0.0
42251049,-3.83972,0.180346,-0.0498364,0.0
42282997,-3.83972,0.180331,-0.0498324,0.0
42314999,-3.83972,0.180361,-0.0498407,0.0
42346999,-3.83972,0.180414,-0.0498551,0.0
42379028,-3.83972,0.180305,-0.0498252,0.0
42410993,-3.83972,0.180434,-0.0498607,0.0
42443021,-3.83972,0.180335,-0.0498336,0.0
42475018,-3.83972,0.180249,-0.0498094,0.0
42507045,-3.83972,0.180242,-0.049808,0.0
42539086,-3.83972,0.180066,-0.0497591,0.0
42571003,-3.83972,0.180146,-0.0497815,0.0
42603053,-3.83972,0.180033,-0.0497503,0.0
42635048,-3.83972,0.179954,-0.049729,0.0
42663047,-3.83972,0.179966,-0.0497322,0.0
42695012,-3.83972,0.179903,-0.0497147,0.0
42729455,-3.83972,0.179957,-0.0497299,0.0
42757492,-3.83972,0.179868,-0.0497053,0.0
42789453,-3.83972,0.179816,-0.0496902,0.0
42821476,-3.83972,0.179897,-0.0497129,0.0
42853407,-3.83972,0.180017,-0.0497465,0.0
42885445,-3.83972,0.180041,-0.0497531,0.0
42917472,-3.83972,0.180245,-0.0498096,0.0
42949490,-3.83972,0.180095,-0.0497682,0.0
42981382,-3.83972,0.180057,-0.0497576,0.0
43013445,-3.83972,0.179931,-0.0497233,0.0
43045404,-3.83972,0.179973,-0.0497348,0.0
43077376,-3.83972,0.180343,-0.049837,0.0
43109381,-3.83972,0.180413,-0.0498564,0.0
43141405,-3.83972,0.180371,-0.0498445,0.0
43173479,-3.83972,0.180082,-0.0497651,0.0
43205452,-3.83972,0.18014,-0.0497812,0.0
43237448,-3.83972,0.18012,-0.0497754,0.0
43269400,-3.83972,0.180149,-0.0497834,0.0
43301463,-3.83972,0.180048,-0.0497553,0.0
43333453,-3.83972,0.1802,-0.0497975,0.0
43366230,-3.83972,0.180299,-0.049825,0.0
43398226,-3.83972,0.180105,-0.0497714,0.0
43430205,-3.83972,0.180064,-0.0497598,0.0
43462243,-3.83972,0.179988,-0.0497385,0.0
43494202,-3.83972,0.179942,-0.0497258,0.0
43526202,-3.83972,0.180106,-0.0497706,0.0
43558215,-3.83972,0.180115,-0.0497729,0.0
43590218,-3.83972,0.18012,-0.0497741,0.0
43622257,-3.83972,0.18026,-0.0498124,0.0
43650237,-3.83972,0.180428,-0.0498589,0.0
43682176,-3.83972,0.180409,-0.0498532,0.0
43714198,-3.83972,0.180575,-0.0498991,0.0
43746243,-3.83972,0.180484,-0.0498741,0.0
43778240,-3.83972,0.180425,-0.0498576,0.0
43810203,-3.83972,0.180247,-0.0498083,0.0
43842208,-3.83972,0.180375,-0.0498437,0.0
43874235,-3.83972,0.180319,-0.0498277,0.0
43902224,-3.83972,0.180331,-0.049831,0.0
43935799,-3.83972,0.180304,-0.0498236,0.0
43967890,-3.83972,0.180076,-0.0497609,0.0
43999889,-3.83972,0.180165,-0.0497856,0.0
44031784,-3.83972,0.18038,-0.0498448,0.0
44059909,-3.83972,0.180395,-0.0498491,0.0
44091818,-3.83972,0.180245,-0.0498078,0.0
44123773,-3.83972,0.180392,-0.0498484,0.0
44155858,-3.83972,0.180396,-0.0498496,0.0
44187872,-3.83972,0.180246,-0.0498085,0.0
44219883,-3.83972,0.180429,-0.0498588,0.0
44251805,-3.83972,0.18033,-0.0498317,0.0
44283835,-3.83972,0.180022,-0.0497461,0.0
44311819,-3.83972,0.180024,-0.0497465,0.0
44343864,-3.83972,0.180326,-0.0498294,0.0
44375806,-3.83972,0.180443,-0.0498617,0.0
44407848,-3.83972,0.180367,-0.049841,0.0
44439894,-3.83972,0.180488,-0.049874,0.0
44471902,-3.83972,0.180461,-0.0498663,0.0
44503803,-3.83972,0.180492,-0.0498746,0.0
44535809,-3.83972,0.180402,-0.0498499,0.0
44567795,-3.83972,0.1806,-0.0499046,0.0
44599895,-3.83972,0.180565,-0.0498945,0.0
44631799,-3.83972,0.180255,-0.0498089,0.0
44663802,-3.83972,0.180326,-0.0498283,0.0
44695827,-3.83972,0.180176,-0.0497867,0.0
44727837,-3.83972,0.180041,-0.0497497,0.0
44759952,-3.83972,0.179812,-0.0496866,0.0
44787837,-3.83972,0.179797,-0.0496827,0.0
44819817,-3.83972,0.179752,-0.0496705,0.0
44851792,-3.83972,0.179853,-0.049698,0.0
44883818,-3.83972,0.179894,-0.0497092,0.0
44915812,-3.83972,0.179972,-0.0497309,0.0
44947815,-3.83972,0.179954,-0.0497257,0.0
44979841,-3.83972,0.180028,-0.0497458,0.0
45011829,-3.83972,0.179991,-0.0497354,0.0
45039863,-3.83972,0.179931,-0.0497192,0.0
45071829,-3.83972,0.179961,-0.0497273,0.0
45103844,-3.83972,0.180169,-0.0497851,0.0
45135805,-3.83972,0.180249,-0.0498071,0.0
45168632,-3.83972,0.180321,-0.0498269,0.0
45200672,-3.83972,0.180426,-0.049856,0.0
45228633,-3.83972,0.180503,-0.0498769,0.0
45260662,-3.83972,0.180512,-0.0498795,0.0
45294272,-3.83972,0.180349,-0.0498348,0.0
45326239,-3.83972,0.18026,-0.0498105,0.0
45358283,-3.83972,0.180131,-0.0497745,0.0
45386245,-3.83972,0.180262,-0.0498108,0.0
45418232,-3.83972,0.180242,-0.0498052,0.0
45450210,-3.83972,0.180252,-0.049808,0.0
45482259,-3.83972,0.18043,-0.0498574,0.0
45514265,-3.83972,0.180617,-0.0499092,0.0
45546265,-3.83972,0.180623,-0.0499109,0.0
45578217,-3.83972,0.180656,-0.04992,0.0
45607035,-3.83972,0.180537,-0.0498875,0.0
45638997,-3.83972,0.180333,-0.0498308,0.0
45671058,-3.83972,0.180227,-0.0498018,0.0
45703000,-3.83972,0.180217,-0.0497991,0.0
45735035,-3.83972,0.180251,-0.0498082,0.0
45766975,-3.83972,0.180263,-0.0498111,0.0
45799014,-3.83972,0.180067,-0.0497571,0.0
45826999,-3.83972,0.18039,-0.0498465,0.0
45859043,-3.83972,0.180416,-0.0498536,0.0
45891035,-3.83972,0.180468,-0.0498679,0.0
45923056,-3.83972,0.180406,-0.0498511,0.0
45955003,-3.83972,0.180189,-0.0497908,0.0
45987041,-3.83972,0.180413,-0.0498526,0.0
46019043,-3.83972,0.180262,-0.049811,0.0
46050996,-3.83972,0.180118,-0.0497714,0.0
46079056,-3.83972,0.18018,-0.0497884,0.0
46111035,-3.83972,0.180236,-0.049804,0.0
46143007,-3.83972,0.180364,-0.0498394,0.0
46175064,-3.83972,0.180302,-0.0498219,0.0
46208665,-3.83972,0.179966,-0.0497288,0.0
46236621,-3.83972,0.180165,-0.0497835,0.0
46268643,-3.83972,0.180286,-0.0498172,0.0
46300579,-3.83972,0.180294,-0.049819,0.0
46332658,-3.83972,0.180124,-0.0497721,0.0
46364601,-3.83972,0.180413,-0.0498517,0.0
46396694,-3.83972,0.179884,-0.0497057,0.0
46428682,-3.83972,0.179837,-0.0496919,0.0
46460646,-3.83972,0.17986,-0.0496984,0.0
46488631,-3.83972,0.180045,-0.0497493,0.0
46520637,-3.83972,0.180022,-0.0497431,0.0
46552632,-3.83972,0.180023,-0.0497435,0.0
46584689,-3.83972,0.180054,-0.0497525,0.0
46616608,-3.83972,0.179964,-0.0497276,0.0
46648639,-3.83972,0.179848,-0.0496956,0.0
46680615,-3.83972,0.179814,-0.0496865,0.0
46712682,-3.83972,0.179925,-0.0497173,0.0
46740624,-3.83972,0.179991,-0.0497349,0.0
46772672,-3.83972,0.179914,-0.0497135,0.0
46804605,-3.83972,0.179867,-0.0497001,0.0
46836655,-3.83972,0.179936,-0.0497193,0.0
46868659,-3.83972,0.179955,-0.0497242,0.0
46900659,-3.83972,0.179899,-0.0497085,0.0
46932588,-3.83972,0.179752,-0.0496678,0.0
46964642,-3.83972,0.179616,-0.0496306,0.0
46996620,-3.83972,0.179798,-0.049681,0.0
47028673,-3.83972,0.179725,-0.0496603,0.0
47061455,-3.83972,0.179518,-0.0496036,0.0
47093469,-3.83972,0.179599,-0.0496253,0.0
47125442,-3.83972,0.179498,-0.0495978,0.0
47158226,-3.83972,0.179608,-0.0496283,0.0
47190235,-3.83972,0.179613,-0.0496296,0.0
47222217,-3.83972,0.179632,-0.049635,0.0
47251848,-3.83972,0.179689,-0.0496509,0.0
47283886,-3.83972,0.179732,-0.049663,0.0
47315806,-3.83972,0.179759,-0.0496704,0.0
47347846,-3.83972,0.179646,-0.049639,0.0
47380648,-3.83972,0.179651,-0.0496406,0.0
47412638,-3.83972,0.179568,-0.0496179,0.0
47440662,-3.83972,0.179672,-0.0496467,0.0
47472662,-3.83972,0.179716,-0.0496587,0.0
47504620,-3.83972,0.179977,-0.0497312,0.0
47536604,-3.83972,0.17994,-0.0497207,0.0
47568614,-3.83972,0.180046,-0.0497504,0.0
47600677,-3.83972,0.179935,-0.0497199,0.0
47632599,-3.83972,0.179778,-0.0496763,0.0
47664590,-3.83972,0.179963,-0.0497275,0.0
47696651,-3.83972,0.179974,-0.0497311,0.0
47728623,-3.83972,0.180072,-0.0497584,0.0
47760621,-3.83972,0.180166,-0.0497845,0.0
47792614,-3.83972,0.180221,-0.0497998,0.0
47824690,-3.83972,0.179865,-0.0497011,0.0
47856634,-3.83972,0.17969,-0.049653,0.0
47888694,-3.83972,0.179647,-0.0496407,0.0
47920611,-3.83972,0.179559,-0.0496166,0.0
47952657,-3.83972,0.17966,-0.0496449,0.0
47984642,-3.83972,0.179727,-0.0496633,0.0
48016625,-3.83972,0.179885,-0.049707,0.0
48048608,-3.83972,0.179675,-0.049649,0.0
48080616,-3.83972,0.179549,-0.0496137,0.0
48112676,-3.83972,0.179492,-0.0495982,0.0
48144695,-3.83972,0.179538,-0.0496109,0.0
48176620,-3.83972,0.179272,-0.0495379,0.0
48208619,-3.83972,0.179197,-0.0495174,0.0
48240675,-3.83972,0.179327,-0.0495533,0.0
48272662,-3.83972,0.179089,-0.0494875,0.0
48304629,-3.83972,0.179174,-0.049511,0.0
48336636,-3.83972,0.179056,-0.0494783,0.0
48370212,-3.83972,0.179022,-0.0494684,0.0
48402284,-3.83972,0.179178,-0.0495117,0.0
48434240,-3.83972,0.179181,-0.0495127,0.0
48466256,-3.83972,0.179217,-0.0495225,0.0
48498210,-3.83972,0.179255,-0.0495333,0.0
48530284,-3.83972,0.179121,-0.0494958,0.0
48562251,-3.83972,0.179051,-0.0494765,0.0
48594251,-3.83972,0.179024,-0.0494696,0.0
48627025,-3.83972,0.17895,-0.0494493,0.0
48655017,-3.83972,0.17888,-0.0494296,0.0
48686977,-3.83972,0.178681,-0.0493747,0.0
48718981,-3.83972,0.178566,-0.0493433,0.0
48751023,-3.83972,0.178759,-0.0493969,0.0
48782973,-3.83972,0.178729,-0.0493886,0.0
48815013,-3.83972,0.178529,-0.0493329,0.0
48847010,-3.83972,0.178323,-0.049276,0.0
48879065,-3.83972,0.17833,-0.0492777,0.0
48911004,-3.83972,0.178261,-0.0492593,0.0
48939050,-3.83972,0.178453,-0.0493109,0.0
48971000,-3.83972,0.178197,-0.0492408,0.0
49003008,-3.83972,0.178207,-0.0492437,0.0
49035064,-3.83972,0.17796,-0.0491758,0.0
49067051,-3.83972,0.177906,-0.0491612,0.0
49099026,-3.83972,0.178082,-0.0492098,0.0
49131015,-3.83972,0.178321,-0.0492762,0.0
49159017,-3.83972,0.178296,-0.049269,0.0
49191011,-3.83972,0.178384,-0.0492934,0.0
49223031,-3.83972,0.178465,-0.049316,0.0
49255042,-3.83972,0.178428,-0.0493051,0.0
49286986,-3.83972,0.17839,-0.0492951,0.0
49319032,-3.83972,0.178688,-0.0493776,0.0
49351038,-3.83972,0.178663,-0.0493708,0.0
49383057,-3.83972,0.178662,-0.0493699,0.0
49411059,-3.83972,0.178512,-0.0493286,0.0
49442982,-3.83972,0.178664,-0.0493707,0.0
49474972,-3.83972,0.178725,-0.0493876,0.0
49506991,-3.83972,0.178646,-0.0493659,0.0
49539037,-3.83972,0.178622,-0.0493595,0.0
49571012,-3.83972,0.17856,-0.0493426,0.0
49603008,-3.83972,0.178643,-0.0493657,0.0
49635032,-3.83972,0.178627,-0.0493611,0.0
49663019,-3.83972,0.178675,-0.0493737,0.0
49695042,-3.83972,0.178617,-0.0493577,0.0
49727044,-3.83972,0.178719,-0.049386,0.0
49759011,-3.83972,0.178485,-0.0493211,0.0
49792607,-3.83972,0.178187,-0.049239,0.0
49820678,-3.83972,0.178372,-0.04929,0.0
49852617,-3.83972,0.178248,-0.0492564,0.0
49884579,-3.83972,0.178473,-0.0493179,0.0
49916632,-3.83972,0.17834,-0.0492816,0.0
49948628,-3.83972,0.17821,-0.0492456,0.0
49980587,-3.83972,0.17833,-0.0492783,0.0
50012608,-3.83972,0.178407,-0.0492997,0.0
50044649,-3.83972,0.178384,-0.0492938,0.0
50076643,-3.83972,0.178291,-0.049268,0.0
50108612,-3.83972,0.178369,-0.0492896,0.0
50140607,-3.83972,0.178237,-0.049253,0.0
50172644,-3.83972,0.178211,-0.049246,0.0
50204642,-3.83972,0.178148,-0.049229,0.0
50236614,-3.83972,0.178041,-0.0491999,0.0
50265460,-3.83972,0.177799,-0.0491332,0.0
50297483,-3.83972,0.177867,-0.0491518,0.0
50329404,-3.83972,0.177802,-0.0491333,0.0
50361474,-3.83972,0.177864,-0.0491503,0.0
50393471,-3.83972,0.177926,-0.0491682,0.0
50425434,-3.83972,0.177882,-0.0491556,0.0
50457375,-3.83972,0.177724,-0.0491121,0.0
50489433,-3.83972,0.177564,-0.0490675,0.0
50517419,-3.83972,0.177717,-0.04911,0.0
50549418,-3.83972,0.177585,-0.0490735,0.0
50581419,-3.83972,0.177902,-0.0491609,0.0
50613430,-3.83972,0.177628,-0.0490856,0.0
50649452,-3.83972,0.177475,-0.0490426,0.0
50681401,-3.83972,0.177457,-0.0490378,0.0
50709449,-3.83972,0.177488,-0.0490464,0.0
50741448,-3.83972,0.177466,-0.0490409,0.0
50773397,-3.83972,0.177361,-0.0490118,0.0
50806999,-3.83972,0.177314,-0.0489989,0.0
50839057,-3.83972,0.177381,-0.0490169,0.0
50867017,-3.83972,0.177213,-0.0489707,0.0
50899073,-3.83972,0.177179,-0.0489618,0.0
50931003,-3.83972,0.177145,-0.0489526,0.0
50963050,-3.83972,0.17709,-0.0489374,0.0
50994979,-3.83972,0.176938,-0.0488953,0.0
51027049,-3.83972,0.176849,-0.0488704,0.0
51059050,-3.83972,0.177151,-0.0489535,0.0
51090996,-3.83972,0.177313,-0.0489985,0.0
51119053,-3.83972,0.17728,-0.0489894,0.0
51151038,-3.83972,0.17741,-0.0490255,0.0
51183010,-3.83972,0.177387,-0.0490194,0.0
51215076,-3.83972,0.177357,-0.049011,0.0
51247041,-3.83972,0.177366,-0.0490136,0.0
51279084,-3.83972,0.17719,-0.0489651,0.0
51311006,-3.83972,0.177266,-0.0489864,0.0
51343057,-3.83972,0.177222,-0.0489748,0.0
51371022,-3.83972,0.177361,-0.0490128,0.0
