timestamp,rollspeed,pitchspeed,yawspeed,q[0],q[1],q[2],q[3],delta_q_reset[0],delta_q_reset[1],delta_q_reset[2],delta_q_reset[3],quat_reset_counter
8917907,-0.0010747,0.0123623,0.00109015,0.690887,0.71248,0.0785885,0.0941842,1.0,0.0,0.0,0.0,0
8921663,0.00262725,0.0104696,0.000302314,0.690886,0.712485,0.078575,0.0941712,1.0,0.0,0.0,0.0,0
8953764,0.000988772,0.00932407,-0.00161184,0.690895,0.712501,0.0784808,0.0940619,1.0,0.0,0.0,0.0,0
8985747,-0.00075504,0.0092419,0.00152438,0.690914,0.712511,0.0783585,0.0939489,1.0,0.0,0.0,0.0,0
9017854,-0.00124047,0.00994437,-0.000452199,0.690939,0.712517,0.0782309,0.0938183,1.0,0.0,0.0,0.0,0
9049868,-0.000555373,0.0118188,-0.00141502,0.690961,0.712526,0.0781039,0.0937012,1.0,0.0,0.0,0.0,0
9081743,0.00236098,0.0108668,-0.00166266,0.690972,0.712539,0.0779999,0.0936034,1.0,0.0,0.0,0.0,0
9113684,9.57418e-05,0.010872,-0.00105378,0.690987,0.712547,0.0779211,0.0935016,1.0,0.0,0.0,0.0,0
9145777,-0.000297507,0.00856122,0.00247334,0.690999,0.71256,0.0778137,0.093401,1.0,0.0,0.0,0.0,0
9177742,0.000526961,0.011006,-0.000526519,0.691014,0.71257,0.0777103,0.0932987,1.0,0.0,0.0,0.0,0
9209835,-0.00114015,0.00944903,0.000619317,0.691033,0.712575,0.0776261,0.0931979,1.0,0.0,0.0,0.0,0
9241727,0.00149565,0.0112261,4.04194e-06,0.691035,0.712593,0.0775348,0.0931102,1.0,0.0,0.0,0.0,0
9269898,3.06852e-05,0.00827047,0.000779748,0.691042,0.712609,0.0774408,0.093019,1.0,0.0,0.0,0.0,0
9301825,-0.00135773,0.00764939,0.00110484,0.691054,0.712622,0.0773267,0.0929175,1.0,0.0,0.0,0.0,0
9333829,0.000611247,0.0104585,-0.000848847,0.691072,0.712628,0.077236,0.0928195,1.0,0.0,0.0,0.0,0
9365741,0.000166532,0.00969003,-0.000551838,0.69109,0.712634,0.0771364,0.0927284,1.0,0.0,0.0,0.0,0
9397872,-0.000442345,0.00758669,1.60155e-05,0.691102,0.712642,0.0770604,0.0926343,1.0,0.0,0.0,0.0,0
9429853,0.000402909,0.0104795,-0.00041306,0.691111,0.712651,0.0769902,0.0925609,1.0,0.0,0.0,0.0,0
9461812,0.0015875,0.00824403,0.000437889,0.691124,0.712656,0.0769245,0.0924756,1.0,0.0,0.0,0.0,0
9493772,-0.000257047,0.0072937,-0.000950099,0.691132,0.712665,0.0768576,0.0924062,1.0,0.0,0.0,0.0,0
9521695,-0.000999237,0.011535,-0.000548941,0.691136,0.712672,0.0768158,0.0923527,1.0,0.0,0.0,0.0,0
9553702,0.00239081,0.0088114,-0.00127647,0.691133,0.71268,0.0767917,0.0923282,1.0,0.0,0.0,0.0,0
9585739,6.73868e-05,0.0051085,-0.000309212,0.691142,0.712676,0.0767817,0.0923108,1.0,0.0,0.0,0.0,0
9617756,0.000228188,0.00870601,0.00132082,0.691142,0.712679,0.0767739,0.0922933,1.0,0.0,0.0,0.0,0
9649872,0.000837208,0.00806122,0.000445675,0.691145,0.712677,0.0767758,0.0922814,1.0,0.0,0.0,0.0,0
9681701,0.00171012,0.0118627,-0.00262243,0.691149,0.712674,0.0767921,0.0922668,1.0,0.0,0.0,0.0,0
9713749,0.002073,0.00941105,-0.00104335,0.691139,0.712675,0.0768258,0.0922947,1.0,0.0,0.0,0.0,0
9745827,0.00187426,0.0075743,-5.87846e-05,0.691139,0.712665,0.0768708,0.0923346,1.0,0.0,0.0,0.0,0
9777730,-0.00238528,0.00637315,0.000198524,0.691135,0.712656,0.0769429,0.0923778,1.0,0.0,0.0,0.0,0
9809793,0.000800501,0.00866588,-0.000417831,0.691133,0.712645,0.0769948,0.0924341,1.0,0.0,0.0,0.0,0
9841691,-0.0018967,0.00957988,-0.00224873,0.691113,0.712649,0.0770776,0.0924884,1.0,0.0,0.0,0.0,0
9873738,0.00185181,0.0100853,-0.00133227,0.691108,0.712637,0.0771435,0.092563,1.0,0.0,0.0,0.0,0
9905645,0.000831904,0.00948626,0.000928177,0.691105,0.712627,0.0772065,0.0926104,1.0,0.0,0.0,0.0,0
9937726,0.0019098,0.00779269,-0.00121144,0.691109,0.712616,0.0772455,0.092629,1.0,0.0,0.0,0.0,0
9969786,-0.00160209,0.00923183,-0.00184372,0.691112,0.712608,0.077269,0.0926461,1.0,0.0,0.0,0.0,0
10001712,0.000708642,0.00861556,-0.000689213,0.691111,0.712606,0.0772945,0.0926489,1.0,0.0,0.0,0.0,0
10033763,-0.000580463,0.00852859,-0.000276202,0.691114,0.712604,0.0772981,0.0926411,1.0,0.0,0.0,0.0,0
10065725,0.0016553,0.00765813,0.00135166,0.691118,0.712604,0.077283,0.0926211,1.0,0.0,0.0,0.0,0
10097742,0.0021335,0.00822869,-0.000853282,0.691114,0.712615,0.0772626,0.0925844,1.0,0.0,0.0,0.0,0
10129836,0.00185214,0.00704839,0.00131941,0.691111,0.712624,0.0772338,0.0925568,1.0,0.0,0.0,0.0,0
10161720,-0.00115305,0.00831196,0.00080278,0.691116,0.712628,0.0771956,0.0925234,1.0,0.0,0.0,0.0,0
10193790,0.00111686,0.00739373,0.00167223,0.69113,0.712626,0.0771486,0.0924734,1.0,0.0,0.0,0.0,0
10225725,0.00034434,0.00566542,0.0011014,0.691141,0.712629,0.0770943,0.0924162,1.0,0.0,0.0,0.0,0
10258508,0.00083387,0.00831949,0.000848114,0.691155,0.712629,0.0770271,0.0923654,1.0,0.0,0.0,0.0,0
10290616,-0.000475882,0.00895399,-0.00173845,0.691164,0.712632,0.0769811,0.0923184,1.0,0.0,0.0,0.0,0
10323347,0.00184186,0.00758364,0.00220227,0.691177,0.712628,0.0769435,0.0922743,1.0,0.0,0.0,0.0,0
10356079,0.00101376,0.00797101,-0.00094022,0.691205,0.71261,0.0769111,0.0922353,1.0,0.0,0.0,0.0,0
10388141,0.00143016,0.00748513,-0.00182793,0.691216,0.712612,0.0768609,0.0921782,1.0,0.0,0.0,0.0,0
10420184,0.00124954,0.00711912,-0.000776381,0.69123,0.71261,0.0768173,0.0921212,1.0,0.0,0.0,0.0,0
10452160,-0.000711368,0.00602333,0.00178691,0.69124,0.712612,0.0767702,0.0920793,1.0,0.0,0.0,0.0,0
10484072,0.00103792,0.00815128,0.00132541,0.691238,0.712626,0.0767232,0.0920265,1.0,0.0,0.0,0.0,0
10516119,0.000669977,0.0081243,-0.000157528,0.691241,0.712633,0.0766875,0.0919799,1.0,0.0,0.0,0.0,0
10548107,-0.000712747,0.00661864,-0.000833728,0.691248,0.712638,0.0766245,0.0919408,1.0,0.0,0.0,0.0,0
10580172,-0.000502646,0.00683331,-0.0011502,0.691272,0.712625,0.0765706,0.091894,1.0,0.0,0.0,0.0,0
10612096,-0.000294305,0.00715358,-0.00114205,0.691283,0.712625,0.0765399,0.0918431,1.0,0.0,0.0,0.0,0
10644138,0.000653575,0.00450136,0.00215196,0.691297,0.712619,0.0765086,0.0918089,1.0,0.0,0.0,0.0,0
10676111,-0.000406683,0.00754618,-0.000915475,0.691309,0.712611,0.0765004,0.0917905,1.0,0.0,0.0,0.0,0
10708226,0.00164915,0.00726174,0.000629249,0.6913,0.712622,0.0764949,0.0917804,1.0,0.0,0.0,0.0,0
10740197,0.00267456,0.00598766,-0.000518891,0.691293,0.712627,0.0765134,0.0917752,1.0,0.0,0.0,0.0,0
10772071,0.000783854,0.00564873,0.000252258,0.691301,0.712617,0.0765252,0.0917816,1.0,0.0,0.0,0.0,0
10804195,0.00251637,0.00745356,0.000926138,0.691302,0.712615,0.0765262,0.0917922,1.0,0.0,0.0,0.0,0
10836094,-0.000876918,0.00411932,-0.00296055,0.691307,0.712608,0.0765497,0.0917889,1.0,0.0,0.0,0.0,0
10868145,-0.00020199,0.00655399,-0.000438494,0.691311,0.712597,0.0765729,0.0918197,1.0,0.0,0.0,0.0,0
10900276,0.00221721,0.00533092,0.00071612,0.691306,0.712595,0.0766029,0.0918509,1.0,0.0,0.0,0.0,0
10932182,0.000107789,0.00754699,-0.000382843,0.69131,0.712581,0.0766505,0.0918859,1.0,0.0,0.0,0.0,0
10964209,0.000792682,0.00701042,0.00213454,0.691305,0.712581,0.07667,0.0919118,1.0,0.0,0.0,0.0,0
10996224,-0.000317907,0.00774399,-0.00057622,0.691312,0.71257,0.0766904,0.0919324,1.0,0.0,0.0,0.0,0
11028063,0.00155813,0.00765696,-0.00147938,0.691307,0.712572,0.0767003,0.091939,1.0,0.0,0.0,0.0,0
11060202,-0.0024642,0.00824059,-0.000520847,0.691309,0.712563,0.0767295,0.0919658,1.0,0.0,0.0,0.0,0
11092209,-0.00124337,0.00603353,0.00106518,0.691316,0.712551,0.0767544,0.0919862,1.0,0.0,0.0,0.0,0
11124203,0.000499556,0.00609948,-0.00121235,0.691325,0.712537,0.0767706,0.092018,1.0,0.0,0.0,0.0,0
11156114,0.000731512,0.00862275,0.000473405,0.691325,0.712533,0.0767845,0.0920401,1.0,0.0,0.0,0.0,0
11188249,0.000730873,0.00625367,0.000408212,0.691324,0.712531,0.0767876,0.0920574,1.0,0.0,0.0,0.0,0
11220216,-0.000456859,0.0071425,0.00133463,0.691329,0.712523,0.076793,0.0920767,1.0,0.0,0.0,0.0,0
11252208,0.000504143,0.00540054,-0.000373309,0.691331,0.712518,0.0768114,0.0920856,1.0,0.0,0.0,0.0,0
11284139,-0.00196685,0.00587002,-0.00128314,0.691342,0.71251,0.0768017,0.0920741,1.0,0.0,0.0,0.0,0
11316128,-0.00344654,0.00548604,-0.000183638,0.691341,0.712514,0.0767931,0.0920614,1.0,0.0,0.0,0.0,0
11348160,0.00218613,0.00589528,0.000687064,0.691341,0.712513,0.0767938,0.0920618,1.0,0.0,0.0,0.0,0
11380284,0.002671,0.00522453,-0.00306181,0.69134,0.712514,0.0768057,0.0920498,1.0,0.0,0.0,0.0,0
11412121,0.00255306,0.0057412,-6.89318e-05,0.691348,0.712508,0.0768006,0.0920385,1.0,0.0,0.0,0.0,0
11440344,0.00315509,0.00551487,-0.000853704,0.691355,0.712502,0.0768078,0.0920311,1.0,0.0,0.0,0.0,0
11472106,0.00273733,0.00533919,0.00108536,0.691351,0.712507,0.0768053,0.0920207,1.0,0.0,0.0,0.0,0
11504164,0.0013274,0.00569834,-0.00151994,0.691362,0.712499,0.0768067,0.0920068,1.0,0.0,0.0,0.0,0
11536160,-0.000453809,0.00458017,0.000259283,0.691352,0.712513,0.0767911,0.0919834,1.0,0.0,0.0,0.0,0
11568900,-0.000135351,0.00536621,0.000191776,0.691371,0.712499,0.0767648,0.0919707,1.0,0.0,0.0,0.0,0
11600910,-0.000778866,0.0041347,0.000783192,0.691379,0.712496,0.0767545,0.0919446,1.0,0.0,0.0,0.0,0
11629818,0.00425653,0.00543159,-0.00223518,0.691402,0.712476,0.0767522,0.091929,1.0,0.0,0.0,0.0,0
11662508,-0.00169374,0.00508524,-0.00130035,0.69141,0.712471,0.0767433,0.0919141,1.0,0.0,0.0,0.0,0
11694544,-0.0018434,0.00517782,0.000430747,0.691409,0.712474,0.0767379,0.0919071,1.0,0.0,0.0,0.0,0
11726500,0.00256007,0.00378283,-0.00216231,0.691411,0.712471,0.0767341,0.0919069,1.0,0.0,0.0,0.0,0
11758549,0.000765316,0.0034665,-0.00266157,0.691434,0.712449,0.0767391,0.0919026,1.0,0.0,0.0,0.0,0
11790577,-0.00380496,0.00707497,-0.00125505,0.69143,0.712451,0.0767541,0.0919079,1.0,0.0,0.0,0.0,0
11822512,-9.48459e-06,0.00738243,0.00177244,0.691411,0.712464,0.0767877,0.0919217,1.0,0.0,0.0,0.0,0
11854525,-0.00178579,0.00613333,-0.000268131,0.691405,0.712462,0.0768236,0.0919513,1.0,0.0,0.0,0.0,0
11887340,-0.00121179,0.00562088,0.00237227,0.691389,0.71247,0.0768447,0.0919966,1.0,0.0,0.0,0.0,0
11919324,-0.0013478,0.00385715,0.000259208,0.691387,0.712459,0.0768908,0.0920528,1.0,0.0,0.0,0.0,0
11947325,0.00443091,0.00669863,4.95687e-05,0.691382,0.712454,0.0769378,0.0920957,1.0,0.0,0.0,0.0,0
11979356,0.000378751,0.00580969,0.0017861,0.69137,0.71245,0.0769962,0.0921642,1.0,0.0,0.0,0.0,0
12011336,0.00093517,0.00383876,-0.00117506,0.691369,0.712442,0.0770359,0.0922044,1.0,0.0,0.0,0.0,0
12043375,0.000664316,0.00328987,0.000500337,0.691375,0.712427,0.0770683,0.0922435,1.0,0.0,0.0,0.0,0
12075312,-0.000679505,0.00281766,0.00140125,0.691371,0.712426,0.0770747,0.0922792,1.0,0.0,0.0,0.0,0
12107306,-0.00132216,0.00695285,0.00136054,0.691372,0.712418,0.0770937,0.0923154,1.0,0.0,0.0,0.0,0
12139434,-0.00017268,0.00507714,0.000853247,0.691372,0.712415,0.0771072,0.0923293,1.0,0.0,0.0,0.0,0
12171356,-0.0010824,0.00490269,-0.000842561,0.691378,0.712403,0.077137,0.0923449,1.0,0.0,0.0,0.0,0
12199332,0.000985872,0.00693373,0.00025466,0.691391,0.712386,0.0771594,0.0923704,1.0,0.0,0.0,0.0,0
12231348,0.00231962,0.00473436,-0.00176693,0.69138,0.712393,0.0771722,0.0923848,1.0,0.0,0.0,0.0,0
12263309,0.000472247,0.00543058,0.0023283,0.691381,0.71239,0.0771688,0.092399,1.0,0.0,0.0,0.0,0
12295308,0.000606455,0.00476058,-0.00184021,0.691378,0.712389,0.0771748,0.092429,1.0,0.0,0.0,0.0,0
12327375,-0.00233,0.005429,0.0002718,0.691378,0.712381,0.077217,0.0924523,1.0,0.0,0.0,0.0,0
12363333,0.00215635,0.00401017,0.00192167,0.691371,0.71238,0.0772361,0.0924896,1.0,0.0,0.0,0.0,0
12395274,0.00085424,0.00525759,-0.000115207,0.691368,0.712381,0.0772393,0.0925068,1.0,0.0,0.0,0.0,0
12423314,0.000990442,0.00602103,-0.000496167,0.691371,0.712374,0.0772611,0.0925237,1.0,0.0,0.0,0.0,0
12455433,0.00126967,0.00516956,-0.00131356,0.69137,0.712371,0.0772809,0.0925366,1.0,0.0,0.0,0.0,0
12487358,0.00203053,0.00553831,-0.000664171,0.691371,0.712367,0.0772893,0.0925492,1.0,0.0,0.0,0.0,0
12519420,-2.44421e-05,0.00538865,-0.00147618,0.691366,0.712371,0.0772878,0.0925556,1.0,0.0,0.0,0.0,0
12552988,-0.000935011,0.00396793,0.000833629,0.691369,0.712369,0.077294,0.0925455,1.0,0.0,0.0,0.0,0
12581742,0.0012096,0.00574717,0.00160948,0.691368,0.712372,0.0772864,0.0925427,1.0,0.0,0.0,0.0,0
12613685,-8.23191e-05,0.0057273,0.00120727,0.691371,0.712369,0.0772722,0.092552,1.0,0.0,0.0,0.0,0
12645749,0.00136842,0.00383174,-0.00103394,0.691366,0.712373,0.0772671,0.0925632,1.0,0.0,0.0,0.0,0
12677720,-0.0020277,0.00471669,-0.000291082,0.691358,0.712381,0.0772814,0.0925508,1.0,0.0,0.0,0.0,0
12709806,-0.00147523,0.00435368,0.000971006,0.691369,0.71237,0.0772781,0.092556,1.0,0.0,0.0,0.0,0
12741713,-0.000104297,0.00422715,0.00106006,0.691369,0.712374,0.0772675,0.0925324,1.0,0.0,0.0,0.0,0
12769840,-0.00252537,0.00463207,0.00241055,0.691375,0.712373,0.0772512,0.092509,1.0,0.0,0.0,0.0,0
12801823,-0.00120766,0.00257058,-4.23645e-05,0.691389,0.712367,0.0772142,0.0924863,1.0,0.0,0.0,0.0,0
12833800,-0.00174102,0.00523633,-0.000670138,0.691397,0.712366,0.0771989,0.0924368,1.0,0.0,0.0,0.0,0
12865687,0.00061253,0.00456819,-0.000217876,0.691408,0.712363,0.077174,0.0924026,1.0,0.0,0.0,0.0,0
12897879,0.000592702,0.00426965,-0.00106606,0.69142,0.712358,0.077137,0.0923819,1.0,0.0,0.0,0.0,0
12929915,0.00388843,0.00545262,-0.0016346,0.691422,0.712361,0.0771197,0.0923575,1.0,0.0,0.0,0.0,0
12961812,0.000680225,0.00450162,-0.0021432,0.691434,0.712354,0.0770983,0.0923395,1.0,0.0,0.0,0.0,0
12993719,-0.00159678,0.00412394,0.00162841,0.691442,0.712349,0.0770846,0.092333,1.0,0.0,0.0,0.0,0
13025765,-0.000527229,0.00570511,0.00156309,0.691446,0.712346,0.0770855,0.0923219,1.0,0.0,0.0,0.0,0
13057764,0.00245034,0.0049747,0.0010623,0.691435,0.712356,0.0770888,0.0923215,1.0,0.0,0.0,0.0,0
13090650,0.00189804,0.00604772,0.000346857,0.691426,0.712362,0.0770927,0.0923452,1.0,0.0,0.0,0.0,0
13122617,0.00272639,0.00578342,-0.00105766,0.691424,0.712359,0.0771044,0.092366,1.0,0.0,0.0,0.0,0
13154553,0.00213592,0.00483773,0.00180923,0.691419,0.712359,0.0771138,0.0923963,1.0,0.0,0.0,0.0,0
13186600,0.000194187,0.00442265,0.000644631,0.691421,0.712353,0.0771414,0.0924133,1.0,0.0,0.0,0.0,0
13216061,0.00311907,0.00475017,-0.00206536,0.691436,0.712331,0.0771591,0.0924505,1.0,0.0,0.0,0.0,0
13248245,-0.00161332,0.0034317,0.000529523,0.691423,0.71234,0.0771809,0.0924652,1.0,0.0,0.0,0.0,0
13280222,-0.000738954,0.00464704,0.00174906,0.691443,0.712314,0.0772151,0.0924819,1.0,0.0,0.0,0.0,0
13312222,0.00133719,0.00563548,-0.0010545,0.691432,0.712321,0.0772365,0.0924986,1.0,0.0,0.0,0.0,0
13344144,-0.000853021,0.00330417,0.000642809,0.691443,0.712305,0.0772544,0.0925237,1.0,0.0,0.0,0.0,0
13372177,0.00135203,0.00437358,0.00180248,0.691446,0.7123,0.0772525,0.0925368,1.0,0.0,0.0,0.0,0
13404071,0.00214842,0.00478278,0.0012897,0.691442,0.712306,0.0772438,0.0925276,1.0,0.0,0.0,0.0,0
13436188,-0.000593052,0.00431395,0.00100526,0.691442,0.71231,0.0772307,0.092513,1.0,0.0,0.0,0.0,0
13468171,-0.000290648,0.00444237,-0.00112582,0.691449,0.712311,0.0772032,0.0924697,1.0,0.0,0.0,0.0,0
13500275,-0.000343251,0.00376714,0.00130343,0.691462,0.712306,0.0771644,0.0924423,1.0,0.0,0.0,0.0,0
13532078,0.00219729,0.00440359,0.00041936,0.691465,0.712314,0.0771234,0.0923937,1.0,0.0,0.0,0.0,0
13564212,-0.000393564,0.00564939,-0.00106514,0.691474,0.712316,0.077086,0.0923428,1.0,0.0,0.0,0.0,0
13596193,0.000123816,0.00500067,-0.00207291,0.691485,0.712314,0.0770637,0.0923009,1.0,0.0,0.0,0.0,0
13628247,-0.000821856,0.00566354,-0.000948806,0.691498,0.712312,0.0770172,0.0922487,1.0,0.0,0.0,0.0,0
13660297,-0.00141545,0.00201066,0.000414902,0.691506,0.712319,0.0769639,0.0921866,1.0,0.0,0.0,0.0,0
13692134,0.000280425,0.00286863,0.000832667,0.691512,0.712325,0.0769118,0.0921396,1.0,0.0,0.0,0.0,0
13724173,0.000975773,0.00529452,-0.00100472,0.691527,0.71232,0.0768632,0.0921013,1.0,0.0,0.0,0.0,0
13756961,-5.03515e-05,0.00455645,-0.00014908,0.691547,0.712311,0.076811,0.0920624,1.0,0.0,0.0,0.0,0
13784926,0.000265271,0.0046218,-0.000154185,0.691562,0.712307,0.0767735,0.0920153,1.0,0.0,0.0,0.0,0
13816992,-0.00206302,0.00516412,0.000659864,0.691574,0.712306,0.0767298,0.0919627,1.0,0.0,0.0,0.0,0
13849022,0.00106362,0.00403878,0.00163169,0.691587,0.712308,0.0766546,0.0919157,1.0,0.0,0.0,0.0,0
13880900,0.00189099,0.00337634,0.00157474,0.691588,0.712321,0.076585,0.0918712,1.0,0.0,0.0,0.0,0
13912950,0.0010176,0.00244951,0.000177807,0.691593,0.71233,0.0765207,0.091811,1.0,0.0,0.0,0.0,0
13944981,-0.00239031,0.00247453,-0.000180615,0.691602,0.712332,0.0764804,0.091766,1.0,0.0,0.0,0.0,0
13976929,-0.00059309,0.00190825,0.000717535,0.691605,0.712337,0.0764385,0.0917401,1.0,0.0,0.0,0.0,0
14008884,0.00112351,0.00411505,0.000573908,0.691622,0.712327,0.0763984,0.0917215,1.0,0.0,0.0,0.0,0
14036872,-0.000267011,0.00307973,0.0012163,0.691626,0.712328,0.0763822,0.0916966,1.0,0.0,0.0,0.0,0
14068884,-0.000203133,0.00339014,-0.000710374,0.69164,0.712319,0.0763588,0.091683,1.0,0.0,0.0,0.0,0
14100927,0.00119507,0.00382755,-0.000303453,0.69164,0.712322,0.0763468,0.0916704,1.0,0.0,0.0,0.0,0
14132867,-0.00101775,0.00571931,-0.000599279,0.691625,0.712335,0.076345,0.0916784,1.0,0.0,0.0,0.0,0
14164903,0.0008013,0.00476449,0.000382089,0.691628,0.712334,0.0763404,0.0916693,1.0,0.0,0.0,0.0,0
14196996,0.00289228,0.00417659,-0.00117409,0.691633,0.712331,0.0763404,0.0916545,1.0,0.0,0.0,0.0,0
14228975,-0.0017662,0.00398593,-0.000667552,0.691648,0.712319,0.0763218,0.0916475,1.0,0.0,0.0,0.0,0
14260996,0.0018288,0.00226388,-0.000904538,0.69165,0.712322,0.076302,0.0916236,1.0,0.0,0.0,0.0,0
14293010,-0.00165889,0.0037679,0.000730369,0.691654,0.712325,0.0762748,0.0915993,1.0,0.0,0.0,0.0,0
14324906,-0.00229644,0.0037476,-7.9982e-06,0.691663,0.71232,0.076262,0.0915762,1.0,0.0,0.0,0.0,0
14356918,0.00213435,0.00370716,-0.00158761,0.691671,0.712319,0.076237,0.0915478,1.0,0.0,0.0,0.0,0
14389049,0.00087445,0.00420451,-0.00090529,0.691671,0.712326,0.0762052,0.0915155,1.0,0.0,0.0,0.0,0
14420911,0.00130038,0.00266107,-0.000263431,0.691671,0.71233,0.0761904,0.0915047,1.0,0.0,0.0,0.0,0
14452906,-0.000458811,0.00148056,0.000359694,0.69168,0.712325,0.0761675,0.091486,1.0,0.0,0.0,0.0,0
14485050,-0.00251737,0.00214537,0.000603534,0.691688,0.712323,0.0761452,0.091468,1.0,0.0,0.0,0.0,0
14516960,-0.00168572,0.00271541,-0.000453705,0.6917,0.712343,0.0760118,0.0913272,1.0,0.0,0.0,0.0,0
14548867,0.00183585,0.00168786,0.000416492,0.691716,0.712373,0.0758192,0.0911312,1.0,0.0,0.0,0.0,0
14581037,-0.00179628,0.00449815,-0.00112637,0.691758,0.712389,0.0755728,0.0908884,1.0,0.0,0.0,0.0,0
14612904,-0.000290982,0.00252513,-6.34473e-05,0.691778,0.712402,0.0754471,0.0907418,1.0,0.0,0.0,0.0,0
14644941,-0.00126241,0.00285725,-0.000773894,0.691799,0.712413,0.0753157,0.0906037,1.0,0.0,0.0,0.0,0
14676966,-0.00269022,0.00197946,0.00253358,0.691815,0.712428,0.0751792,0.0904772,1.0,0.0,0.0,0.0,0
14708954,-0.00177985,0.00380842,0.000874839,0.691834,0.712437,0.0750483,0.0903742,1.0,0.0,0.0,0.0,0
14737055,-0.000635826,-4.93352e-05,-0.000798689,0.691849,0.712444,0.0749511,0.0902884,1.0,0.0,0.0,0.0,0
14768957,-0.000191495,0.00310571,-0.000462492,0.691855,0.712456,0.0748709,0.0902062,1.0,0.0,0.0,0.0,0
14800898,-0.00140347,0.00303549,0.00225755,0.691859,0.712467,0.0748064,0.0901454,1.0,0.0,0.0,0.0,0
14832919,-0.000649064,0.00197803,0.00249746,0.691864,0.712476,0.0747346,0.0900887,1.0,0.0,0.0,0.0,0
14864844,-0.0003876,0.00297632,0.000598718,0.691871,0.712484,0.074665,0.0900333,1.0,0.0,0.0,0.0,0
14896911,0.000665414,0.00290104,-0.000897286,0.691869,0.712499,0.0746202,0.0899673,1.0,0.0,0.0,0.0,0
14928901,-0.000286317,0.00256788,0.00143964,0.691881,0.712499,0.0745707,0.0899173,1.0,0.0,0.0,0.0,0
14960974,-0.000192668,0.000797884,0.00127078,0.69189,0.7125,0.074532,0.0898761,1.0,0.0,0.0,0.0,0
14989029,-0.000224728,0.0020684,-0.00155514,0.691892,0.712507,0.0744892,0.0898397,1.0,0.0,0.0,0.0,0
15021008,0.000619553,0.00173724,-0.00190254,0.691893,0.712519,0.0744359,0.0897834,1.0,0.0,0.0,0.0,0
15052845,3.29264e-05,0.00309336,0.000612554,0.691897,0.712525,0.0743831,0.089744,1.0,0.0,0.0,0.0,0
15084956,-0.00039964,0.00246176,-0.000363173,0.691904,0.71253,0.0743347,0.0896972,1.0,0.0,0.0,0.0,0
15116948,-0.00117638,0.00300436,-0.00138503,0.691911,0.712532,0.0742992,0.0896481,1.0,0.0,0.0,0.0,0
15146626,0.00151415,0.00224573,-0.00155416,0.691918,0.712535,0.0742392,0.0896232,1.0,0.0,0.0,0.0,0
15178444,-0.000292205,0.00469843,0.0003815,0.691919,0.712545,0.0741929,0.089572,1.0,0.0,0.0,0.0,0
15210606,-0.00158035,0.00225545,-0.000554288,0.691923,0.71255,0.0741507,0.0895292,1.0,0.0,0.0,0.0,0
15242565,-0.0014237,0.00390071,6.01271e-05,0.691927,0.712558,0.0741007,0.0894802,1.0,0.0,0.0,0.0,0
15274464,0.000931763,0.0028276,0.00230902,0.691924,0.712574,0.0740461,0.0894255,1.0,0.0,0.0,0.0,0
15307377,0.000399291,0.00339628,-0.00192479,0.691933,0.712579,0.073984,0.0893647,1.0,0.0,0.0,0.0,0
15335277,-0.000196347,0.000349468,0.00053656,0.691933,0.712594,0.0739249,0.0892972,1.0,0.0,0.0,0.0,0
15367341,0.000186465,0.00175864,-0.00111244,0.691944,0.712601,0.0738338,0.0892287,1.0,0.0,0.0,0.0,0
15399320,0.00158085,0.000765367,-0.000750708,0.691956,0.712613,0.0737384,0.0891227,1.0,0.0,0.0,0.0,0
15431337,0.000522902,0.00127322,-0.000176762,0.691957,0.712634,0.0736391,0.089031,1.0,0.0,0.0,0.0,0
15463262,0.00350156,0.0021676,-0.000405079,0.69197,0.712644,0.0735388,0.0889279,1.0,0.0,0.0,0.0,0
15496218,0.00201796,0.00205975,-0.000537093,0.69198,0.712656,0.073436,0.0888401,1.0,0.0,0.0,0.0,0
15528160,0.00223204,0.00361703,-0.000515491,0.691988,0.712671,0.0733283,0.0887463,1.0,0.0,0.0,0.0,0
15556206,0.00277668,0.00539695,0.000178759,0.69199,0.712689,0.0732402,0.08866,1.0,0.0,0.0,0.0,0
15588121,0.00213375,0.00236751,6.40387e-05,0.691997,0.712703,0.0731507,0.0885663,1.0,0.0,0.0,0.0,0
15620225,0.000950481,0.00119948,-0.000389288,0.692002,0.71272,0.073038,0.0884799,1.0,0.0,0.0,0.0,0
15652058,0.000186035,0.00033017,-0.000616784,0.692007,0.712735,0.0729435,0.0884002,1.0,0.0,0.0,0.0,0
15684134,-0.000626765,0.00108565,0.00104051,0.692022,0.712741,0.0728546,0.0883106,1.0,0.0,0.0,0.0,0
15716111,0.000641194,0.00217062,9.46946e-05,0.692027,0.712754,0.0727666,0.0882363,1.0,0.0,0.0,0.0,0
15745664,0.00209235,0.00188289,-0.00122287,0.69203,0.712764,0.0726967,0.0881827,1.0,0.0,0.0,0.0,0
15777791,-0.00184789,0.000970924,-0.00193342,0.692039,0.712771,0.0726326,0.0881128,1.0,0.0,0.0,0.0,0
15809842,-0.00318964,0.00093107,0.000336487,0.69205,0.712773,0.0725878,0.0880461,1.0,0.0,0.0,0.0,0
15841764,-0.000425757,0.00176131,0.000106404,0.692052,0.712784,0.0725286,0.0879879,1.0,0.0,0.0,0.0,0
15873680,0.00127824,0.00281769,-0.000307841,0.692053,0.712796,0.0724659,0.087934,1.0,0.0,0.0,0.0,0
15905817,-0.000560503,0.0035628,-0.000458171,0.69207,0.71279,0.0724136,0.0878907,1.0,0.0,0.0,0.0,0
15937740,1.57636e-05,0.0020896,0.00118048,0.692079,0.712795,0.07235,0.0878353,1.0,0.0,0.0,0.0,0
15969834,-0.000883711,-0.000977197,-0.000837751,0.692091,0.712796,0.0722942,0.0877756,1.0,0.0,0.0,0.0,0
16001702,0.000227755,0.00125782,0.00104565,0.692106,0.712796,0.0722234,0.0877239,1.0,0.0,0.0,0.0,0
16033736,0.00169114,0.00217674,9.20463e-05,0.692107,0.712806,0.0721789,0.0876712,1.0,0.0,0.0,0.0,0
16065742,0.00390704,0.00121489,-0.000433145,0.692101,0.712823,0.0721339,0.0876137,1.0,0.0,0.0,0.0,0
16097860,-0.000301328,0.00180129,0.00107666,0.69211,0.712824,0.0720919,0.0875679,1.0,0.0,0.0,0.0,0
16129883,0.00337866,0.00176029,-0.00146641,0.692116,0.712826,0.0720687,0.0875243,1.0,0.0,0.0,0.0,0
16157853,-0.000236487,0.00225393,-0.000507989,0.692124,0.712825,0.0720368,0.0874998,1.0,0.0,0.0,0.0,0
16189809,0.000160501,0.00217549,-0.00167262,0.692132,0.712824,0.0719911,0.0874753,1.0,0.0,0.0,0.0,0
16221713,0.000841187,0.00324759,0.00111133,0.692147,0.712816,0.0719643,0.0874482,1.0,0.0,0.0,0.0,0
16253690,0.0026625,0.0017292,0.00174286,0.692137,0.712828,0.0719498,0.0874378,1.0,0.0,0.0,0.0,0
16285768,0.002891,-0.000719194,0.00205466,0.692132,0.712837,0.0719269,0.0874279,1.0,0.0,0.0,0.0,0
16317685,-0.00249512,0.00112797,-0.00126249,0.692129,0.712841,0.0719129,0.0874251,1.0,0.0,0.0,0.0,0
16349884,-0.000731843,0.00218238,0.00163048,0.69213,0.712837,0.0719298,0.08744,1.0,0.0,0.0,0.0,0
16381771,0.000954382,0.00378802,0.000807019,0.692116,0.712849,0.0719308,0.0874517,1.0,0.0,0.0,0.0,0
16409866,-0.000454492,0.00203978,-0.000723594,0.692116,0.712848,0.0719386,0.0874557,1.0,0.0,0.0,0.0,0
16441730,-0.000512995,0.00283134,0.000471654,0.692115,0.712847,0.0719544,0.0874624,1.0,0.0,0.0,0.0,0
16473770,0.000536839,0.000563931,0.000690322,0.692114,0.712846,0.07196,0.0874707,1.0,0.0,0.0,0.0,0
16505737,0.000735221,0.0032453,0.000668858,0.692119,0.71284,0.0719668,0.0874727,1.0,0.0,0.0,0.0,0
16537859,-0.000707544,0.000190621,-0.00313874,0.692114,0.712843,0.0719732,0.0874817,1.0,0.0,0.0,0.0,0
16569803,-0.000326861,0.00148987,-0.000446407,0.692116,0.712839,0.0719865,0.0874892,1.0,0.0,0.0,0.0,0
16601828,-0.0010703,0.00229468,-0.000170526,0.692107,0.712845,0.0720092,0.0874899,1.0,0.0,0.0,0.0,0
16633730,-0.00129119,0.00111132,0.000111932,0.692093,0.712857,0.0720229,0.0874902,1.0,0.0,0.0,0.0,0
16665710,0.000845127,0.000148001,0.000132401,0.69209,0.71286,0.0720219,0.0874982,1.0,0.0,0.0,0.0,0
16697810,0.000503928,0.00116297,-0.000871961,0.692085,0.712863,0.0720406,0.0874943,1.0,0.0,0.0,0.0,0
16729850,0.00116817,0.00392876,-4.74928e-05,0.692082,0.712859,0.0720685,0.0875255,1.0,0.0,0.0,0.0,0
16761721,0.001057,0.00210319,-0.000222131,0.692079,0.712857,0.0720949,0.0875459,1.0,0.0,0.0,0.0,0
16793663,-0.00238999,0.00183308,-0.00122736,0.692075,0.712855,0.0721271,0.0875655,1.0,0.0,0.0,0.0,0
16825738,-0.00327669,9.39828e-05,-0.00309519,0.692074,0.712853,0.072149,0.0875693,1.0,0.0,0.0,0.0,0
16857747,-7.62288e-06,0.000543463,-0.000580844,0.692072,0.712851,0.0721799,0.0875789,1.0,0.0,0.0,0.0,0
16889903,0.00137845,0.00142134,-0.00134238,0.692063,0.712855,0.0722063,0.0875941,1.0,0.0,0.0,0.0,0
16921711,0.000117783,0.00105609,0.000278043,0.692056,0.712855,0.0722454,0.0876226,1.0,0.0,0.0,0.0,0
16953791,-0.000241849,0.00370551,-0.00163729,0.692055,0.712845,0.0722961,0.0876691,1.0,0.0,0.0,0.0,0
16985754,-0.00223216,0.0042574,0.000397139,0.692054,0.712836,0.072332,0.0877108,1.0,0.0,0.0,0.0,0
17017756,-0.00234031,0.000338775,-0.00077497,0.69205,0.712834,0.0723642,0.087738,1.0,0.0,0.0,0.0,0
17049847,0.000456104,0.00165184,0.00116038,0.692045,0.712833,0.0723922,0.0877611,1.0,0.0,0.0,0.0,0
17081844,0.00200508,0.00159788,-0.000819826,0.692051,0.712823,0.0724186,0.087769,1.0,0.0,0.0,0.0,0
17114598,0.000350253,0.000205034,0.00226673,0.692046,0.712823,0.0724309,0.087801,1.0,0.0,0.0,0.0,0
17146475,0.00221391,0.0029519,-0.000751528,0.692045,0.712821,0.0724444,0.0878123,1.0,0.0,0.0,0.0,0
17180276,0.000665082,0.0021152,0.00117916,0.692044,0.712821,0.0724587,0.087818,1.0,0.0,0.0,0.0,0
17208166,0.00112739,0.00119303,-0.000538035,0.692045,0.712834,0.0723948,0.087754,1.0,0.0,0.0,0.0,0
17240274,0.00377046,0.00098379,-0.00251642,0.692057,0.712865,0.0722073,0.0875554,1.0,0.0,0.0,0.0,0
17272138,0.00257808,0.00071076,0.00197583,0.692083,0.712885,0.0719998,0.0873603,1.0,0.0,0.0,0.0,0
17304050,0.00247143,0.00114866,0.000387105,0.692103,0.712912,0.0717961,0.0871556,1.0,0.0,0.0,0.0,0
17336194,-0.000183557,0.000663686,-0.00126259,0.692127,0.712931,0.0715867,0.0869766,1.0,0.0,0.0,0.0,0
17368074,-0.00386046,-0.000289887,-0.000696009,0.692152,0.712954,0.0713748,0.0867678,1.0,0.0,0.0,0.0,0
17400189,-0.00131391,0.00198763,-0.00033999,0.692181,0.71297,0.07117,0.086568,1.0,0.0,0.0,0.0,0
17432125,-9.69488e-05,0.00148454,0.00151636,0.692203,0.712988,0.0709962,0.0863937,1.0,0.0,0.0,0.0,0
17460252,-0.00166329,0.000792036,0.00121276,0.692223,0.712997,0.0708584,0.0862702,1.0,0.0,0.0,0.0,0
17492219,0.000704604,0.00286565,-3.56282e-05,0.692242,0.713001,0.0707422,0.0861715,1.0,0.0,0.0,0.0,0
17524966,0.000210989,0.00145124,0.00140391,0.692252,0.713012,0.0706435,0.0860846,1.0,0.0,0.0,0.0,0
17556892,-0.000680914,0.000403071,-0.000967278,0.692265,0.713016,0.0705717,0.0860059,1.0,0.0,0.0,0.0,0
17589048,0.00115867,-0.000347272,-0.000376042,0.692284,0.713009,0.0705242,0.0859533,1.0,0.0,0.0,0.0,0
17620905,0.000699455,0.001252,-0.00105479,0.692281,0.713018,0.0704988,0.0859203,1.0,0.0,0.0,0.0,0
17652963,0.00104453,0.000780391,0.000724778,0.69227,0.713029,0.0705034,0.0859167,1.0,0.0,0.0,0.0,0
17684875,0.000916895,0.000837454,-0.000118835,0.692263,0.713035,0.0705141,0.0859145,1.0,0.0,0.0,0.0,0
17716910,-0.000274849,0.00227521,-0.000794914,0.692264,0.713025,0.070559,0.0859502,1.0,0.0,0.0,0.0,0
17748957,-0.000819508,0.00114098,-0.00253108,0.69225,0.713032,0.0705915,0.0859765,1.0,0.0,0.0,0.0,0
17781688,0.00168336,0.00189309,0.000119678,0.692251,0.713023,0.0706256,0.0860119,1.0,0.0,0.0,0.0,0
17815286,0.00102717,0.00230109,0.000251614,0.692245,0.713023,0.0706615,0.0860374,1.0,0.0,0.0,0.0,0
17847346,0.00159702,0.00223105,0.0021512,0.692238,0.713023,0.0706957,0.0860682,1.0,0.0,0.0,0.0,0
17879298,-4.83361e-05,-0.000861534,-0.000926855,0.692238,0.713016,0.0707434,0.0860835,1.0,0.0,0.0,0.0,0
17911367,0.000482179,-0.0006082,-0.0012459,0.69223,0.713015,0.0707864,0.0861211,1.0,0.0,0.0,0.0,0
17943300,-0.00101991,3.97328e-05,-0.00140648,0.692219,0.713016,0.0708341,0.0861576,1.0,0.0,0.0,0.0,0
17976096,-0.00316034,0.000268483,-0.00144984,0.692216,0.713011,0.0708812,0.0861878,1.0,0.0,0.0,0.0,0
18008214,-0.000382704,0.00204635,-0.000571708,0.692209,0.71301,0.0709257,0.0862172,1.0,0.0,0.0,0.0,0
18040125,2.05166e-05,0.00173951,-0.000909056,0.692201,0.713007,0.0709719,0.0862645,1.0,0.0,0.0,0.0,0
18072170,0.0014082,0.000920239,-0.000973064,0.692204,0.712998,0.0710048,0.0862909,1.0,0.0,0.0,0.0,0
18104090,0.000189513,-0.0011265,0.00119583,0.692196,0.713,0.071024,0.0863191,1.0,0.0,0.0,0.0,0
18136967,-0.000274655,0.000953593,0.000332011,0.69219,0.712999,0.0710647,0.0863487,1.0,0.0,0.0,0.0,0
18169067,0.00155537,0.00138538,0.000634898,0.692177,0.713003,0.0711014,0.086386,1.0,0.0,0.0,0.0,0
18201045,0.000602272,-0.00017723,-0.000368775,0.692169,0.713004,0.0711337,0.0864086,1.0,0.0,0.0,0.0,0
18232921,-0.00163442,0.00275967,0.000853881,0.692161,0.713004,0.0711731,0.0864462,1.0,0.0,0.0,0.0,0
18264998,0.00093178,0.00404113,0.00128444,0.692145,0.71301,0.0712205,0.0864872,1.0,0.0,0.0,0.0,0
18294526,0.000551227,-0.000184862,-0.00186097,0.692144,0.713002,0.0712631,0.0865266,1.0,0.0,0.0,0.0,0
18326510,-0.000495901,0.000408486,-0.000855717,0.692141,0.712997,0.0713019,0.086559,1.0,0.0,0.0,0.0,0
18358623,-3.43472e-05,0.00112967,-9.71807e-05,0.692135,0.712997,0.0713304,0.0865787,1.0,0.0,0.0,0.0,0
18390456,0.000783128,0.00349119,-0.000535699,0.692131,0.712995,0.0713652,0.0866057,1.0,0.0,0.0,0.0,0
18422591,0.00187386,0.000602497,-7.97445e-05,0.692125,0.712992,0.0714057,0.0866415,1.0,0.0,0.0,0.0,0
18450562,0.000357134,0.000956495,-0.000645713,0.692126,0.712984,0.0714425,0.0866667,1.0,0.0,0.0,0.0,0
18482545,0.00186544,0.000789523,-0.00039289,0.692115,0.712988,0.0714785,0.0866967,1.0,0.0,0.0,0.0,0
18514540,0.000216926,0.00361773,0.00224453,0.692107,0.712988,0.0715139,0.0867309,1.0,0.0,0.0,0.0,0
18546623,0.00113512,0.00124427,0.00115928,0.69211,0.712977,0.0715452,0.0867693,1.0,0.0,0.0,0.0,0
18578626,-0.000236053,-0.000768589,0.00121499,0.692097,0.71298,0.0715803,0.0868148,1.0,0.0,0.0,0.0,0
18610625,-0.000816548,-0.000646657,-0.00111559,0.6921,0.712968,0.0716335,0.0868512,1.0,0.0,0.0,0.0,0
18642471,-0.000666249,-2.29497e-05,0.00114652,0.692097,0.712961,0.0716866,0.086892,1.0,0.0,0.0,0.0,0
18674621,0.00083982,0.00296086,0.00185315,0.692095,0.712952,0.0717365,0.0869357,1.0,0.0,0.0,0.0,0
18706517,0.00042345,0.00240573,-0.00239762,0.692087,0.712949,0.071799,0.0869742,1.0,0.0,0.0,0.0,0
18738589,-0.00135202,0.00395054,-0.0010286,0.692082,0.712941,0.0718542,0.0870291,1.0,0.0,0.0,0.0,0
18770539,5.86016e-05,0.000466303,-0.000673295,0.692089,0.712923,0.0719045,0.0870764,1.0,0.0,0.0,0.0,0
18802508,5.95399e-05,0.000314753,0.000272145,0.692079,0.712923,0.0719646,0.0871143,1.0,0.0,0.0,0.0,0
18834517,0.000342331,0.000913952,-0.000973522,0.692077,0.71291,0.0720271,0.0871805,1.0,0.0,0.0,0.0,0
18866532,0.000877099,0.00190922,-0.00138111,0.692066,0.712907,0.0720976,0.0872396,1.0,0.0,0.0,0.0,0
18898574,-0.000709554,0.00157507,-0.000724496,0.692052,0.712905,0.0721687,0.0873072,1.0,0.0,0.0,0.0,0
18926627,-0.00115387,0.00110974,-0.00201221,0.692051,0.71289,0.0722457,0.087369,1.0,0.0,0.0,0.0,0
18958532,0.00023993,0.00164758,-0.00169406,0.692041,0.712883,0.0723223,0.0874425,1.0,0.0,0.0,0.0,0
18990501,2.08593e-05,0.00229297,-0.00113937,0.692027,0.71288,0.0723993,0.0875188,1.0,0.0,0.0,0.0,0
19022540,0.000625801,0.000894384,0.00188161,0.692021,0.712866,0.0724779,0.0876088,1.0,0.0,0.0,0.0,0
19054548,0.00156668,0.0010498,0.000802369,0.692015,0.712857,0.0725548,0.087674,1.0,0.0,0.0,0.0,0
19086535,-6.02133e-05,-0.000365746,-0.000926715,0.692013,0.712842,0.0726374,0.0877391,1.0,0.0,0.0,0.0,0
19118616,-0.00303096,0.00066518,-0.000299022,0.692015,0.712826,0.0727094,0.0877931,1.0,0.0,0.0,0.0,0
19150560,-0.0018558,0.00194428,-0.000158515,0.692008,0.712819,0.0727812,0.0878484,1.0,0.0,0.0,0.0,0
19178624,-0.00172281,0.00303595,-0.00322425,0.692005,0.712809,0.0728466,0.0878965,1.0,0.0,0.0,0.0,0
19210525,0.000641386,0.000204759,0.00108504,0.692001,0.712801,0.0729065,0.087944,1.0,0.0,0.0,0.0,0
19242588,-0.00241786,0.000454583,-0.000753595,0.692002,0.712789,0.0729667,0.0879867,1.0,0.0,0.0,0.0,0
19274565,-0.000231653,0.00249388,0.00014346,0.691995,0.712782,0.0730238,0.0880409,1.0,0.0,0.0,0.0,0
19306463,0.000822561,0.00073002,0.000801347,0.691986,0.712782,0.0730645,0.0880817,1.0,0.0,0.0,0.0,0
19339309,0.00119605,0.00222912,-0.00170773,0.691986,0.712775,0.0731128,0.0881015,1.0,0.0,0.0,0.0,0
19371311,-0.000181145,0.00458259,-0.00200589,0.691984,0.712771,0.0731427,0.0881259,1.0,0.0,0.0,0.0,0
19403343,9.08161e-05,0.00163271,0.00225064,0.691983,0.712767,0.0731585,0.0881464,1.0,0.0,0.0,0.0,0
19435299,-0.00117053,0.00124946,0.00224525,0.691986,0.712757,0.0731802,0.0881908,1.0,0.0,0.0,0.0,0
19467466,-0.00116368,0.00146688,0.00203573,0.691973,0.712762,0.0732082,0.0882272,1.0,0.0,0.0,0.0,0
19499284,-0.00185158,0.00216662,0.000913181,0.69198,0.712746,0.0732387,0.0882826,1.0,0.0,0.0,0.0,0
19531335,-0.000702163,0.00210976,-0.000284145,0.691987,0.712731,0.0732721,0.0883153,1.0,0.0,0.0,0.0,0
19563311,-0.000191421,0.000797798,0.000303018,0.691995,0.712717,0.0733076,0.0883408,1.0,0.0,0.0,0.0,0
19591338,-0.00148417,0.00149219,0.00247973,0.692004,0.712702,0.0733315,0.0883678,1.0,0.0,0.0,0.0,0
19623310,-0.000498815,0.00372195,-0.00118755,0.692006,0.712689,0.0733797,0.0884192,1.0,0.0,0.0,0.0,0
19655321,0.00260042,0.000614238,-0.000523542,0.691991,0.71269,0.0734375,0.088477,1.0,0.0,0.0,0.0,0
19687319,0.00123263,0.00249217,0.000426305,0.691979,0.712687,0.0734968,0.0885466,1.0,0.0,0.0,0.0,0
19719412,0.00018569,-0.000470364,-2.90852e-06,0.69198,0.71267,0.0735705,0.0886183,1.0,0.0,0.0,0.0,0
19751289,0.000882245,0.00183596,-0.00139983,0.691971,0.712661,0.0736405,0.0886983,1.0,0.0,0.0,0.0,0
19783325,-0.000493643,0.00162714,-0.00117001,0.691963,0.712656,0.0737099,0.0887472,1.0,0.0,0.0,0.0,0
19815339,0.00288951,0.00221362,0.00230659,0.691951,0.712653,0.0737796,0.0887996,1.0,0.0,0.0,0.0,0
19844989,-0.00121888,0.00280938,0.000113687,0.691948,0.712642,0.0738352,0.0888667,1.0,0.0,0.0,0.0,0
19876928,0.000125661,-0.000675534,-0.00191254,0.691939,0.71264,0.0738874,0.0889127,1.0,0.0,0.0,0.0,0
19909807,-0.00159681,-0.0013148,-0.00084252,0.691937,0.712632,0.0739316,0.0889573,1.0,0.0,0.0,0.0,0
19937883,-6.29681e-05,0.00237631,-0.0010376,0.691931,0.712627,0.0739893,0.0889953,1.0,0.0,0.0,0.0,0
19969810,-0.000677611,0.000926676,0.000405592,0.691927,0.712619,0.0740396,0.0890504,1.0,0.0,0.0,0.0,0
20001710,-0.00234443,0.000637605,-0.0028692,0.691921,0.712615,0.0740932,0.0890831,1.0,0.0,0.0,0.0,0
20033781,-0.000785135,0.00153881,0.00140007,0.691912,0.712615,0.0741352,0.0891195,1.0,0.0,0.0,0.0,0
20065706,0.00240191,-0.00045703,0.000513267,0.691905,0.712614,0.074165,0.0891475,1.0,0.0,0.0,0.0,0
20097717,0.000913906,0.00130568,0.000938084,0.691909,0.712604,0.0741886,0.0891781,1.0,0.0,0.0,0.0,0
20129836,0.000347301,0.00326463,-4.43761e-05,0.691909,0.7126,0.0742001,0.0892052,1.0,0.0,0.0,0.0,0
20158585,0.000569639,0.00197963,-0.000202228,0.691911,0.712596,0.0742176,0.0892114,1.0,0.0,0.0,0.0,0
20190664,0.00267475,0.000527061,-0.0011591,0.691901,0.712603,0.0742338,0.0892128,1.0,0.0,0.0,0.0,0
20224121,-0.000306342,0.00238304,0.00037341,0.691912,0.712592,0.0742328,0.0892182,1.0,0.0,0.0,0.0,0
20256232,-0.000696792,0.00245275,-0.000591548,0.691912,0.712592,0.0742289,0.0892189,1.0,0.0,0.0,0.0,0
20288277,6.15846e-05,0.00227465,0.000988725,0.691909,0.712593,0.0742411,0.0892338,1.0,0.0,0.0,0.0,0
20320279,0.0010182,-0.00107158,-0.000335629,0.691906,0.712594,0.0742484,0.0892412,1.0,0.0,0.0,0.0,0
20352118,0.000329514,0.00297579,-0.00101007,0.691899,0.712599,0.0742561,0.0892493,1.0,0.0,0.0,0.0,0
20384231,-0.0039402,0.000583094,-0.000298429,0.691908,0.712586,0.0742635,0.0892725,1.0,0.0,0.0,0.0,0
20416029,-0.00079821,0.00216808,0.000905239,0.691921,0.712573,0.0742515,0.0892874,1.0,0.0,0.0,0.0,0
20448124,0.000912323,0.00176485,-0.000211723,0.691919,0.712576,0.0742415,0.0892887,1.0,0.0,0.0,0.0,0
20480206,0.00226334,0.00362038,-0.000392385,0.691924,0.712569,0.0742402,0.089305,1.0,0.0,0.0,0.0,0
20512167,0.000391992,0.000161791,-0.00153778,0.691919,0.712568,0.0742606,0.0893329,1.0,0.0,0.0,0.0,0
20540165,-0.000162497,0.00364584,0.00118806,0.691925,0.712557,0.074267,0.0893667,1.0,0.0,0.0,0.0,0
20572163,0.00315438,0.00252427,0.000521317,0.691921,0.712555,0.0742954,0.0893904,1.0,0.0,0.0,0.0,0
20604124,-0.0010734,0.00240604,0.00165947,0.691921,0.712547,0.0743263,0.0894293,1.0,0.0,0.0,0.0,0
20636257,-0.000931672,-0.000531103,-0.00016538,0.691922,0.712541,0.0743363,0.0894643,1.0,0.0,0.0,0.0,0
20668144,-0.00107902,0.000934424,-0.000326972,0.691917,0.712538,0.0743734,0.0894925,1.0,0.0,0.0,0.0,0
20700258,-0.00124592,0.00272296,0.000403828,0.691925,0.712523,0.0744016,0.0895276,1.0,0.0,0.0,0.0,0
20732178,0.00238041,0.00261869,0.00085859,0.691915,0.712526,0.0744315,0.0895583,1.0,0.0,0.0,0.0,0
20764234,0.00207913,0.00467572,0.000839824,0.691908,0.712523,0.0744646,0.0896088,1.0,0.0,0.0,0.0,0
20792102,-0.000891008,4.17647e-05,0.00176669,0.691911,0.712512,0.0744977,0.0896394,1.0,0.0,0.0,0.0,0
20824157,0.000402014,0.00271669,-0.000267369,0.691915,0.712502,0.0745327,0.0896627,1.0,0.0,0.0,0.0,0
20856094,0.0011842,0.00261053,-0.00125605,0.691915,0.712496,0.0745556,0.0896981,1.0,0.0,0.0,0.0,0
20888214,0.000629009,0.0022553,0.00269017,0.691914,0.712487,0.0745996,0.0897335,1.0,0.0,0.0,0.0,0
20920136,-0.00191294,0.000496773,0.00158184,0.691913,0.71248,0.0746188,0.0897824,1.0,0.0,0.0,0.0,0
20952153,-0.00350075,0.000900201,-0.00111519,0.691919,0.712466,0.0746525,0.0898185,1.0,0.0,0.0,0.0,0
20984160,-0.00152801,0.00229761,0.000921775,0.691921,0.712455,0.0746783,0.0898616,1.0,0.0,0.0,0.0,0
21016242,0.000571217,-0.000323496,0.00132423,0.691921,0.712446,0.0747209,0.0899046,1.0,0.0,0.0,0.0,0
21048141,0.00130349,0.00283886,0.000222446,0.691915,0.71244,0.0747686,0.089965,1.0,0.0,0.0,0.0,0
21080227,0.00185939,0.00147121,-0.000468317,0.691904,0.712436,0.0748288,0.0900257,1.0,0.0,0.0,0.0,0
21112215,0.00297715,0.00277205,-0.00118227,0.691903,0.712427,0.0748828,0.0900604,1.0,0.0,0.0,0.0,0
21144244,-0.000325161,0.00139477,-0.00106043,0.691896,0.712422,0.0749454,0.0901007,1.0,0.0,0.0,0.0,0
21176143,-0.00228051,0.00281601,-0.000228771,0.691901,0.712406,0.0749945,0.0901439,1.0,0.0,0.0,0.0,0
21208230,-0.00015563,0.00323188,-0.000135848,0.691898,0.7124,0.0750362,0.0901823,1.0,0.0,0.0,0.0,0
21240283,-0.000325721,0.00282652,-0.000653855,0.691888,0.712402,0.0750738,0.09021,1.0,0.0,0.0,0.0,0
21272221,0.00136818,-6.75139e-05,0.00257803,0.691881,0.712403,0.075092,0.0902401,1.0,0.0,0.0,0.0,0
21304165,-0.00101814,-0.000185296,0.000162411,0.691876,0.712402,0.0751091,0.0902749,1.0,0.0,0.0,0.0,0
21336915,-0.00166413,0.00202883,0.000261433,0.691887,0.71239,0.0751225,0.090282,1.0,0.0,0.0,0.0,0
21368996,-0.00176752,0.000924308,0.000758379,0.691897,0.712378,0.075131,0.0902876,1.0,0.0,0.0,0.0,0
21400976,-0.000348582,0.00258026,0.00218187,0.691893,0.71238,0.0751266,0.0903038,1.0,0.0,0.0,0.0,0
21428971,0.000118928,0.00121584,-0.00162705,0.691896,0.712376,0.0751282,0.0903089,1.0,0.0,0.0,0.0,0
21460900,-0.000200693,0.00021289,-6.08005e-05,0.691906,0.712367,0.0751281,0.0903041,1.0,0.0,0.0,0.0,0
21492917,-0.000807128,0.00099975,0.00160879,0.691906,0.712365,0.0751277,0.0903283,1.0,0.0,0.0,0.0,0
21524928,-0.000511522,0.000961786,-0.000115131,0.691911,0.712359,0.0751232,0.0903385,1.0,0.0,0.0,0.0,0
21557780,0.00087438,0.00251893,-0.000284683,0.691914,0.712353,0.07512,0.0903565,1.0,0.0,0.0,0.0,0
21586623,0.000672302,0.00220795,0.000977903,0.691903,0.712361,0.0751367,0.0903723,1.0,0.0,0.0,0.0,0
21618566,-0.00137822,-0.000273137,-0.000347786,0.691908,0.712351,0.0751523,0.0903925,1.0,0.0,0.0,0.0,0
21650557,-0.000193187,0.00182594,-0.000614664,0.691909,0.712347,0.0751694,0.0904069,1.0,0.0,0.0,0.0,0
21682607,-0.00188591,0.00213205,-0.000989654,0.691908,0.712348,0.0751707,0.0904056,1.0,0.0,0.0,0.0,0
21714571,-8.21613e-06,0.00075805,-0.00108709,0.691928,0.712332,0.0751592,0.0903906,1.0,0.0,0.0,0.0,0
21746560,9.14577e-05,0.00274899,-0.00101455,0.691936,0.712326,0.0751519,0.0903796,1.0,0.0,0.0,0.0,0
21778671,-0.000521747,0.00231431,-0.000498699,0.691943,0.712322,0.0751455,0.0903623,1.0,0.0,0.0,0.0,0
21810610,-0.00246987,0.00134498,-0.000696265,0.691954,0.712315,0.0751332,0.0903448,1.0,0.0,0.0,0.0,0
21842668,-0.000307749,0.000446866,0.00040549,0.691967,0.712308,0.0751077,0.0903236,1.0,0.0,0.0,0.0,0
21874601,-0.000766194,0.000339849,-0.000537647,0.691968,0.712313,0.0750852,0.0902922,1.0,0.0,0.0,0.0,0
21906557,0.00275714,0.00142508,-0.00110682,0.691966,0.712323,0.0750557,0.0902539,1.0,0.0,0.0,0.0,0
21938503,0.00179182,0.00196245,-0.00180636,0.691976,0.712319,0.0750433,0.0902235,1.0,0.0,0.0,0.0,0
21970638,-0.000821623,0.00156818,0.000574139,0.691991,0.712311,0.0750141,0.0901859,1.0,0.0,0.0,0.0,0
22002493,-0.000212502,0.000377788,0.000408342,0.691995,0.712315,0.0749741,0.0901594,1.0,0.0,0.0,0.0,0
22034544,-0.00243752,0.000469316,0.00013376,0.691993,0.712323,0.0749449,0.0901383,1.0,0.0,0.0,0.0,0
22066511,-2.70829e-06,0.000392234,-0.000346527,0.691997,0.712328,0.0749129,0.0900889,1.0,0.0,0.0,0.0,0
22098491,-0.000660426,0.00150213,-0.00178445,0.691999,0.712335,0.074873,0.0900579,1.0,0.0,0.0,0.0,0
22130530,0.000794916,0.0021009,0.00152337,0.69201,0.71233,0.074841,0.090036,1.0,0.0,0.0,0.0,0
22162624,-0.000618507,0.000822415,0.000851134,0.692019,0.712331,0.0748022,0.0899983,1.0,0.0,0.0,0.0,0
22194541,0.000788876,0.00110605,0.00149258,0.692032,0.712328,0.074754,0.0899627,1.0,0.0,0.0,0.0,0
22226454,-0.00109264,0.000446434,-0.0012761,0.692044,0.712324,0.0746998,0.0899361,1.0,0.0,0.0,0.0,0
22255321,-0.000113099,0.00352426,-0.000954629,0.692045,0.712331,0.0746718,0.0899027,1.0,0.0,0.0,0.0,0
22287256,0.000641399,0.00307223,-0.000677903,0.692054,0.712332,0.0746268,0.0898598,1.0,0.0,0.0,0.0,0
22319359,-0.000872179,0.00223262,-0.00163411,0.692056,0.712341,0.074583,0.0898109,1.0,0.0,0.0,0.0,0
22351327,-0.00126367,0.00204436,0.000283277,0.692064,0.712343,0.0745421,0.0897623,1.0,0.0,0.0,0.0,0
22383420,-1.67033e-06,0.00251119,-0.00109906,0.692071,0.712345,0.0745096,0.0897273,1.0,0.0,0.0,0.0,0
22415299,0.00149337,0.00301433,-0.000578758,0.692073,0.712353,0.074474,0.0896805,1.0,0.0,0.0,0.0,0
22447540,0.000408358,0.000895001,-0.00106973,0.692075,0.712363,0.0744236,0.0896275,1.0,0.0,0.0,0.0,0
22475318,-0.000949031,0.00230776,0.000725261,0.69208,0.712367,0.0743769,0.0895923,1.0,0.0,0.0,0.0,0
22507335,0.00290216,0.000247192,0.00130645,0.692076,0.712378,0.0743409,0.0895604,1.0,0.0,0.0,0.0,0
22539328,0.00107538,0.0034469,0.000849519,0.692085,0.712377,0.0743136,0.0895271,1.0,0.0,0.0,0.0,0
22571439,-0.000461779,0.000676535,-0.00158931,0.692091,0.712379,0.0742735,0.0894955,1.0,0.0,0.0,0.0,0
22603265,0.000320926,-0.00133762,0.000877597,0.692101,0.712376,0.0742404,0.0894715,1.0,0.0,0.0,0.0,0
22635340,-0.0027279,0.00221457,0.00214798,0.692104,0.712381,0.0742031,0.0894375,1.0,0.0,0.0,0.0,0
22667325,-0.0016074,0.00321411,0.00024303,0.692112,0.712379,0.0741895,0.0894067,1.0,0.0,0.0,0.0,0
22699347,-0.000161948,0.00124189,0.0018398,0.692122,0.712377,0.0741448,0.0893738,1.0,0.0,0.0,0.0,0
22727313,-0.000464129,-0.000971729,-0.00197315,0.692125,0.712382,0.0741124,0.0893448,1.0,0.0,0.0,0.0,0
22759339,-0.00135623,0.00133128,0.00121775,0.692119,0.712396,0.0740828,0.0893031,1.0,0.0,0.0,0.0,0
22791308,0.00128098,0.00293254,0.00104353,0.692122,0.7124,0.0740438,0.0892806,1.0,0.0,0.0,0.0,0
22823359,0.000980653,0.00226416,0.00111958,0.69212,0.712411,0.0740032,0.0892425,1.0,0.0,0.0,0.0,0
22855288,0.00155876,0.00154357,-0.00191111,0.69213,0.71241,0.0739751,0.0891911,1.0,0.0,0.0,0.0,0
22887350,-0.00105826,0.00339759,0.00152214,0.69213,0.712418,0.0739551,0.0891508,1.0,0.0,0.0,0.0,0
22919270,-0.000317797,-0.00140309,0.00153002,0.692126,0.712431,0.073907,0.0891089,1.0,0.0,0.0,0.0,0
22951327,-0.00138691,0.00220723,-0.000467704,0.692129,0.712435,0.0738804,0.0890811,1.0,0.0,0.0,0.0,0
22983294,0.000327299,0.000522926,-0.000742464,0.692131,0.712439,0.0738564,0.0890553,1.0,0.0,0.0,0.0,0
23011408,0.000208137,0.000667501,0.000417119,0.692124,0.712451,0.0738374,0.0890275,1.0,0.0,0.0,0.0,0
23043407,0.000640907,0.00226651,0.000816354,0.692121,0.71246,0.0738165,0.0889987,1.0,0.0,0.0,0.0,0
23075448,-0.00154573,0.00023582,-0.00261769,0.692127,0.712458,0.0738022,0.0889796,1.0,0.0,0.0,0.0,0
23107339,0.000515727,0.00130521,0.000217169,0.692135,0.712454,0.0737718,0.0889663,1.0,0.0,0.0,0.0,0
23139467,0.00140425,0.00222356,0.000997002,0.692137,0.712457,0.0737504,0.0889492,1.0,0.0,0.0,0.0,0
23171339,0.00133932,0.00202783,-0.00209515,0.692145,0.712452,0.0737468,0.0889313,1.0,0.0,0.0,0.0,0
23203367,-0.00148084,-0.000387194,0.000320168,0.692154,0.712445,0.0737465,0.0889185,1.0,0.0,0.0,0.0,0
23231430,0.00137731,-6.18072e-05,-0.000264138,0.692152,0.712448,0.0737507,0.0889111,1.0,0.0,0.0,0.0,0
23263285,0.00051844,0.000147071,-0.000980745,0.692151,0.712452,0.0737385,0.0888952,1.0,0.0,0.0,0.0,0
23295287,0.00129257,0.00120876,1.28932e-05,0.692152,0.712453,0.0737387,0.088884,1.0,0.0,0.0,0.0,0
23328920,0.00172605,0.000964097,0.00030181,0.692142,0.712463,0.0737392,0.0888715,1.0,0.0,0.0,0.0,0
23360924,-0.000728317,0.000662747,0.000368069,0.692151,0.712454,0.0737435,0.088873,1.0,0.0,0.0,0.0,0
23388995,0.00234758,0.000955935,0.000941684,0.692151,0.712453,0.0737419,0.0888769,1.0,0.0,0.0,0.0,0
23420924,0.0012653,0.00106814,-0.000100975,0.692155,0.712448,0.0737404,0.0888905,1.0,0.0,0.0,0.0,0
23452855,-0.00305926,0.000159122,0.00163189,0.692158,0.712444,0.0737443,0.0888989,1.0,0.0,0.0,0.0,0
23484925,-0.000686629,0.00178051,-0.00134267,0.692156,0.712444,0.0737653,0.0888964,1.0,0.0,0.0,0.0,0
23516921,-0.000306323,0.000906093,0.00151795,0.692162,0.712438,0.0737661,0.088897,1.0,0.0,0.0,0.0,0
23548987,0.000472326,0.0013503,0.00121964,0.692157,0.712441,0.0737763,0.0889045,1.0,0.0,0.0,0.0,0
23581027,0.000633194,0.00258334,-0.00035085,0.692159,0.712436,0.0737883,0.0889168,1.0,0.0,0.0,0.0,0
23612906,0.00154984,0.00170148,-0.00210289,0.692157,0.712438,0.0737944,0.0889188,1.0,0.0,0.0,0.0,0
23644978,0.000647521,0.00285516,0.000725813,0.692157,0.712434,0.0737966,0.0889399,1.0,0.0,0.0,0.0,0
23677059,-0.000748422,0.000942611,0.000576102,0.692157,0.712431,0.07381,0.0889559,1.0,0.0,0.0,0.0,0
23709877,-0.00113634,0.00121454,-0.00139267,0.692159,0.712428,0.0738117,0.0889604,1.0,0.0,0.0,0.0,0
23741813,-0.00142215,0.00272904,-0.00223308,0.69216,0.712425,0.0738244,0.088968,1.0,0.0,0.0,0.0,0
23773742,0.000322791,0.00326563,0.00042855,0.692155,0.712427,0.0738411,0.0889758,1.0,0.0,0.0,0.0,0
23801690,-9.15159e-05,-9.43432e-05,0.00138867,0.692152,0.712429,0.0738418,0.0889813,1.0,0.0,0.0,0.0,0
23833723,-0.000359913,0.00108482,-0.00135834,0.692152,0.712432,0.0738337,0.0889655,1.0,0.0,0.0,0.0,0
23865749,0.00129423,0.00213864,0.00175716,0.69215,0.712435,0.0738363,0.0889581,1.0,0.0,0.0,0.0,0
23897758,0.000416706,0.000924937,0.00033691,0.692158,0.712427,0.0738333,0.0889613,1.0,0.0,0.0,0.0,0
23929864,0.000875819,0.00266626,-0.00134511,0.692163,0.712423,0.0738373,0.0889509,1.0,0.0,0.0,0.0,0
23961711,-0.00131693,0.00244858,-0.000951694,0.692165,0.712421,0.0738342,0.0889523,1.0,0.0,0.0,0.0,0
23993798,0.00093085,-0.000327013,-0.000577542,0.69217,0.712416,0.073834,0.0889534,1.0,0.0,0.0,0.0,0
24025744,-0.00240545,0.000992887,0.00165756,0.692166,0.712418,0.0738314,0.0889658,1.0,0.0,0.0,0.0,0
24053790,0.00192927,-0.000162679,0.00240103,0.692161,0.712424,0.073826,0.0889617,1.0,0.0,0.0,0.0,0
24085767,5.02402e-06,0.00166248,-0.00220233,0.692165,0.712419,0.0738314,0.0889681,1.0,0.0,0.0,0.0,0
24117720,0.00102412,0.000713831,-0.000847531,0.692166,0.71242,0.073824,0.0889627,1.0,0.0,0.0,0.0,0
24149833,-0.00157137,-0.000569388,0.0020146,0.692168,0.712421,0.0738034,0.0889575,1.0,0.0,0.0,0.0,0
24181832,0.0023727,0.00281527,0.000364388,0.692159,0.712431,0.0737967,0.0889479,1.0,0.0,0.0,0.0,0
24213787,0.000319719,0.00211279,0.00134272,0.692165,0.712427,0.073796,0.0889331,1.0,0.0,0.0,0.0,0
24245829,0.00255181,-0.000502413,0.000239014,0.692164,0.712431,0.0737831,0.0889254,1.0,0.0,0.0,0.0,0
24277938,0.000108815,0.000712655,-0.000630311,0.692167,0.712429,0.0737798,0.088918,1.0,0.0,0.0,0.0,0
24309907,-0.00192753,-0.000253036,-0.000403933,0.692171,0.712426,0.0737711,0.0889147,1.0,0.0,0.0,0.0,0
24341712,-0.000928034,0.00148468,0.00133407,0.692174,0.712424,0.0737723,0.0889058,1.0,0.0,0.0,0.0,0
24373638,-0.00153525,0.00299791,-0.00188412,0.692174,0.712422,0.073788,0.0889097,1.0,0.0,0.0,0.0,0
24405765,0.00130153,0.0011055,-0.00233579,0.692177,0.71242,0.0737894,0.0889055,1.0,0.0,0.0,0.0,0
24437750,0.000426633,0.00217157,-3.81446e-05,0.69218,0.712415,0.0737986,0.0889132,1.0,0.0,0.0,0.0,0
24469841,-0.000603149,0.00139571,0.00104003,0.692179,0.712413,0.0738051,0.088934,1.0,0.0,0.0,0.0,0
24501648,-0.000820937,0.000253751,0.00107716,0.692179,0.712409,0.0738116,0.088959,1.0,0.0,0.0,0.0,0
24529858,0.0019332,0.00371618,-0.0037365,0.692179,0.712404,0.0738506,0.0889676,1.0,0.0,0.0,0.0,0
24561645,-0.000639664,0.00220721,0.000175513,0.692182,0.712397,0.0738735,0.0889799,1.0,0.0,0.0,0.0,0
24593741,-0.00226291,0.00108121,-0.00130834,0.692183,0.71239,0.0738922,0.089007,1.0,0.0,0.0,0.0,0
24625729,-0.000602577,0.0015778,-0.00313642,0.692175,0.712392,0.0739249,0.0890289,1.0,0.0,0.0,0.0,0
24657782,-0.000382331,0.00173688,0.00112649,0.692163,0.712397,0.073968,0.0890536,1.0,0.0,0.0,0.0,0
24687351,-0.000430561,0.00112707,-0.000601886,0.692165,0.71239,0.0739933,0.0890734,1.0,0.0,0.0,0.0,0
24719352,-0.00140088,0.00250361,-8.74251e-05,0.692174,0.712376,0.0740234,0.0890875,1.0,0.0,0.0,0.0,0
24751428,-0.00222538,-0.000255776,-0.000298487,0.692185,0.712363,0.0740348,0.0890941,1.0,0.0,0.0,0.0,0
24783472,-0.00701133,0.0017504,0.000743927,0.692172,0.712372,0.0740558,0.0891088,1.0,0.0,0.0,0.0,0
24815389,-0.000407142,0.00176121,-2.55518e-05,0.692179,0.71236,0.0740746,0.0891348,1.0,0.0,0.0,0.0,0
24847463,0.00140093,0.00248506,0.000809172,0.692184,0.71235,0.07409,0.0891544,1.0,0.0,0.0,0.0,0
24879449,0.00229442,0.00149284,-0.000950061,0.69217,0.712359,0.0741114,0.0891803,1.0,0.0,0.0,0.0,0
24911316,-0.00403871,4.26006e-05,0.000917806,0.69217,0.712355,0.0741274,0.0892002,1.0,0.0,0.0,0.0,0
24939325,0.0019182,0.000258738,0.000706876,0.692174,0.71235,0.0741319,0.0892015,1.0,0.0,0.0,0.0,0
24971368,-0.00174663,0.00121952,-0.00163177,0.692176,0.712342,0.0741691,0.0892179,1.0,0.0,0.0,0.0,0
25003318,-0.000638832,0.000723798,0.000133674,0.692171,0.712342,0.0741903,0.0892475,1.0,0.0,0.0,0.0,0
25035393,-0.00106214,-0.000598687,0.000732402,0.69217,0.712336,0.0742236,0.089265,1.0,0.0,0.0,0.0,0
25067331,-0.00255285,0.000875581,0.00114592,0.692165,0.712339,0.0742346,0.0892801,1.0,0.0,0.0,0.0,0
25099262,-0.000761802,0.000811223,4.589e-05,0.692166,0.712334,0.07425,0.0892951,1.0,0.0,0.0,0.0,0
25131352,-0.000359973,0.00149981,-0.00133289,0.692168,0.712329,0.0742533,0.0893229,1.0,0.0,0.0,0.0,0
25163294,0.00133988,0.000101278,-0.0010843,0.692163,0.712331,0.0742625,0.0893261,1.0,0.0,0.0,0.0,0
25191421,0.00116204,0.000995083,-0.00135992,0.692163,0.71233,0.0742745,0.08933,1.0,0.0,0.0,0.0,0
25223390,0.000828188,0.000791805,-0.00215238,0.69216,0.712332,0.0742888,0.0893227,1.0,0.0,0.0,0.0,0
25255278,-0.000529672,-3.05537e-05,0.00159928,0.692159,0.712333,0.0742864,0.0893303,1.0,0.0,0.0,0.0,0
25287434,-2.81404e-05,0.00210394,-0.000329659,0.692158,0.712331,0.0742895,0.0893437,1.0,0.0,0.0,0.0,0
25319369,-0.000400522,0.00113967,-0.00218566,0.692159,0.712328,0.0743242,0.0893401,1.0,0.0,0.0,0.0,0
25351441,0.000933084,3.64915e-06,-0.000782093,0.692156,0.712326,0.0743435,0.0893544,1.0,0.0,0.0,0.0,0
25383437,-0.00162071,0.000595552,-0.00186263,0.692153,0.712323,0.0743625,0.089385,1.0,0.0,0.0,0.0,0
25415342,0.00234056,0.00246772,0.00133336,0.692139,0.712333,0.0743796,0.0894031,1.0,0.0,0.0,0.0,0
25447530,-0.000245658,0.00162432,-0.00119413,0.692142,0.712325,0.0744019,0.0894224,1.0,0.0,0.0,0.0,0
25479393,0.00177584,0.00298291,-0.00108958,0.69214,0.712321,0.0744254,0.0894517,1.0,0.0,0.0,0.0,0
25511422,-0.00110796,0.00256078,-0.00105677,0.692138,0.712318,0.0744497,0.0894723,1.0,0.0,0.0,0.0,0
25543311,-0.001814,0.000178401,-7.31382e-05,0.692136,0.712316,0.0744611,0.0894923,1.0,0.0,0.0,0.0,0
25575445,-0.00137258,0.00215233,0.00105896,0.69212,0.712328,0.0744811,0.0895053,1.0,0.0,0.0,0.0,0
25607318,-0.000524714,0.0040861,0.000368673,0.692119,0.712326,0.0744905,0.0895204,1.0,0.0,0.0,0.0,0
25639401,0.00127688,0.00385794,0.000656289,0.692113,0.712328,0.0744993,0.0895444,1.0,0.0,0.0,0.0,0
25667298,0.000972671,0.00207629,0.000163044,0.692107,0.712333,0.0744903,0.0895557,1.0,0.0,0.0,0.0,0
25699302,-0.00189759,0.00151794,0.000940276,0.692109,0.712331,0.074499,0.0895601,1.0,0.0,0.0,0.0,0
25731299,0.00135043,0.00254455,-0.00100489,0.692104,0.712333,0.0745074,0.0895702,1.0,0.0,0.0,0.0,0
25763340,-0.000175909,-0.00152661,0.00237807,0.692106,0.71233,0.0745177,0.0895702,1.0,0.0,0.0,0.0,0
25795368,-0.000263852,0.000744875,-0.00112323,0.692112,0.712322,0.0745203,0.0895873,1.0,0.0,0.0,0.0,0
25827460,-0.000670958,0.0016261,0.00122857,0.692108,0.712322,0.0745358,0.0896001,1.0,0.0,0.0,0.0,0
25859288,0.000207965,0.000246041,0.000313076,0.692109,0.712317,0.0745532,0.0896134,1.0,0.0,0.0,0.0,0
25891347,0.000404655,0.00277429,-0.000862058,0.692106,0.712318,0.0745726,0.0896196,1.0,0.0,0.0,0.0,0
25919344,-0.00447296,0.000280428,0.000409083,0.692118,0.712301,0.0745865,0.0896432,1.0,0.0,0.0,0.0,0
25951390,-0.000538173,-0.000576001,0.000297673,0.692113,0.712303,0.0746101,0.0896563,1.0,0.0,0.0,0.0,0
25983406,-0.000626396,0.00328695,0.000572878,0.692114,0.712294,0.0746371,0.0896993,1.0,0.0,0.0,0.0,0
26015307,0.000835976,0.00239295,-0.00184028,0.692119,0.712278,0.0746785,0.0897427,1.0,0.0,0.0,0.0,0
26047300,0.00074475,0.00123408,0.000561296,0.692116,0.712275,0.0747018,0.0897742,1.0,0.0,0.0,0.0,0
26079428,0.00251454,0.000348611,-0.00110981,0.692104,0.712279,0.0747407,0.0898071,1.0,0.0,0.0,0.0,0
26111316,0.000486433,0.00173563,-0.000813758,0.692097,0.71228,0.0747672,0.0898333,1.0,0.0,0.0,0.0,0
26143314,-0.001096,0.000417601,-0.00177903,0.692091,0.712275,0.0748206,0.0898709,1.0,0.0,0.0,0.0,0
26172933,0.000169217,0.00126577,0.00247321,0.692095,0.712264,0.074841,0.0899086,1.0,0.0,0.0,0.0,0
26205696,0.000871455,0.00280735,0.0012501,0.692093,0.712257,0.0748799,0.0899465,1.0,0.0,0.0,0.0,0
26237827,-0.000418429,0.00071299,0.000453404,0.692087,0.712256,0.0749133,0.0899698,1.0,0.0,0.0,0.0,0
26265753,-0.000599304,0.00241659,0.000434745,0.692084,0.712255,0.0749354,0.0899829,1.0,0.0,0.0,0.0,0
26297872,0.000946537,0.00120529,-0.00138773,0.69208,0.712255,0.0749566,0.0899968,1.0,0.0,0.0,0.0,0
26329840,0.00219379,0.00221309,-0.00028015,0.692075,0.712256,0.0749661,0.0900188,1.0,0.0,0.0,0.0,0
26361742,0.000131972,-0.000485827,-0.00204049,0.692073,0.712255,0.0749862,0.0900244,1.0,0.0,0.0,0.0,0
26393758,-0.00118193,-0.000683554,0.000641959,0.692075,0.712253,0.0749776,0.0900399,1.0,0.0,0.0,0.0,0
26425726,0.000423828,0.000442819,0.00138445,0.692076,0.71225,0.0749786,0.090046,1.0,0.0,0.0,0.0,0
26458574,-0.000198739,-0.000777449,0.00208884,0.692072,0.712255,0.0749685,0.0900503,1.0,0.0,0.0,0.0,0
26486512,0.0012263,0.000707721,-0.00244385,0.692059,0.712268,0.0749848,0.0900358,1.0,0.0,0.0,0.0,0
26518524,-0.00137084,-0.000340603,0.000559539,0.692062,0.712266,0.074975,0.0900342,1.0,0.0,0.0,0.0,0
26550606,-0.00323869,0.000546654,-0.000978102,0.692067,0.712261,0.0749773,0.090036,1.0,0.0,0.0,0.0,0
26582509,0.00403388,0.00196558,0.000641851,0.692048,0.712277,0.0749873,0.0900403,1.0,0.0,0.0,0.0,0
26614606,0.00212979,-0.000382034,0.000682237,0.692049,0.712276,0.0749716,0.0900558,1.0,0.0,0.0,0.0,0
26646565,0.00165422,0.00278294,-0.00128913,0.692031,0.712293,0.0749805,0.0900581,1.0,0.0,0.0,0.0,0
26678495,-0.000544854,0.00187313,0.000196216,0.692024,0.712299,0.0749848,0.0900574,1.0,0.0,0.0,0.0,0
26710559,-0.00130575,0.00174239,0.000423712,0.692016,0.712307,0.0749928,0.0900498,1.0,0.0,0.0,0.0,0
26738544,0.000697583,0.00045758,-0.00148639,0.692014,0.712308,0.0749943,0.0900507,1.0,0.0,0.0,0.0,0
26770607,0.00059708,0.0015051,-0.00123687,0.692018,0.712303,0.0749914,0.0900659,1.0,0.0,0.0,0.0,0
26802661,-0.00190483,0.000369121,0.00242623,0.692023,0.712297,0.0749984,0.0900711,1.0,0.0,0.0,0.0,0
26834549,0.000633214,0.00227804,0.000625995,0.692014,0.712304,0.0749992,0.0900838,1.0,0.0,0.0,0.0,0
26866624,-0.00260039,0.000848711,-0.000875934,0.692023,0.712292,0.0750124,0.0900982,1.0,0.0,0.0,0.0,0
26898615,0.00294105,0.0023843,0.000790983,0.692006,0.712304,0.0750286,0.0901145,1.0,0.0,0.0,0.0,0
26930488,0.00299038,0.00293014,0.000501425,0.692004,0.712302,0.075039,0.0901431,1.0,0.0,0.0,0.0,0
26962556,-0.000276724,0.0016111,-0.00133439,0.692008,0.712293,0.0750706,0.0901577,1.0,0.0,0.0,0.0,0
26990496,0.00118775,0.00307209,-0.000107832,0.692004,0.712293,0.0750786,0.0901781,1.0,0.0,0.0,0.0,0
27022501,0.00316831,0.0012198,-0.000324605,0.691996,0.712299,0.075091,0.0901858,1.0,0.0,0.0,0.0,0
27054596,0.000214734,0.00237029,0.00104877,0.692001,0.712292,0.0751016,0.0901974,1.0,0.0,0.0,0.0,0
27086540,-0.00123286,0.00121157,0.000716824,0.692,0.712289,0.075113,0.09021,1.0,0.0,0.0,0.0,0
27118469,-0.00137543,0.00140677,0.00104597,0.691995,0.712291,0.0751279,0.0902247,1.0,0.0,0.0,0.0,0
27150552,-0.00120808,0.00152442,-0.0017165,0.69199,0.712293,0.0751482,0.0902314,1.0,0.0,0.0,0.0,0
27182490,0.000426841,0.00304962,0.000116546,0.691989,0.712288,0.0751761,0.0902561,1.0,0.0,0.0,0.0,0
27214545,0.000194338,0.00124413,-5.65192e-05,0.69199,0.712285,0.075182,0.0902653,1.0,0.0,0.0,0.0,0
27242618,0.00136624,0.000404661,0.000103193,0.691984,0.712287,0.0751898,0.0902897,1.0,0.0,0.0,0.0,0
27274569,-0.000672202,0.00222213,-0.000751878,0.69198,0.712287,0.0752078,0.0902984,1.0,0.0,0.0,0.0,0
27306627,0.00158483,0.00369128,0.00184212,0.691971,0.712293,0.0752205,0.0903128,1.0,0.0,0.0,0.0,0
27338556,0.000303092,0.00303094,0.000236952,0.691959,0.712301,0.075232,0.0903288,1.0,0.0,0.0,0.0,0
27372151,0.00192448,0.000859871,0.000742784,0.691955,0.712303,0.0752328,0.0903449,1.0,0.0,0.0,0.0,0
27404206,0.00194474,0.00229467,0.00219759,0.69195,0.712309,0.0752162,0.0903512,1.0,0.0,0.0,0.0,0
27436112,-0.000859757,0.00287255,0.000991099,0.691942,0.712316,0.0752252,0.0903534,1.0,0.0,0.0,0.0,0
27468228,-0.000770353,0.00210343,-0.00116249,0.691936,0.71232,0.0752297,0.0903614,1.0,0.0,0.0,0.0,0
27500315,0.000502407,0.00233793,0.000307955,0.691936,0.712321,0.075224,0.0903563,1.0,0.0,0.0,0.0,0
27532121,0.000911065,0.00124626,-0.000696508,0.691936,0.712321,0.075225,0.0903531,1.0,0.0,0.0,0.0,0
27564203,-0.000323106,0.00213817,0.00116974,0.691937,0.712318,0.0752313,0.0903708,1.0,0.0,0.0,0.0,0
27596137,0.000600487,0.00189708,-0.00109411,0.691935,0.712318,0.0752409,0.0903781,1.0,0.0,0.0,0.0,0
27624124,0.00110181,0.00104591,-0.00176709,0.691939,0.712312,0.0752449,0.0903884,1.0,0.0,0.0,0.0,0
27656115,0.00278059,0.00400639,-0.00317962,0.69192,0.712329,0.0752706,0.0903817,1.0,0.0,0.0,0.0,0
27688117,0.00146519,0.00238952,-2.54456e-05,0.691925,0.712321,0.0752666,0.0904144,1.0,0.0,0.0,0.0,0
27720236,-0.00016366,-3.85803e-05,0.0023654,0.691921,0.712322,0.0752794,0.0904216,1.0,0.0,0.0,0.0,0
27752203,-0.000773934,0.00112793,-0.000459023,0.691927,0.712315,0.0752691,0.0904375,1.0,0.0,0.0,0.0,0
27784057,-0.000848287,0.000388836,0.00144458,0.691922,0.712319,0.0752723,0.090444,1.0,0.0,0.0,0.0,0
27816112,-0.0012959,0.00203667,0.000442337,0.691929,0.71231,0.0752739,0.09046,1.0,0.0,0.0,0.0,0
27848132,0.000209135,0.00187941,0.000845608,0.691929,0.712311,0.0752633,0.0904595,1.0,0.0,0.0,0.0,0
27876194,0.00240178,0.000592629,-0.000768704,0.691941,0.712304,0.0752353,0.0904418,1.0,0.0,0.0,0.0,0
27908233,0.000403975,0.000182912,2.75313e-05,0.691945,0.712308,0.0751894,0.0904207,1.0,0.0,0.0,0.0,0
