timestamp,ref_timestamp,ref_lat,ref_lon,x,y,z,delta_xy[0],delta_xy[1],delta_z,vx,vy,vz,z_deriv,delta_vxy[0],delta_vxy[1],delta_vz,ax,ay,az,yaw,ref_alt,dist_bottom,dist_bottom_rate,eph,epv,evh,evv,vxy_max,vz_max,hagl_min,hagl_max,xy_valid,z_valid,v_xy_valid,v_z_valid,xy_reset_counter,z_reset_counter,vxy_reset_counter,vz_reset_counter,xy_global,z_global,dist_bottom_valid
8937877,0,0.0,0.0,0.0,0.0,0.449742,5.76515e-08,-3.1466e-07,0.0,0.00167665,0.00919705,-0.0449368,0.00400065,1.44962e-05,-7.912e-05,0.0,-0.0108635,-0.00757375,-0.0249707,0.244456,0.0,0.115754,0.0449368,0.174975,0.344144,0.27791,0.267639,inf,inf,inf,inf,0,1,0,1,1,0,1,1,0,0,0
8941685,0,0.0,0.0,0.0,0.0,0.449562,5.76515e-08,-3.1466e-07,0.0,0.00172335,0.00918403,-0.0449965,0.00394089,1.44962e-05,-7.912e-05,0.0,0.011641,-0.00324683,-0.0148952,0.24442,0.0,0.115934,0.0449965,0.174975,0.344144,0.27791,0.267639,inf,inf,inf,inf,0,1,0,1,1,0,1,1,0,0,0
9045820,0,0.0,0.0,0.0,0.0,0.452235,5.76515e-08,-3.1466e-07,0.0,0.00271041,0.00905856,-0.043154,0.00707945,1.44962e-05,-7.912e-05,0.0,-0.00468411,0.0268021,-0.0223295,0.243296,0.0,0.112792,0.043154,0.172773,0.342013,0.269999,0.262705,inf,inf,inf,inf,0,1,0,1,1,0,1,1,0,0,0
9145777,0,0.0,0.0,0.0,0.0,0.454104,5.76515e-08,-3.1466e-07,0.0,0.00330776,0.00972485,-0.042355,0.0078785,1.44962e-05,-7.912e-05,0.0,0.00866721,0.0192172,-0.0413499,0.24242,0.0,0.1,0.042355,0.170598,0.339822,0.262384,0.257792,inf,inf,inf,inf,0,1,0,1,1,0,1,1,0,0,0
9245691,0,0.0,0.0,0.0,0.0,0.450822,5.76515e-08,-3.1466e-07,0.0,0.0034475,0.010007,-0.0442058,0.00156289,1.44962e-05,-7.912e-05,0.0,-0.00315846,0.00615226,-0.0339455,0.241573,0.0,0.104214,0.0442058,0.171564,0.340647,0.258965,0.254911,inf,inf,inf,inf,0,1,0,1,1,0,1,1,0,0,0
9349834,0,0.0,0.0,0.0,0.0,0.451509,5.76515e-08,-3.1466e-07,0.0,0.00364916,0.00978576,-0.0428708,0.00288694,1.44962e-05,-7.912e-05,0.0,-0.00493428,-0.00233456,0.00180517,0.240641,0.0,0.113582,0.0428708,0.169399,0.33828,0.251917,0.250105,inf,inf,inf,inf,0,1,0,1,1,0,1,1,0,0,0
9449872,0,0.0,0.0,0.0,0.0,0.454434,5.76515e-08,-3.1466e-07,0.0,0.00408292,0.0100529,-0.0401866,0.00744224,1.44962e-05,-7.912e-05,0.0,0.0137337,-0.01307,-0.00644201,0.239915,0.0,0.104308,0.0401866,0.16731,0.335909,0.245194,0.245372,inf,inf,inf,inf,0,1,0,1,1,0,1,1,0,0,0
9549822,0,0.0,0.0,0.0,0.0,0.454705,5.76515e-08,-3.1466e-07,0.0,0.00405736,0.0111849,-0.0395989,0.0072537,1.44962e-05,-7.912e-05,0.0,0.00253635,0.0238265,-0.00798615,0.239444,0.0,0.108702,0.0395989,0.16843,0.336683,0.242481,0.242611,inf,inf,inf,inf,0,1,0,1,1,0,1,1,0,0,0
9653767,0,0.0,0.0,0.0,0.0,0.454194,5.76515e-08,-3.1466e-07,0.0,0.00358852,0.0120447,-0.0395615,0.00545062,1.44962e-05,-7.912e-05,0.0,-0.0241149,0.0271193,-0.0182132,0.23934,0.0,0.1,0.0395615,0.16636,0.334261,0.236169,0.237976,inf,inf,inf,inf,0,1,0,1,1,0,1,1,0,0,0
9753744,0,0.0,0.0,0.0,0.0,0.45633,5.76515e-08,-3.1466e-07,0.0,0.00306543,0.0136279,-0.0375167,0.00848331,1.44962e-05,-7.912e-05,0.0,-0.00299045,0.0143109,-0.0108638,0.239596,0.0,0.116362,0.0375167,0.168411,0.336213,0.234149,0.235577,inf,inf,inf,inf,0,1,0,1,1,0,1,1,0,0,0
9857888,0,0.0,0.0,0.0,0.0,0.460983,5.76515e-08,-3.1466e-07,0.0,0.00316402,0.0135552,-0.0344682,0.0145768,1.44962e-05,-7.912e-05,0.0,-0.00448379,0.0111217,0.0104671,0.240195,0.0,0.112004,0.0344682,0.165523,0.33326,0.227155,0.230736,inf,inf,inf,inf,0,1,0,1,1,0,1,1,0,0,0
9961708,0,0.0,0.0,0.0,0.0,0.460873,5.76515e-08,-3.1466e-07,0.0,0.0028209,0.0135753,-0.0339959,0.012636,1.44962e-05,-7.912e-05,0.0,-0.00718799,0.0331379,-0.0147449,0.240551,0.0,0.1,0.0339959,0.16689,0.334704,0.224593,0.228141,inf,inf,inf,inf,0,1,0,1,1,0,1,1,0,0,0
10061840,0,0.0,0.0,0.0,0.0,0.455448,5.76515e-08,-3.1466e-07,0.0,0.00195678,0.0138595,-0.0363887,0.00343587,1.44962e-05,-7.912e-05,0.0,-0.00738858,0.0287741,-0.00602648,0.240565,0.0,0.1,0.0363887,0.166565,0.334424,0.220777,0.224986,inf,inf,inf,inf,0,1,0,1,1,0,1,1,0,0,0
10165769,0,0.0,0.0,0.0,0.0,0.450826,5.76515e-08,-3.1466e-07,0.0,0.00167571,0.0133764,-0.0385512,-0.00375448,1.44962e-05,-7.912e-05,0.0,-0.00526858,0.0387995,-0.000667986,0.240287,0.0,0.1,0.0385512,0.163561,0.331148,0.214376,0.22023,inf,inf,inf,inf,0,1,0,1,1,0,1,1,0,0,0
10266538,0,0.0,0.0,0.0,0.0,0.446936,5.76515e-08,-3.1466e-07,0.0,0.00129251,0.0135582,-0.0398103,-0.00849288,1.44962e-05,-7.912e-05,0.0,-0.0105606,0.013355,0.00627891,0.239797,0.0,0.104384,0.0398103,0.160935,0.328024,0.20866,0.215674,inf,inf,inf,inf,0,1,0,1,1,0,1,1,0,0,0
10368166,0,0.0,0.0,0.0,0.0,0.448225,5.76515e-08,-3.1466e-07,0.0,0.000948195,0.0130285,-0.037886,-0.00417402,1.44962e-05,-7.912e-05,0.0,0.0109764,0.00959619,0.0045227,0.239433,0.0,0.110006,0.037886,0.157213,0.323593,0.20239,0.210842,inf,inf,inf,inf,0,1,0,1,1,0,1,1,0,0,0
10468258,0,0.0,0.0,0.0,0.0,0.450813,5.76515e-08,-3.1466e-07,0.0,-3.5092e-05,0.0127424,-0.0358541,0.000583786,1.44962e-05,-7.912e-05,0.0,0.00547519,0.0276599,-0.0139755,0.238992,0.0,0.110155,0.0358541,0.159399,0.325293,0.201599,0.208661,inf,inf,inf,inf,0,1,0,1,1,0,1,1,0,0,0
10572125,0,0.0,0.0,0.0,0.0,0.451091,5.76515e-08,-3.1466e-07,0.0,-0.000461852,0.0128772,-0.0350377,0.00122796,1.44962e-05,-7.912e-05,0.0,-0.0112075,0.0253583,-0.0137072,0.238542,0.0,0.1,0.0350377,0.157457,0.322554,0.197085,0.20455,inf,inf,inf,inf,0,1,0,1,1,0,1,1,0,0,0
10672107,0,0.0,0.0,0.0,0.0,0.450188,5.76515e-08,-3.1466e-07,0.0,-0.000348566,0.0120477,-0.0348139,0.000352616,1.44962e-05,-7.912e-05,0.0,-0.00510013,-0.0178292,-0.00151621,0.238265,0.0,0.111855,0.0348139,0.154283,0.318439,0.191836,0.200184,inf,inf,inf,inf,0,1,0,1,1,0,1,1,0,0,0
10772071,0,0.0,0.0,0.0,0.0,0.453167,5.76515e-08,-3.1466e-07,0.0,-0.000425996,0.0111001,-0.0327365,0.00477989,1.44962e-05,-7.912e-05,0.0,-0.00780664,-0.00998446,-0.0390928,0.238286,0.0,0.1,0.0327365,0.15263,0.315836,0.187925,0.19641,inf,inf,inf,inf,0,1,0,1,1,0,1,1,0,0,0
10876254,0,0.0,0.0,0.0,0.0,0.448677,5.76515e-08,-3.1466e-07,0.0,-0.000894919,0.0107568,-0.0341653,-0.00168779,1.44962e-05,-7.912e-05,0.0,0.00844976,0.0206367,-0.000251745,0.238424,0.0,0.100836,0.0341653,0.151067,0.313309,0.184205,0.192764,inf,inf,inf,inf,0,1,0,1,1,0,1,1,0,0,0
10980248,0,0.0,0.0,0.0,0.0,0.451864,5.76515e-08,-3.1466e-07,0.0,-0.00120546,0.00925442,-0.0315427,0.00406933,1.44962e-05,-7.912e-05,0.0,-0.0157752,-0.0055055,-0.0230307,0.23871,0.0,0.107904,0.0315427,0.153113,0.31472,0.183745,0.19094,inf,inf,inf,inf,0,1,0,1,1,0,1,1,0,0,0
11080163,0,0.0,0.0,0.0,0.0,0.449003,5.76515e-08,-3.1466e-07,0.0,-0.00165907,0.00815532,-0.0323448,-3.82536e-05,1.44962e-05,-7.912e-05,0.0,-0.0140469,-0.00591866,-0.00504692,0.238881,0.0,0.1,0.0323448,0.150334,0.310956,0.17929,0.187082,inf,inf,inf,inf,0,1,0,1,1,0,1,1,0,0,0
11184089,0,0.0,0.0,0.0,0.0,0.443637,5.76515e-08,-3.1466e-07,0.0,-0.0021117,0.00807758,-0.0337616,-0.00680897,1.44962e-05,-7.912e-05,0.0,0.00886824,0.0174811,-0.0112299,0.23905,0.0,0.1,0.0337616,0.148863,0.308543,0.175903,0.18372,inf,inf,inf,inf,0,1,0,1,1,0,1,1,0,0,0
11284139,0,0.0,0.0,0.0,0.0,0.438399,5.76515e-08,-3.1466e-07,0.0,-0.00200701,0.00738886,-0.035742,-0.0131042,1.44962e-05,-7.912e-05,0.0,-0.000934475,-0.00178536,-0.0169135,0.239099,0.0,0.1,0.035742,0.15079,0.309863,0.175472,0.182022,inf,inf,inf,inf,0,1,0,1,1,0,1,1,0,0,0
11384119,0,0.0,0.0,0.0,0.0,0.434677,5.76515e-08,-3.1466e-07,0.0,-0.00222691,0.00696261,-0.0367048,-0.016081,1.44962e-05,-7.912e-05,0.0,0.00510405,-0.00517458,-0.014852,0.239057,0.0,0.104251,0.0367048,0.14816,0.306271,0.171418,0.178463,inf,inf,inf,inf,0,1,0,1,1,0,1,1,0,0,0
11488241,0,0.0,0.0,0.0,0.0,0.435839,5.76515e-08,-3.1466e-07,0.0,-0.00285475,0.0067238,-0.0352885,-0.0116333,1.44962e-05,-7.912e-05,0.0,-0.00938385,0.0208972,-0.0208614,0.239024,0.0,0.117004,0.0352885,0.146737,0.303952,0.168305,0.175349,inf,inf,inf,inf,0,1,0,1,1,0,1,1,0,0,0
11588898,0,0.0,0.0,0.0,0.0,0.442552,5.76515e-08,-3.1466e-07,0.0,-0.00319221,0.00619784,-0.0307658,0.000537119,1.44962e-05,-7.912e-05,0.0,-0.0140084,-0.00721976,0.016448,0.238879,0.0,0.121397,0.0307658,0.14857,0.305198,0.167941,0.173779,inf,inf,inf,inf,0,1,0,1,1,0,1,1,0,0,0
11690589,0,0.0,0.0,0.0,0.0,0.444329,5.76515e-08,-3.1466e-07,0.0,-0.00368945,0.00621738,-0.0283366,0.00455993,1.44962e-05,-7.912e-05,0.0,-0.00457802,-0.00645035,-0.0306388,0.238777,0.0,0.107452,0.0283366,0.146033,0.301738,0.164212,0.170484,inf,inf,inf,inf,0,1,0,1,1,0,1,1,0,0,0
11790577,0,0.0,0.0,0.0,0.0,0.448127,5.76515e-08,-3.1466e-07,0.0,-0.00415618,0.00564868,-0.0257235,0.00987254,1.44962e-05,-7.912e-05,0.0,-0.0242937,0.0386815,0.0283149,0.238799,0.0,0.105977,0.0257235,0.144858,0.299715,0.161502,0.167606,inf,inf,inf,inf,0,1,0,1,1,0,1,1,0,0,0
11891433,0,0.0,0.0,0.0,0.0,0.450641,5.76515e-08,-3.1466e-07,0.0,-0.004144,0.00549052,-0.0237528,0.0130047,1.44962e-05,-7.912e-05,0.0,-0.00420583,0.000139403,0.000939641,0.239074,0.0,0.102391,0.0237528,0.145621,0.29986,0.160549,0.165853,inf,inf,inf,inf,0,1,0,1,1,0,1,1,0,0,0
11995290,0,0.0,0.0,0.0,0.0,0.45201,5.76515e-08,-3.1466e-07,0.0,-0.00379512,0.00490133,-0.0228342,0.0134592,1.44962e-05,-7.912e-05,0.0,0.00314601,0.00992065,-0.026896,0.239575,0.0,0.101709,0.0228342,0.147185,0.300905,0.160088,0.164378,inf,inf,inf,inf,0,1,0,1,1,0,1,1,0,0,0
12095318,0,0.0,0.0,0.0,0.0,0.450667,5.76515e-08,-3.1466e-07,0.0,-0.00365248,0.00520376,-0.022938,0.0102071,1.44962e-05,-7.912e-05,0.0,0.0152681,0.0131182,-0.00633283,0.23984,0.0,0.1,0.022938,0.145521,0.298561,0.157105,0.161558,inf,inf,inf,inf,0,1,0,1,1,0,1,1,0,0,0
12199332,0,0.0,0.0,0.0,0.0,0.454598,5.76515e-08,-3.1466e-07,0.0,-0.0036215,0.00582237,-0.0202797,0.0154773,1.44962e-05,-7.912e-05,0.0,-0.00623078,-0.0122363,0.00747892,0.240035,0.0,0.118193,0.0202797,0.146703,0.299348,0.156368,0.160047,inf,inf,inf,inf,0,1,0,1,1,0,1,1,0,0,0
12303363,0,0.0,0.0,0.0,0.0,0.460421,5.76515e-08,-3.1466e-07,0.0,-0.00368043,0.00574201,-0.0171828,0.022215,1.44962e-05,-7.912e-05,0.0,0.0140562,-0.00168045,0.00279109,0.240163,0.0,0.103992,0.0171828,0.144628,0.296708,0.15317,0.157246,inf,inf,inf,inf,0,1,0,1,1,0,1,1,0,0,0
12403319,0,0.0,0.0,0.0,0.0,0.465391,5.76515e-08,-3.1466e-07,0.0,-0.00323801,0.00554861,-0.0141517,0.0276943,1.44962e-05,-7.912e-05,0.0,0.0196947,-0.017291,-0.00273714,0.240355,0.0,0.109766,0.0141517,0.144713,0.296343,0.151855,0.155513,inf,inf,inf,inf,0,1,0,1,1,0,1,1,0,0,0
12507347,0,0.0,0.0,0.0,0.0,0.468326,5.76515e-08,-3.1466e-07,0.0,-0.0030157,0.00582706,-0.0128615,0.0285539,1.44962e-05,-7.912e-05,0.0,0.00171623,0.00915929,0.0174305,0.240471,0.0,0.109356,0.0128615,0.142852,0.293804,0.149058,0.152881,inf,inf,inf,inf,0,1,0,1,1,0,1,1,0,0,0
12605735,0,0.0,0.0,0.0,0.0,0.472333,5.76515e-08,-3.1466e-07,0.0,-0.00263511,0.00557476,-0.0104608,0.0317139,1.44962e-05,-7.912e-05,0.0,-0.00894336,-0.0061107,-0.00258397,0.240457,0.0,0.104543,0.0104608,0.143047,0.293472,0.147984,0.151261,inf,inf,inf,inf,0,1,0,1,1,0,1,1,0,0,0
12709806,0,0.0,0.0,0.0,0.0,0.475842,5.76515e-08,-3.1466e-07,0.0,-0.00224607,0.00493186,-0.00885365,0.0329969,1.44962e-05,-7.912e-05,0.0,-0.0038967,0.0121763,0.00315549,0.240467,0.0,0.100426,0.00885365,0.141468,0.291094,0.145606,0.148815,inf,inf,inf,inf,0,1,0,1,1,0,1,1,0,0,0
12809862,0,0.0,0.0,0.0,0.0,0.478731,5.76515e-08,-3.1466e-07,0.0,-0.00178759,0.00484841,-0.00751727,0.033269,1.44962e-05,-7.912e-05,0.0,0.00734805,0.0217825,0.0148227,0.240254,0.0,0.1,0.00751727,0.140235,0.289063,0.143542,0.146463,inf,inf,inf,inf,0,1,0,1,1,0,1,1,0,0,0
12913670,0,0.0,0.0,0.0,0.0,0.48358,5.76515e-08,-3.1466e-07,0.0,-0.0017202,0.00424462,-0.00567157,0.0360696,1.44962e-05,-7.912e-05,0.0,0.00380444,-0.00409897,0.00324001,0.23999,0.0,0.107288,0.00567157,0.138872,0.286837,0.141483,0.144199,inf,inf,inf,inf,0,1,0,1,1,0,1,1,0,0,0
13017758,0,0.0,0.0,0.0,0.0,0.489058,5.76515e-08,-3.1466e-07,0.0,-0.00135237,0.00375522,-0.00337409,0.0396191,1.44962e-05,-7.912e-05,0.0,-0.0110657,0.014541,0.0104649,0.239865,0.0,0.1,0.00337409,0.13762,0.284699,0.13957,0.142022,inf,inf,inf,inf,0,1,0,1,1,0,1,1,0,0,0
13122617,0,0.0,0.0,0.0,0.0,0.493196,5.76515e-08,-3.1466e-07,0.0,-0.00121657,0.00310043,-0.00119714,0.0413699,1.44962e-05,-7.912e-05,0.0,-0.00428613,-0.0039358,0.00278459,0.23995,0.0,0.105535,0.00119714,0.13646,0.28264,0.137787,0.139929,inf,inf,inf,inf,0,1,0,1,1,0,1,1,0,0,0
13224145,0,0.0,0.0,0.0,0.0,0.501009,5.76515e-08,-3.1466e-07,0.0,-0.000822427,0.00250179,0.0025843,0.0484569,1.44962e-05,-7.912e-05,0.0,-0.00408759,-0.0280963,-0.00125137,0.240161,0.0,0.10791,-0.0025843,0.137042,0.282538,0.13734,0.138674,inf,inf,inf,inf,0,1,0,1,1,0,1,1,0,0,0
13324270,0,0.0,0.0,0.0,0.0,0.508472,5.76515e-08,-3.1466e-07,0.0,-0.000814401,0.00165439,0.00594772,0.0535678,1.44962e-05,-7.912e-05,0.0,-0.00355369,0.0041729,-0.00197592,0.240356,0.0,0.102342,-0.00594772,0.136095,0.280686,0.13579,0.136716,inf,inf,inf,inf,0,1,0,1,1,0,1,1,0,0,0
13428107,0,0.0,0.0,0.0,0.0,0.513675,5.76515e-08,-3.1466e-07,0.0,-0.000864659,0.00139141,0.00791658,0.0545426,1.44962e-05,-7.912e-05,0.0,0.00835122,-0.0256224,-0.00663773,0.240358,0.0,0.1,-0.00791658,0.137783,0.281707,0.136081,0.135765,inf,inf,inf,inf,0,1,0,1,1,0,1,1,0,0,0
13528129,0,0.0,0.0,0.0,0.0,0.514416,5.76515e-08,-3.1466e-07,0.0,-0.000702035,0.0020435,0.00813914,0.0498432,1.44962e-05,-7.912e-05,0.0,0.00333715,0.0126411,-0.00380384,0.240035,0.0,0.1,-0.00813914,0.138183,0.281503,0.135509,0.134557,inf,inf,inf,inf,0,1,0,1,1,0,1,1,0,0,0
13628247,0,0.0,0.0,0.0,0.0,0.516968,5.76515e-08,-3.1466e-07,0.0,-0.00108123,0.00206116,0.00961131,0.0484721,1.44962e-05,-7.912e-05,0.0,0.014156,0.00420009,0.00711512,0.239661,0.0,0.1,-0.00961131,0.136839,0.279424,0.133695,0.132647,inf,inf,inf,inf,0,1,0,1,1,0,1,1,0,0,0
13732146,0,0.0,0.0,0.0,0.0,0.52383,5.76515e-08,-3.1466e-07,0.0,-0.000935801,0.00127548,0.0124022,0.0528045,1.44962e-05,-7.912e-05,0.0,-0.00986293,-0.0227716,0.000664901,0.239209,0.0,0.108767,-0.0124022,0.135575,0.277408,0.132,0.130804,inf,inf,inf,inf,0,1,0,1,1,0,1,1,0,0,0
13836997,0,0.0,0.0,0.0,0.0,0.533034,5.76515e-08,-3.1466e-07,0.0,-0.00136073,0.000540888,0.0156366,0.0592104,1.44962e-05,-7.912e-05,0.0,0.00865512,-0.0213296,-0.018811,0.238729,0.0,0.1,-0.0156366,0.134417,0.275473,0.130436,0.129033,inf,inf,inf,inf,0,1,0,1,1,0,1,1,0,0,0
13940944,0,0.0,0.0,0.0,0.0,0.537033,5.76515e-08,-3.1466e-07,0.0,-0.000987739,0.000658628,0.0169161,0.0580053,1.44962e-05,-7.912e-05,0.0,0.00588675,-0.0174741,0.0245272,0.238227,0.0,0.1,-0.0169161,0.135865,0.276288,0.130667,0.128187,inf,inf,inf,inf,0,1,0,1,1,0,1,1,0,0,0
14041016,0,0.0,0.0,0.0,0.0,0.540836,5.76515e-08,-3.1466e-07,0.0,-0.00106635,0.000840133,0.0186713,0.0576626,1.44962e-05,-7.912e-05,0.0,0.00745788,0.00900386,0.0114869,0.23797,0.0,0.1,-0.0186713,0.133801,0.273502,0.128611,0.126286,inf,inf,inf,inf,0,1,0,1,1,0,1,1,0,0,0
14144867,0,0.0,0.0,0.0,0.0,0.544625,5.76515e-08,-3.1466e-07,0.0,-0.000852768,0.000613588,0.0197298,0.0562307,1.44962e-05,-7.912e-05,0.0,-0.0234233,0.0100834,-0.012395,0.237885,0.0,0.1,-0.0197298,0.135072,0.274174,0.128742,0.125464,inf,inf,inf,inf,0,1,0,1,1,0,1,1,0,0,0
14244934,0,0.0,0.0,0.0,0.0,0.544999,5.76515e-08,-3.1466e-07,0.0,-0.000803213,0.000222134,0.0195967,0.0505924,1.44962e-05,-7.912e-05,0.0,0.00299725,-0.0129038,-0.00691206,0.237775,0.0,0.1,-0.0195967,0.133917,0.272293,0.127307,0.123847,inf,inf,inf,inf,0,1,0,1,1,0,1,1,0,0,0
14344903,0,0.0,0.0,0.0,0.0,0.542504,5.76515e-08,-3.1466e-07,0.0,-0.000635854,-0.000738852,0.0189711,0.0427196,1.44962e-05,-7.912e-05,0.0,-0.00611435,-0.013808,0.011088,0.23758,0.0,0.1,-0.0189711,0.134365,0.272138,0.127008,0.122888,inf,inf,inf,inf,0,1,0,1,1,0,1,1,0,0,0
14449006,0,0.0,0.0,0.0,0.0,0.540651,5.76515e-08,-3.1466e-07,0.0,-0.00073717,-0.00142829,0.0179119,0.0357908,1.44962e-05,-7.912e-05,0.0,-0.0152276,-0.0170267,0.00636498,0.23738,0.0,0.1,-0.0179119,0.133263,0.270315,0.125677,0.121354,inf,inf,inf,inf,0,1,0,1,1,0,1,1,0,0,0
14548867,0,0.0,0.0,0.0,0.0,0.544586,5.76515e-08,-3.1466e-07,0.0,-0.00137029,-0.00188575,0.0193609,0.0378688,1.44962e-05,-7.912e-05,0.0,-0.00655838,-0.00653351,0.0171584,0.236365,0.0,0.104365,-0.0193609,0.13211,0.268488,0.124326,0.119851,inf,inf,inf,inf,0,1,0,1,1,0,1,1,0,0,0
14653030,0,0.0,0.0,0.0,0.0,0.552086,5.76515e-08,-3.1466e-07,0.0,-0.00128331,-0.00294654,0.0225502,0.044651,1.44962e-05,-7.912e-05,0.0,-0.0112528,-0.0387156,-0.0120199,0.234805,0.0,0.1,-0.0225502,0.133226,0.269064,0.124436,0.119124,inf,inf,inf,inf,0,1,0,1,1,0,1,1,0,0,0
14752901,0,0.0,0.0,0.0,0.0,0.553116,5.76515e-08,-3.1466e-07,0.0,-0.00117056,-0.00363249,0.0230532,0.041905,1.44962e-05,-7.912e-05,0.0,-0.00916399,0.0012548,-0.00527799,0.233795,0.0,0.1,-0.0230532,0.133413,0.26878,0.123985,0.118216,inf,inf,inf,inf,0,1,0,1,1,0,1,1,0,0,0
14852908,0,0.0,0.0,0.0,0.0,0.547819,5.76515e-08,-3.1466e-07,0.0,-0.00117825,-0.00335684,0.0208067,0.0305527,1.44962e-05,-7.912e-05,0.0,0.00494517,0.0187845,0.023785,0.233212,0.0,0.1,-0.0208067,0.134399,0.269262,0.124021,0.117505,inf,inf,inf,inf,0,1,0,1,1,0,1,1,0,0,0
14956908,0,0.0,0.0,0.0,0.0,0.543696,5.76515e-08,-3.1466e-07,0.0,-0.00151068,-0.00372731,0.0194682,0.0225189,1.44962e-05,-7.912e-05,0.0,0.000171613,-0.0208581,0.0111994,0.232769,0.0,0.1,-0.0194682,0.133076,0.267363,0.122652,0.116105,inf,inf,inf,inf,0,1,0,1,1,0,1,1,0,0,0
15056942,0,0.0,0.0,0.0,0.0,0.538577,5.76515e-08,-3.1466e-07,0.0,-0.00140467,-0.00351807,0.0176442,0.0140744,1.44962e-05,-7.912e-05,0.0,0.00303055,-0.00136651,0.00600883,0.232323,0.0,0.1,-0.0176442,0.133359,0.267107,0.122373,0.115305,inf,inf,inf,inf,0,1,0,1,1,0,1,1,0,0,0
15158624,0,0.0,0.0,0.0,0.0,0.535658,5.76515e-08,-3.1466e-07,0.0,-0.00106318,-0.00295992,0.0173686,0.0103273,1.44962e-05,-7.912e-05,0.0,0.00662448,0.00149802,0.0253546,0.231913,0.0,0.1,-0.0173686,0.132128,0.265274,0.121139,0.114006,inf,inf,inf,inf,0,1,0,1,1,0,1,1,0,0,0
15258492,0,0.0,0.0,0.0,0.0,0.534308,5.76515e-08,-3.1466e-07,0.0,-0.000917938,-0.0025003,0.0175048,0.00873485,1.44962e-05,-7.912e-05,0.0,0.0145121,0.00247045,0.0237393,0.231482,0.0,0.1,-0.0175048,0.132496,0.265067,0.120973,0.113289,inf,inf,inf,inf,0,1,0,1,1,0,1,1,0,0,0
15363413,0,0.0,0.0,0.0,0.0,0.534027,5.76515e-08,-3.1466e-07,0.0,-0.000898638,-0.00186625,0.0175782,0.00829901,1.44962e-05,-7.912e-05,0.0,-0.00961669,0.0159231,-0.00524818,0.230865,0.0,0.1,-0.0175782,0.131485,0.263438,0.119939,0.112102,inf,inf,inf,inf,0,1,0,1,1,0,1,1,0,0,0
15463262,0,0.0,0.0,0.0,0.0,0.536085,5.76515e-08,-3.1466e-07,0.0,-0.000199895,-0.00154267,0.0182963,0.0108776,1.44962e-05,-7.912e-05,0.0,0.00394775,-0.0174969,0.00164541,0.229978,0.0,0.1,-0.0182963,0.130412,0.261728,0.118901,0.11097,inf,inf,inf,inf,0,1,0,1,1,0,1,1,0,0,0
15564056,0,0.0,0.0,0.0,0.0,0.53672,5.76515e-08,-3.1466e-07,0.0,-0.000232231,-0.00155954,0.0189025,0.0114322,1.44962e-05,-7.912e-05,0.0,0.0123517,-0.00780122,0.0152697,0.229098,0.0,0.1,-0.0189025,0.12878,0.259451,0.117598,0.109755,inf,inf,inf,inf,0,1,0,1,1,0,1,1,0,0,0
15668114,0,0.0,0.0,0.0,0.0,0.536665,5.76515e-08,-3.1466e-07,0.0,0.000162652,-0.00160487,0.0193254,0.011109,1.44962e-05,-7.912e-05,0.0,-0.000115349,0.0279831,0.0122995,0.228256,0.0,0.1,-0.0193254,0.128003,0.257975,0.116821,0.108771,inf,inf,inf,inf,0,1,0,1,1,0,1,1,0,0,0
15765692,0,0.0,0.0,0.0,0.0,0.534797,5.76515e-08,-3.1466e-07,0.0,0.000269832,-0.00195895,0.0191938,0.00859712,1.44962e-05,-7.912e-05,0.0,-0.00298463,-0.00242279,0.0137855,0.227588,0.0,0.1,-0.0191938,0.128547,0.257898,0.116874,0.108279,inf,inf,inf,inf,0,1,0,1,1,0,1,1,0,0,0
15869927,0,0.0,0.0,0.0,0.0,0.534879,5.76515e-08,-3.1466e-07,0.0,-0.000120566,-0.00122956,0.0197245,0.00882221,1.44962e-05,-7.912e-05,0.0,0.00730494,0.00427236,0.0149925,0.22705,0.0,0.1,-0.0197245,0.12776,0.256425,0.116109,0.107389,inf,inf,inf,inf,0,1,0,1,1,0,1,1,0,0,0
15969834,0,0.0,0.0,0.0,0.0,0.537647,5.76515e-08,-3.1466e-07,0.0,0.000158914,-0.00042221,0.0209243,0.0123816,1.44962e-05,-7.912e-05,0.0,-0.00688452,0.0313524,-0.00425735,0.226564,0.0,0.1,-0.0209243,0.127157,0.255133,0.115481,0.106571,inf,inf,inf,inf,0,1,0,1,1,0,1,1,0,0,0
16073837,0,0.0,0.0,0.0,0.0,0.54102,5.76515e-08,-3.1466e-07,0.0,0.000369054,0.000133929,0.0223675,0.0162438,1.44962e-05,-7.912e-05,0.0,0.00199078,0.0170355,0.0191088,0.226076,0.0,0.1,-0.0223675,0.126453,0.253757,0.114792,0.105793,inf,inf,inf,inf,0,1,0,1,1,0,1,1,0,0,0
16177792,0,0.0,0.0,0.0,0.0,0.542432,5.76515e-08,-3.1466e-07,0.0,0.000686335,0.000631477,0.0229754,0.0168699,1.44962e-05,-7.912e-05,0.0,0.0164662,-0.007496,7.16486e-05,0.22573,0.0,0.1,-0.0229754,0.127858,0.254481,0.115381,0.105638,inf,inf,inf,inf,0,1,0,1,1,0,1,1,0,0,0
16277748,0,0.0,0.0,0.0,0.0,0.542553,5.76515e-08,-3.1466e-07,0.0,0.00113983,0.00146531,0.0234647,0.0160925,1.44962e-05,-7.912e-05,0.0,-0.000387426,0.0158367,0.0161074,0.225566,0.0,0.1,-0.0234647,0.126445,0.252488,0.1143,0.104789,inf,inf,inf,inf,0,1,0,1,1,0,1,1,0,0,0
16381771,0,0.0,0.0,0.0,0.0,0.542957,5.76515e-08,-3.1466e-07,0.0,0.0011003,0.00191787,0.0233015,0.0150659,1.44962e-05,-7.912e-05,0.0,-0.00349687,-0.00937404,0.0116564,0.225584,0.0,0.1,-0.0233015,0.125839,0.251242,0.113702,0.104161,inf,inf,inf,inf,0,1,0,1,1,0,1,1,0,0,0
16481816,0,0.0,0.0,0.0,0.0,0.542223,5.76515e-08,-3.1466e-07,0.0,0.00108885,0.00234375,0.0235019,0.0134353,1.44962e-05,-7.912e-05,0.0,-0.000327264,0.00722099,0.0168703,0.225656,0.0,0.1,-0.0235019,0.127305,0.252035,0.114344,0.104122,inf,inf,inf,inf,0,1,0,1,1,0,1,1,0,0,0
16581711,0,0.0,0.0,0.0,0.0,0.540482,5.76515e-08,-3.1466e-07,0.0,0.00149238,0.00292618,0.0232286,0.0104334,1.44962e-05,-7.912e-05,0.0,0.000923351,0.0125696,0.0163428,0.225729,0.0,0.1,-0.0232286,0.126025,0.250205,0.113384,0.103424,inf,inf,inf,inf,0,1,0,1,1,0,1,1,0,0,0
16685810,0,0.0,0.0,0.0,0.0,0.540551,5.76515e-08,-3.1466e-07,0.0,0.00148053,0.00328058,0.0235866,0.0102541,1.44962e-05,-7.912e-05,0.0,0.00691619,0.0152494,0.00981967,0.225785,0.0,0.1,-0.0235866,0.12551,0.249095,0.11286,0.102933,inf,inf,inf,inf,0,1,0,1,1,0,1,1,0,0,0
16785717,0,0.0,0.0,0.0,0.0,0.545372,5.76515e-08,-3.1466e-07,0.0,0.00151906,0.00397689,0.0254062,0.0162385,1.44962e-05,-7.912e-05,0.0,0.000771551,0.0260407,-0.0165295,0.226014,0.0,0.108042,-0.0254062,0.125005,0.248021,0.112347,0.102487,inf,inf,inf,inf,0,1,0,1,1,0,1,1,0,0,0
16885775,0,0.0,0.0,0.0,0.0,0.554561,5.76515e-08,-3.1466e-07,0.0,0.000821008,0.00566988,0.0284263,0.0268276,1.44962e-05,-7.912e-05,0.0,-0.00322623,0.0143769,-0.00481486,0.226171,0.0,0.111976,-0.0284263,0.125791,0.248252,0.112616,0.102429,inf,inf,inf,inf,0,1,0,1,1,0,1,1,0,0,0
16989806,0,0.0,0.0,0.0,0.0,0.562926,5.76515e-08,-3.1466e-07,0.0,0.000341276,0.00711297,0.0308895,0.0346795,1.44962e-05,-7.912e-05,0.0,-0.0091338,0.0340245,0.00281546,0.226536,0.0,0.1,-0.0308895,0.125346,0.247266,0.112155,0.102065,inf,inf,inf,inf,0,1,0,1,1,0,1,1,0,0,0
17090672,0,0.0,0.0,0.0,0.0,0.566847,5.76515e-08,-3.1466e-07,0.0,-0.00020813,0.00784132,0.0325195,0.0365702,1.44962e-05,-7.912e-05,0.0,0.0108691,0.0031599,0.0196969,0.226751,0.0,0.1,-0.0325195,0.124913,0.246321,0.111702,0.10174,inf,inf,inf,inf,0,1,0,1,1,0,1,1,0,0,0
17192144,0,0.0,0.0,0.0,0.0,0.56952,5.76515e-08,-3.1466e-07,0.0,-0.000326039,0.00794304,0.0330328,0.0359679,1.44962e-05,-7.912e-05,0.0,-0.0126001,0.0271132,0.0129293,0.226845,0.0,0.1,-0.0330328,0.125713,0.246624,0.111983,0.101773,inf,inf,inf,inf,0,1,0,1,1,0,1,1,0,0,0
17292160,0,0.0,0.0,0.0,0.0,0.568608,5.76515e-08,-3.1466e-07,0.0,-0.000981039,0.00857836,0.0324785,0.0310638,1.44962e-05,-7.912e-05,0.0,-0.000572164,0.0330153,0.0185529,0.225189,0.0,0.1,-0.0324785,0.125329,0.245793,0.111564,0.101519,inf,inf,inf,inf,0,1,0,1,1,0,1,1,0,0,0
17396200,0,0.0,0.0,0.0,0.0,0.569054,5.76515e-08,-3.1466e-07,0.0,-0.00142235,0.00896445,0.0323776,0.0283681,1.44962e-05,-7.912e-05,0.0,0.00773947,-0.0157945,-0.0166417,0.223307,0.0,0.1,-0.0323776,0.125027,0.245064,0.11121,0.101309,inf,inf,inf,inf,0,1,0,1,1,0,1,1,0,0,0
17496058,0,0.0,0.0,0.0,0.0,0.568449,5.76515e-08,-3.1466e-07,0.0,-0.00177938,0.0102438,0.0322061,0.0250197,1.44962e-05,-7.912e-05,0.0,-0.00734962,-0.00280923,0.000983814,0.222034,0.0,0.1,-0.0322061,0.123866,0.243595,0.110355,0.100944,inf,inf,inf,inf,0,1,0,1,1,0,1,1,0,0,0
17596869,0,0.0,0.0,0.0,0.0,0.565852,5.76515e-08,-3.1466e-07,0.0,-0.00157133,0.01043,0.0312823,0.0194138,1.44962e-05,-7.912e-05,0.0,-0.0204023,0.0313937,-0.013602,0.221419,0.0,0.1,-0.0312823,0.125294,0.244591,0.110971,0.101234,inf,inf,inf,inf,0,1,0,1,1,0,1,1,0,0,0
17700899,0,0.0,0.0,0.0,0.0,0.562732,5.76515e-08,-3.1466e-07,0.0,-0.00186488,0.0114715,0.030593,0.014073,1.44962e-05,-7.912e-05,0.0,0.00495986,-0.000475809,0.0278067,0.221435,0.0,0.1,-0.030593,0.126639,0.2456,0.111494,0.101523,inf,inf,inf,inf,0,1,0,1,1,0,1,1,0,0,0
17802550,0,0.0,0.0,0.0,0.0,0.558417,5.76515e-08,-3.1466e-07,0.0,-0.00184702,0.0121096,0.0290167,0.00730234,1.44962e-05,-7.912e-05,0.0,0.0141302,0.00317677,0.00740694,0.221726,0.0,0.1,-0.0290167,0.125179,0.244075,0.11042,0.101175,inf,inf,inf,inf,0,1,0,1,1,0,1,1,0,0,0
17903322,0,0.0,0.0,0.0,0.0,0.555882,5.76515e-08,-3.1466e-07,0.0,-0.0024386,0.0119951,0.0287111,0.0044383,1.44962e-05,-7.912e-05,0.0,0.00827139,-0.0128767,0.00851316,0.222044,0.0,0.1,-0.0287111,0.126421,0.245037,0.110897,0.101489,inf,inf,inf,inf,0,1,0,1,1,0,1,1,0,0,0
18004133,0,0.0,0.0,0.0,0.0,0.554101,5.76515e-08,-3.1466e-07,0.0,-0.00341334,0.012033,0.028346,0.00235952,1.44962e-05,-7.912e-05,0.0,-0.00480469,-0.035371,-0.00443676,0.222382,0.0,0.1,-0.028346,0.127073,0.245527,0.111062,0.101657,inf,inf,inf,inf,0,1,0,1,1,0,1,1,0,0,0
18104090,0,0.0,0.0,0.0,0.0,0.554913,5.76515e-08,-3.1466e-07,0.0,-0.00412407,0.0118663,0.0291367,0.00436095,1.44962e-05,-7.912e-05,0.0,0.018645,-0.00494958,-0.00062075,0.222683,0.0,0.1,-0.0291367,0.126108,0.244598,0.110248,0.101497,inf,inf,inf,inf,0,1,0,1,1,0,1,1,0,0,0
18209026,0,0.0,0.0,0.0,0.0,0.556341,5.76515e-08,-3.1466e-07,0.0,-0.00440513,0.0119089,0.0301213,0.00677198,1.44962e-05,-7.912e-05,0.0,-0.0145075,0.0154315,0.00964135,0.222997,0.0,0.1,-0.0301213,0.125293,0.243784,0.109571,0.101375,inf,inf,inf,inf,0,1,0,1,1,0,1,1,0,0,0
18310623,0,0.0,0.0,0.0,0.0,0.558245,5.76515e-08,-3.1466e-07,0.0,-0.00465707,0.0116943,0.0307828,0.00891752,1.44962e-05,-7.912e-05,0.0,-0.00451358,0.00451545,-0.00151228,0.223363,0.0,0.1,-0.0307828,0.125831,0.244193,0.109714,0.101573,inf,inf,inf,inf,0,1,0,1,1,0,1,1,0,0,0
18410577,0,0.0,0.0,0.0,0.0,0.559468,5.76515e-08,-3.1466e-07,0.0,-0.00496231,0.0118055,0.0311318,0.0100799,1.44962e-05,-7.912e-05,0.0,-0.0105596,0.0312288,0.0209678,0.223638,0.0,0.1,-0.0311318,0.125022,0.243376,0.10908,0.101483,inf,inf,inf,inf,0,1,0,1,1,0,1,1,0,0,0
18510494,0,0.0,0.0,0.0,0.0,0.55952,5.76515e-08,-3.1466e-07,0.0,-0.00538933,0.0116068,0.0310411,0.00926936,1.44962e-05,-7.912e-05,0.0,0.00212093,0.0105594,0.0229459,0.223944,0.0,0.1,-0.0310411,0.125605,0.243865,0.109274,0.101708,inf,inf,inf,inf,0,1,0,1,1,0,1,1,0,0,0
18614602,0,0.0,0.0,0.0,0.0,0.558729,5.76515e-08,-3.1466e-07,0.0,-0.00542239,0.0116258,0.0310503,0.00789446,1.44962e-05,-7.912e-05,0.0,-0.0110719,0.00308638,-0.00062882,0.224326,0.0,0.1,-0.0310503,0.124819,0.243086,0.10868,0.101644,inf,inf,inf,inf,0,1,0,1,1,0,1,1,0,0,0
18714548,0,0.0,0.0,0.0,0.0,0.555269,5.76515e-08,-3.1466e-07,0.0,-0.00556776,0.0116589,0.0299427,0.00311377,1.44962e-05,-7.912e-05,0.0,-0.0231525,0.0156025,0.0087227,0.224751,0.0,0.1,-0.0299427,0.124124,0.242367,0.10817,0.101607,inf,inf,inf,inf,0,1,0,1,1,0,1,1,0,0,0
18814503,0,0.0,0.0,0.0,0.0,0.551265,5.76515e-08,-3.1466e-07,0.0,-0.00596161,0.0110828,0.0289871,-0.00170519,1.44962e-05,-7.912e-05,0.0,-0.0214834,-0.00912715,0.0123772,0.225227,0.0,0.1,-0.0289871,0.12469,0.242824,0.108383,0.101864,inf,inf,inf,inf,0,1,0,1,1,0,1,1,0,0,0
18918555,0,0.0,0.0,0.0,0.0,0.547369,5.76515e-08,-3.1466e-07,0.0,-0.00634503,0.0103768,0.0273484,-0.00639574,1.44962e-05,-7.912e-05,0.0,-0.00890456,0.0249046,0.00428969,0.225855,0.0,0.1,-0.0273484,0.124075,0.242175,0.107947,0.101858,inf,inf,inf,inf,0,1,0,1,1,0,1,1,0,0,0
19018580,0,0.0,0.0,0.0,0.0,0.54454,5.76515e-08,-3.1466e-07,0.0,-0.00715737,0.0108992,0.0269226,-0.00817847,1.44962e-05,-7.912e-05,0.0,0.0199401,-0.000848803,0.0225128,0.226566,0.0,0.1,-0.0269226,0.123484,0.241554,0.107528,0.101863,inf,inf,inf,inf,0,1,0,1,1,0,1,1,0,0,0
19122514,0,0.0,0.0,0.0,0.0,0.543982,5.76515e-08,-3.1466e-07,0.0,-0.00718394,0.0106768,0.0267913,-0.00752115,1.44962e-05,-7.912e-05,0.0,5.5551e-05,-0.0175413,0.0132643,0.227208,0.0,0.1,-0.0267913,0.122934,0.240971,0.107143,0.101883,inf,inf,inf,inf,0,1,0,1,1,0,1,1,0,0,0
19226549,0,0.0,0.0,0.0,0.0,0.544827,5.76515e-08,-3.1466e-07,0.0,-0.00774411,0.00992429,0.0274836,-0.00472883,1.44962e-05,-7.912e-05,0.0,-0.00686217,0.0119543,0.0107819,0.227749,0.0,0.100026,-0.0274836,0.122441,0.240434,0.106799,0.101918,inf,inf,inf,inf,0,1,0,1,1,0,1,1,0,0,0
19327311,0,0.0,0.0,0.0,0.0,0.54531,5.76515e-08,-3.1466e-07,0.0,-0.00845865,0.00979976,0.0273823,-0.00369535,1.44962e-05,-7.912e-05,0.0,-0.0160685,0.0290683,-0.00467632,0.228167,0.0,0.1,-0.0273823,0.123164,0.241045,0.107147,0.102239,inf,inf,inf,inf,0,1,0,1,1,0,1,1,0,0,0
19427459,0,0.0,0.0,0.0,0.0,0.54659,5.76515e-08,-3.1466e-07,0.0,-0.00949293,0.0100614,0.0275988,-0.00133459,1.44962e-05,-7.912e-05,0.0,-0.0119656,0.0226065,-0.00119961,0.228401,0.0,0.101331,-0.0275988,0.122727,0.240572,0.106844,0.102295,inf,inf,inf,inf,0,1,0,1,1,0,1,1,0,0,0
19531335,0,0.0,0.0,0.0,0.0,0.549199,5.76515e-08,-3.1466e-07,0.0,-0.0103129,0.00982401,0.0282151,0.00223652,1.44962e-05,-7.912e-05,0.0,-0.0104602,-0.00190609,0.0157543,0.22873,0.0,0.1,-0.0282151,0.122357,0.240181,0.106583,0.102361,inf,inf,inf,inf,0,1,0,1,1,0,1,1,0,0,0
19631431,0,0.0,0.0,0.0,0.0,0.551144,5.76515e-08,-3.1466e-07,0.0,-0.0108311,0.00989375,0.0291468,0.00495685,1.44962e-05,-7.912e-05,0.0,-0.0304659,0.00670468,0.00999553,0.22907,0.0,0.1,-0.0291468,0.123122,0.240863,0.106952,0.102699,inf,inf,inf,inf,0,1,0,1,1,0,1,1,0,0,0
19731388,0,0.0,0.0,0.0,0.0,0.55272,5.76515e-08,-3.1466e-07,0.0,-0.0112923,0.0107601,0.0293019,0.00649994,1.44962e-05,-7.912e-05,0.0,-0.013385,-0.0159766,0.0116538,0.229664,0.0,0.10011,-0.0293019,0.122718,0.24046,0.106661,0.10277,inf,inf,inf,inf,0,1,0,1,1,0,1,1,0,0,0
19835308,0,0.0,0.0,0.0,0.0,0.556141,5.76515e-08,-3.1466e-07,0.0,-0.0113115,0.0108611,0.0299528,0.00996672,1.44962e-05,-7.912e-05,0.0,-0.000739894,0.0310879,0.00761815,0.230257,0.0,0.1,-0.0299528,0.12235,0.240091,0.106394,0.102848,inf,inf,inf,inf,0,1,0,1,1,0,1,1,0,0,0
19937883,0,0.0,0.0,0.0,0.0,0.560509,5.76515e-08,-3.1466e-07,0.0,-0.0114938,0.010857,0.0310259,0.0142867,1.44962e-05,-7.912e-05,0.0,0.000428484,0.0255442,-0.00995418,0.230721,0.0,0.106246,-0.0310259,0.121319,0.239108,0.105763,0.10275,inf,inf,inf,inf,0,1,0,1,1,0,1,1,0,0,0
20037761,0,0.0,0.0,0.0,0.0,0.563599,5.76515e-08,-3.1466e-07,0.0,-0.0115266,0.0116735,0.0319051,0.0168338,1.44962e-05,-7.912e-05,0.0,-0.023398,0.00313398,-0.00272745,0.23112,0.0,0.1,-0.0319051,0.122937,0.240639,0.106619,0.103299,inf,inf,inf,inf,0,1,0,1,1,0,1,1,0,0,0
20137737,0,0.0,0.0,0.0,0.0,0.567274,5.76515e-08,-3.1466e-07,0.0,-0.0120182,0.0119734,0.0322944,0.0191489,1.44962e-05,-7.912e-05,0.0,-0.00318638,0.00210365,-0.0131776,0.231331,0.0,0.100641,-0.0322944,0.123724,0.241441,0.106968,0.103642,inf,inf,inf,inf,0,1,0,1,1,0,1,1,0,0,0
20240205,0,0.0,0.0,0.0,0.0,0.572213,5.76515e-08,-3.1466e-07,0.0,-0.0115596,0.0120337,0.0339675,0.0237335,1.44962e-05,-7.912e-05,0.0,-0.00107154,-0.0058331,0.0232143,0.231378,0.0,0.100882,-0.0339675,0.123092,0.241009,0.10647,0.103669,inf,inf,inf,inf,0,1,0,1,1,0,1,1,0,0,0
20344242,0,0.0,0.0,0.0,0.0,0.574465,5.76515e-08,-3.1466e-07,0.0,-0.0109784,0.0111014,0.0341348,0.0235268,1.44962e-05,-7.912e-05,0.0,0.0281588,0.0140287,-0.00695195,0.231446,0.0,0.1,-0.0341348,0.124389,0.242399,0.107054,0.104155,inf,inf,inf,inf,0,1,0,1,1,0,1,1,0,0,0
20448124,0,0.0,0.0,0.0,0.0,0.571178,5.76515e-08,-3.1466e-07,0.0,-0.0104889,0.0107719,0.0323341,0.0162073,1.44962e-05,-7.912e-05,0.0,-0.00798834,-0.00691041,-0.00929502,0.231498,0.0,0.1,-0.0323341,0.125676,0.243829,0.107615,0.104631,inf,inf,inf,inf,0,1,0,1,1,0,1,1,0,0,0
20548234,0,0.0,0.0,0.0,0.0,0.567332,5.76515e-08,-3.1466e-07,0.0,-0.0102168,0.0102356,0.0305143,0.0091842,1.44962e-05,-7.912e-05,0.0,-0.00689862,-0.0105551,0.0244206,0.231658,0.0,0.1,-0.0305143,0.126096,0.244458,0.10769,0.1049,inf,inf,inf,inf,0,1,0,1,1,0,1,1,0,0,0
20652109,0,0.0,0.0,0.0,0.0,0.565487,5.76515e-08,-3.1466e-07,0.0,-0.00998734,0.00942759,0.0294735,0.00572771,1.44962e-05,-7.912e-05,0.0,-0.00397042,0.00884844,0.00264985,0.231919,0.0,0.1,-0.0294735,0.125109,0.243877,0.106957,0.104843,inf,inf,inf,inf,0,1,0,1,1,0,1,1,0,0,0
20752130,0,0.0,0.0,0.0,0.0,0.564347,5.76515e-08,-3.1466e-07,0.0,-0.0101238,0.00936311,0.0286638,0.00368575,1.44962e-05,-7.912e-05,0.0,-0.00711863,0.0116093,-0.00222497,0.232221,0.0,0.1,-0.0286638,0.12611,0.245115,0.107345,0.105263,inf,inf,inf,inf,0,1,0,1,1,0,1,1,0,0,0
20852243,0,0.0,0.0,0.0,0.0,0.561995,5.76515e-08,-3.1466e-07,0.0,-0.00981593,0.00935888,0.0278233,0.000433519,1.44962e-05,-7.912e-05,0.0,0.00550269,0.0187665,-0.0154202,0.232513,0.0,0.1,-0.0278233,0.124504,0.243889,0.10634,0.105023,inf,inf,inf,inf,0,1,0,1,1,0,1,1,0,0,0
20956185,0,0.0,0.0,0.0,0.0,0.560927,5.76515e-08,-3.1466e-07,0.0,-0.00929739,0.0093491,0.0272161,-0.000880874,1.44962e-05,-7.912e-05,0.0,-0.00694533,-0.0476232,0.0106343,0.232848,0.0,0.1,-0.0272161,0.123666,0.243345,0.105781,0.104972,inf,inf,inf,inf,0,1,0,1,1,0,1,1,0,0,0
21056235,0,0.0,0.0,0.0,0.0,0.560273,5.76515e-08,-3.1466e-07,0.0,-0.00946626,0.00918224,0.0268865,-0.00129558,1.44962e-05,-7.912e-05,0.0,-0.00753967,-0.00881799,0.00702162,0.233261,0.0,0.1,-0.0268865,0.12289,0.242828,0.105278,0.104924,inf,inf,inf,inf,0,1,0,1,1,0,1,1,0,0,0
21156045,0,0.0,0.0,0.0,0.0,0.561473,5.76515e-08,-3.1466e-07,0.0,-0.00916231,0.00885241,0.0272425,0.000551224,1.44962e-05,-7.912e-05,0.0,0.0062652,-0.0142726,0.00686218,0.233706,0.0,0.1,-0.0272425,0.12338,0.24348,0.105491,0.105178,inf,inf,inf,inf,0,1,0,1,1,0,1,1,0,0,0
21260174,0,0.0,0.0,0.0,0.0,0.563294,5.76515e-08,-3.1466e-07,0.0,-0.00853452,0.00882089,0.0278339,0.00311455,1.44962e-05,-7.912e-05,0.0,0.0169513,0.00110683,0.00367089,0.234046,0.0,0.1,-0.0278339,0.122693,0.242998,0.105072,0.105136,inf,inf,inf,inf,0,1,0,1,1,0,1,1,0,0,0
21360979,0,0.0,0.0,0.0,0.0,0.567365,5.76515e-08,-3.1466e-07,0.0,-0.00824618,0.00859754,0.0284119,0.00765275,1.44962e-05,-7.912e-05,0.0,-0.00185445,0.00148328,-0.00300408,0.234188,0.0,0.1,-0.0284119,0.122058,0.242534,0.104693,0.105097,inf,inf,inf,inf,0,1,0,1,1,0,1,1,0,0,0
21460900,0,0.0,0.0,0.0,0.0,0.568017,5.76515e-08,-3.1466e-07,0.0,-0.00731053,0.00824928,0.0279099,0.0070859,1.44962e-05,-7.912e-05,0.0,-0.0142066,0.038838,-0.00267304,0.234208,0.0,0.1,-0.0279099,0.122646,0.243232,0.104994,0.105359,inf,inf,inf,inf,0,1,0,1,1,0,1,1,0,0,0
21562562,0,0.0,0.0,0.0,0.0,0.567111,5.76515e-08,-3.1466e-07,0.0,-0.00709148,0.00883368,0.0268712,0.00464947,1.44962e-05,-7.912e-05,0.0,-0.00624687,0.0388971,-0.00943501,0.23428,0.0,0.1,-0.0268712,0.12208,0.242836,0.104661,0.105318,inf,inf,inf,inf,0,1,0,1,1,0,1,1,0,0,0
21666500,0,0.0,0.0,0.0,0.0,0.563451,5.76515e-08,-3.1466e-07,0.0,-0.00704873,0.00870557,0.025629,-0.000439454,1.44962e-05,-7.912e-05,0.0,0.00501418,0.0195265,0.0224003,0.234405,0.0,0.1,-0.025629,0.123292,0.244175,0.105282,0.105744,inf,inf,inf,inf,0,1,0,1,1,0,1,1,0,0,0
21766526,0,0.0,0.0,0.0,0.0,0.561233,5.76515e-08,-3.1466e-07,0.0,-0.00628764,0.00782252,0.0244492,-0.00349014,1.44962e-05,-7.912e-05,0.0,-0.0203677,0.00281838,0.0230576,0.234327,0.0,0.1,-0.0244492,0.122119,0.243171,0.104629,0.105517,inf,inf,inf,inf,0,1,0,1,1,0,1,1,0,0,0
21866577,0,0.0,0.0,0.0,0.0,0.559902,5.76515e-08,-3.1466e-07,0.0,-0.00580303,0.00760578,0.0237428,-0.0046979,1.44962e-05,-7.912e-05,0.0,0.00606393,0.015909,0.0244435,0.234155,0.0,0.1,-0.0237428,0.121527,0.242719,0.104277,0.10546,inf,inf,inf,inf,0,1,0,1,1,0,1,1,0,0,0
21970638,0,0.0,0.0,0.0,0.0,0.557844,5.76515e-08,-3.1466e-07,0.0,-0.00549419,0.00683241,0.0230691,-0.00652552,1.44962e-05,-7.912e-05,0.0,0.00489947,0.0105128,0.017748,0.233879,0.0,0.1,-0.0230691,0.122811,0.244093,0.104952,0.10589,inf,inf,inf,inf,0,1,0,1,1,0,1,1,0,0,0
22070636,0,0.0,0.0,0.0,0.0,0.557682,5.76515e-08,-3.1466e-07,0.0,-0.00466263,0.00602384,0.0227723,-0.00610909,1.44962e-05,-7.912e-05,0.0,-0.00750156,0.0109206,-0.00159254,0.233587,0.0,0.100748,-0.0227723,0.121638,0.243016,0.104304,0.10566,inf,inf,inf,inf,0,1,0,1,1,0,1,1,0,0,0
22174616,0,0.0,0.0,0.0,0.0,0.559474,5.76515e-08,-3.1466e-07,0.0,-0.00404405,0.00550901,0.02388,-0.00243396,1.44962e-05,-7.912e-05,0.0,-0.000490401,0.00438278,0.0151522,0.233272,0.0,0.1,-0.02388,0.121147,0.24261,0.104021,0.10561,inf,inf,inf,inf,0,1,0,1,1,0,1,1,0,0,0
22275430,0,0.0,0.0,0.0,0.0,0.558836,5.76515e-08,-3.1466e-07,0.0,-0.00311189,0.00491105,0.0238177,-0.00258351,1.44962e-05,-7.912e-05,0.0,-0.00921625,0.0261654,0.020034,0.232916,0.0,0.1,-0.0238177,0.122508,0.244029,0.104747,0.10605,inf,inf,inf,inf,0,1,0,1,1,0,1,1,0,0,0
22375242,0,0.0,0.0,0.0,0.0,0.561101,5.76515e-08,-3.1466e-07,0.0,-0.00253167,0.00384412,0.024344,0.000523503,1.44962e-05,-7.912e-05,0.0,0.00273734,0.0134608,-0.00434189,0.232539,0.0,0.102964,-0.024344,0.12142,0.242995,0.104151,0.105825,inf,inf,inf,inf,0,1,0,1,1,0,1,1,0,0,0
22475318,0,0.0,0.0,0.0,0.0,0.564216,5.76515e-08,-3.1466e-07,0.0,-0.00192768,0.0030015,0.0249319,0.0043912,1.44962e-05,-7.912e-05,0.0,0.0139107,-0.0305326,0.0214939,0.232127,0.0,0.107731,-0.0249319,0.12108,0.242703,0.103964,0.105792,inf,inf,inf,inf,0,1,0,1,1,0,1,1,0,0,0
22579317,0,0.0,0.0,0.0,0.0,0.568407,5.76515e-08,-3.1466e-07,0.0,-0.00125286,0.00177722,0.0256578,0.00880446,1.44962e-05,-7.912e-05,0.0,-0.0158262,-0.0170115,0.00231128,0.231823,0.0,0.102961,-0.0256578,0.120692,0.242356,0.103738,0.10575,inf,inf,inf,inf,0,1,0,1,1,0,1,1,0,0,0
22679404,0,0.0,0.0,0.0,0.0,0.572606,5.76515e-08,-3.1466e-07,0.0,-0.000891528,0.00223148,0.027043,0.013357,1.44962e-05,-7.912e-05,0.0,-0.0118046,0.0150353,0.0077353,0.231564,0.0,0.109077,-0.027043,0.121441,0.243146,0.104128,0.106009,inf,inf,inf,inf,0,1,0,1,1,0,1,1,0,0,0
22783348,0,0.0,0.0,0.0,0.0,0.577611,5.76515e-08,-3.1466e-07,0.0,-0.000253316,0.00162519,0.0284207,0.0181427,1.44962e-05,-7.912e-05,0.0,-0.00825895,0.00661558,0.0166725,0.231224,0.0,0.104241,-0.0284207,0.121095,0.242826,0.103926,0.105973,inf,inf,inf,inf,0,1,0,1,1,0,1,1,0,0,0
22883399,0,0.0,0.0,0.0,0.0,0.581106,5.76515e-08,-3.1466e-07,0.0,-0.000232822,0.00152804,0.0297704,0.0209819,1.44962e-05,-7.912e-05,0.0,0.0110463,-0.0274012,0.027423,0.230902,0.0,0.101556,-0.0297704,0.120762,0.242516,0.103727,0.105937,inf,inf,inf,inf,0,1,0,1,1,0,1,1,0,0,0
22983294,0,0.0,0.0,0.0,0.0,0.585195,5.76515e-08,-3.1466e-07,0.0,-0.000262781,0.00163307,0.0312771,0.0241466,1.44962e-05,-7.912e-05,0.0,0.00321013,0.0112798,0.0231115,0.230621,0.0,0.1,-0.0312771,0.121565,0.243346,0.104142,0.106203,inf,inf,inf,inf,0,1,0,1,1,0,1,1,0,0,0
23087445,0,0.0,0.0,0.0,0.0,0.587197,5.76515e-08,-3.1466e-07,0.0,-6.75009e-05,0.00102384,0.0311649,0.0234198,1.44962e-05,-7.912e-05,0.0,-0.00172033,-0.000553609,0.000219453,0.230402,0.0,0.1,-0.0311649,0.121254,0.243053,0.103948,0.106169,inf,inf,inf,inf,0,1,0,1,1,0,1,1,0,0,0
23187347,0,0.0,0.0,0.0,0.0,0.590267,5.76515e-08,-3.1466e-07,0.0,0.000102852,0.000638043,0.0316251,0.0244537,1.44962e-05,-7.912e-05,0.0,0.000595872,0.000374268,-0.0070716,0.23029,0.0,0.1,-0.0316251,0.120954,0.242773,0.103758,0.106135,inf,inf,inf,inf,0,1,0,1,1,0,1,1,0,0,0
23287349,0,0.0,0.0,0.0,0.0,0.591932,5.76515e-08,-3.1466e-07,0.0,-0.000106265,0.000195165,0.0313805,0.0233061,1.44962e-05,-7.912e-05,0.0,0.0159197,-0.00158696,-0.00134882,0.230213,0.0,0.1,-0.0313805,0.120024,0.241845,0.103231,0.105921,inf,inf,inf,inf,0,1,0,1,1,0,1,1,0,0,0
23388995,0,0.0,0.0,0.0,0.0,0.593738,5.76515e-08,-3.1466e-07,0.0,-0.000275663,0.000646076,0.031021,0.0223806,1.44962e-05,-7.912e-05,0.0,-0.00383887,0.00323022,-0.0140016,0.230204,0.0,0.1,-0.031021,0.121487,0.243357,0.103986,0.106367,inf,inf,inf,inf,0,1,0,1,1,0,1,1,0,0,0
23492980,0,0.0,0.0,0.0,0.0,0.596213,5.76515e-08,-3.1466e-07,0.0,-0.000547823,0.000715429,0.0317339,0.0231612,1.44962e-05,-7.912e-05,0.0,0.00203201,-0.00131162,0.00754443,0.230268,0.0,0.1,-0.0317339,0.121321,0.243222,0.103877,0.106345,inf,inf,inf,inf,0,1,0,1,1,0,1,1,0,0,0
23592915,0,0.0,0.0,0.0,0.0,0.598544,5.76515e-08,-3.1466e-07,0.0,-0.000745767,0.000379172,0.03174,0.023132,1.44962e-05,-7.912e-05,0.0,0.01253,0.00222844,0.0117734,0.230337,0.0,0.1,-0.03174,0.120312,0.242257,0.103277,0.10611,inf,inf,inf,inf,0,1,0,1,1,0,1,1,0,0,0
23696903,0,0.0,0.0,0.0,0.0,0.598416,5.76515e-08,-3.1466e-07,0.0,-0.000896516,2.34948e-05,0.0310405,0.0199198,1.44962e-05,-7.912e-05,0.0,-0.00729717,0.00679512,-0.00479548,0.230415,0.0,0.1,-0.0310405,0.121706,0.243745,0.103964,0.106536,inf,inf,inf,inf,0,1,0,1,1,0,1,1,0,0,0
23797891,0,0.0,0.0,0.0,0.0,0.597847,5.76515e-08,-3.1466e-07,0.0,-0.00144816,0.0003031,0.0303069,0.0167345,1.44962e-05,-7.912e-05,0.0,0.00328768,-0.0291432,-0.00508422,0.230504,0.0,0.1,-0.0303069,0.123018,0.24519,0.104576,0.106942,inf,inf,inf,inf,0,1,0,1,1,0,1,1,0,0,0
23897758,0,0.0,0.0,0.0,0.0,0.596904,5.76515e-08,-3.1466e-07,0.0,-0.00158344,1.86131e-05,0.0296795,0.0135667,1.44962e-05,-7.912e-05,0.0,-0.00640039,-0.0179592,0.0197706,0.230456,0.0,0.1,-0.0296795,0.121882,0.24419,0.103881,0.106668,inf,inf,inf,inf,0,1,0,1,1,0,1,1,0,0,0
23997794,0,0.0,0.0,0.0,0.0,0.594105,5.76515e-08,-3.1466e-07,0.0,-0.0018351,-0.000518677,0.0283608,0.00843116,1.44962e-05,-7.912e-05,0.0,-0.0103702,-0.0256642,0.0180275,0.230445,0.0,0.1,-0.0283608,0.121389,0.243813,0.103537,0.106578,inf,inf,inf,inf,0,1,0,1,1,0,1,1,0,0,0
24101721,0,0.0,0.0,0.0,0.0,0.592352,5.76515e-08,-3.1466e-07,0.0,-0.001872,-0.000428,0.0271312,0.00491521,1.44962e-05,-7.912e-05,0.0,0.00173499,0.00316631,0.0193492,0.230452,0.0,0.1,-0.0271312,0.120922,0.243446,0.10322,0.10649,inf,inf,inf,inf,0,1,0,1,1,0,1,1,0,0,0
24201725,0,0.0,0.0,0.0,0.0,0.591553,5.76515e-08,-3.1466e-07,0.0,-0.00203534,-0.00144821,0.0263542,0.00309764,1.44962e-05,-7.912e-05,0.0,-0.00377417,0.0181937,0.00829897,0.230364,0.0,0.1,-0.0263542,0.12159,0.24422,0.103524,0.106711,inf,inf,inf,inf,0,1,0,1,1,0,1,1,0,0,0
24305693,0,0.0,0.0,0.0,0.0,0.592837,5.76515e-08,-3.1466e-07,0.0,-0.00255903,-0.00121821,0.0262068,0.0041643,1.44962e-05,-7.912e-05,0.0,-0.00292881,-0.0472465,-0.0111685,0.230306,0.0,0.1,-0.0262068,0.121122,0.243846,0.103216,0.10662,inf,inf,inf,inf,0,1,0,1,1,0,1,1,0,0,0
24405765,0,0.0,0.0,0.0,0.0,0.594448,5.76515e-08,-3.1466e-07,0.0,-0.00261771,-0.00211786,0.0265428,0.00598525,1.44962e-05,-7.912e-05,0.0,-0.00248656,-0.0114077,-0.0142844,0.230314,0.0,0.1,-0.0265428,0.12068,0.243483,0.102933,0.106532,inf,inf,inf,inf,0,1,0,1,1,0,1,1,0,0,0
24505815,0,0.0,0.0,0.0,0.0,0.593603,5.76515e-08,-3.1466e-07,0.0,-0.00322041,-0.00257332,0.0265702,0.00465228,1.44962e-05,-7.912e-05,0.0,-0.0213433,0.00815872,0.0243354,0.230431,0.0,0.1,-0.0265702,0.121397,0.244278,0.103287,0.106761,inf,inf,inf,inf,0,1,0,1,1,0,1,1,0,0,0
24609795,0,0.0,0.0,0.0,0.0,0.591271,5.76515e-08,-3.1466e-07,0.0,-0.00295903,-0.00275404,0.025431,0.000920787,1.44962e-05,-7.912e-05,0.0,-0.00250826,-0.00255846,0.0184745,0.23065,0.0,0.1,-0.025431,0.121016,0.243942,0.103057,0.106685,inf,inf,inf,inf,0,1,0,1,1,0,1,1,0,0,0
24711446,0,0.0,0.0,0.0,0.0,0.586651,5.76515e-08,-3.1466e-07,0.0,-0.00300689,-0.00287417,0.0234227,-0.00525567,1.44962e-05,-7.912e-05,0.0,0.00501609,0.00181292,-0.0270773,0.230887,0.0,0.1,-0.0234227,0.120652,0.243614,0.102838,0.106611,inf,inf,inf,inf,0,1,0,1,1,0,1,1,0,0,0
24811223,0,0.0,0.0,0.0,0.0,0.581815,5.76515e-08,-3.1466e-07,0.0,-0.00307353,-0.00226812,0.0217074,-0.0109527,1.44962e-05,-7.912e-05,0.0,0.00913986,0.011029,0.0177556,0.231041,0.0,0.1,-0.0217074,0.119654,0.242622,0.102284,0.106355,inf,inf,inf,inf,0,1,0,1,1,0,1,1,0,0,0
24911316,0,0.0,0.0,0.0,0.0,0.57452,5.76515e-08,-3.1466e-07,0.0,-0.00365363,-0.00220503,0.0185976,-0.0194235,1.44962e-05,-7.912e-05,0.0,-0.012529,0.00607229,0.00591331,0.231217,0.0,0.1,-0.0185976,0.121212,0.244253,0.103122,0.106796,inf,inf,inf,inf,0,1,0,1,1,0,1,1,0,0,0
25015274,0,0.0,0.0,0.0,0.0,0.568297,5.76515e-08,-3.1466e-07,0.0,-0.0036506,-0.00293832,0.0162455,-0.0252373,1.44962e-05,-7.912e-05,0.0,0.000707207,0.0126821,-0.00452583,0.231411,0.0,0.1,-0.0162455,0.120889,0.243945,0.102935,0.10673,inf,inf,inf,inf,0,1,0,1,1,0,1,1,0,0,0
25115324,0,0.0,0.0,0.0,0.0,0.562999,5.76515e-08,-3.1466e-07,0.0,-0.00362266,-0.00384222,0.0139952,-0.0296415,1.44962e-05,-7.912e-05,0.0,-0.010182,-0.0162623,0.0164769,0.231555,0.0,0.1,-0.0139952,0.119926,0.24297,0.102402,0.106481,inf,inf,inf,inf,0,1,0,1,1,0,1,1,0,0,0
25219319,0,0.0,0.0,0.0,0.0,0.560173,5.76515e-08,-3.1466e-07,0.0,-0.00401458,-0.00379027,0.0128374,-0.0299087,1.44962e-05,-7.912e-05,0.0,0.00659339,0.0179628,-0.0182326,0.231619,0.0,0.1,-0.0128374,0.119604,0.242663,0.102208,0.106413,inf,inf,inf,inf,0,1,0,1,1,0,1,1,0,0,0
25319369,0,0.0,0.0,0.0,0.0,0.557884,5.76515e-08,-3.1466e-07,0.0,-0.00474401,-0.00342797,0.0119567,-0.0292451,1.44962e-05,-7.912e-05,0.0,0.00489274,-0.00885484,0.0173179,0.231697,0.0,0.102734,-0.0119567,0.121044,0.24417,0.10296,0.106841,inf,inf,inf,inf,0,1,0,1,1,0,1,1,0,0,0
25419365,0,0.0,0.0,0.0,0.0,0.558025,5.76515e-08,-3.1466e-07,0.0,-0.00570564,-0.00312461,0.0120943,-0.0258347,1.44962e-05,-7.912e-05,0.0,-0.0156211,0.00986336,-0.00707243,0.231871,0.0,0.1,-0.0120943,0.120094,0.243204,0.102436,0.106594,inf,inf,inf,inf,0,1,0,1,1,0,1,1,0,0,0
25523348,0,0.0,0.0,0.0,0.0,0.555736,5.76515e-08,-3.1466e-07,0.0,-0.00644107,-0.00300745,0.0107366,-0.0263549,1.44962e-05,-7.912e-05,0.0,-0.00212746,-0.00650023,-0.00147069,0.23208,0.0,0.1,-0.0107366,0.119799,0.242913,0.102256,0.106533,inf,inf,inf,inf,0,1,0,1,1,0,1,1,0,0,0
25623439,0,0.0,0.0,0.0,0.0,0.553359,5.76515e-08,-3.1466e-07,0.0,-0.00703446,-0.00272811,0.00999376,-0.026271,1.44962e-05,-7.912e-05,0.0,-0.00411775,-0.026837,0.00683268,0.232203,0.0,0.1,-0.00999376,0.119526,0.242637,0.102094,0.106476,inf,inf,inf,inf,0,1,0,1,1,0,1,1,0,0,0
25723348,0,0.0,0.0,0.0,0.0,0.552411,5.76515e-08,-3.1466e-07,0.0,-0.00762686,-0.0022547,0.00946464,-0.0249793,1.44962e-05,-7.912e-05,0.0,-0.0221216,-0.0184327,0.0199082,0.232279,0.0,0.1,-0.00946464,0.120338,0.243489,0.102512,0.106726,inf,inf,inf,inf,0,1,0,1,1,0,1,1,0,0,0
25827460,0,0.0,0.0,0.0,0.0,0.550995,5.76515e-08,-3.1466e-07,0.0,-0.00762349,-0.00203754,0.00860537,-0.0243679,1.44962e-05,-7.912e-05,0.0,0.00862051,0.00473201,-0.0176532,0.232367,0.0,0.1,-0.00860537,0.120078,0.243223,0.102357,0.106673,inf,inf,inf,inf,0,1,0,1,1,0,1,1,0,0,0
25927294,0,0.0,0.0,0.0,0.0,0.54975,5.76515e-08,-3.1466e-07,0.0,-0.00780971,-0.00162937,0.00799778,-0.0233793,1.44962e-05,-7.912e-05,0.0,-0.00853579,0.01273,0.00751452,0.232514,0.0,0.102396,-0.00799778,0.119785,0.242942,0.10217,0.106612,inf,inf,inf,inf,0,1,0,1,1,0,1,1,0,0,0
26031318,0,0.0,0.0,0.0,0.0,0.551121,5.76515e-08,-3.1466e-07,0.0,-0.00802741,-0.00037506,0.00761494,-0.0197912,1.44962e-05,-7.912e-05,0.0,-0.0045108,-0.00644325,-0.00556152,0.232828,0.0,0.101714,-0.00761494,0.11951,0.24267,0.101999,0.106556,inf,inf,inf,inf,0,1,0,1,1,0,1,1,0,0,0
26135320,0,0.0,0.0,0.0,0.0,0.552151,5.76515e-08,-3.1466e-07,0.0,-0.00793722,0.000534544,0.00749855,-0.016697,1.44962e-05,-7.912e-05,0.0,0.0137735,0.00262264,0.0146847,0.23313,0.0,0.107609,-0.00749855,0.119235,0.242399,0.101827,0.106499,inf,inf,inf,inf,0,1,0,1,1,0,1,1,0,0,0
26237827,0,0.0,0.0,0.0,0.0,0.551886,5.76515e-08,-3.1466e-07,0.0,-0.00858945,0.000448652,0.0071431,-0.015744,1.44962e-05,-7.912e-05,0.0,-0.0140143,-0.0270444,-0.0232309,0.233432,0.0,0.1,-0.0071431,0.120054,0.243262,0.102247,0.106752,inf,inf,inf,inf,0,1,0,1,1,0,1,1,0,0,0
26337731,0,0.0,0.0,0.0,0.0,0.550909,5.76515e-08,-3.1466e-07,0.0,-0.00888279,0.00108576,0.00635186,-0.015779,1.44962e-05,-7.912e-05,0.0,-0.00559397,0.00489234,0.00427504,0.23359,0.0,0.1,-0.00635186,0.119885,0.243119,0.102144,0.106707,inf,inf,inf,inf,0,1,0,1,1,0,1,1,0,0,0
26437783,0,0.0,0.0,0.0,0.0,0.549703,5.76515e-08,-3.1466e-07,0.0,-0.00924837,0.00133313,0.00558216,-0.0161692,1.44962e-05,-7.912e-05,0.0,0.00502357,0.00647072,-0.0146496,0.233627,0.0,0.1,-0.00558216,0.120706,0.244015,0.10255,0.106952,inf,inf,inf,inf,0,1,0,1,1,0,1,1,0,0,0
26542553,0,0.0,0.0,0.0,0.0,0.548,5.76515e-08,-3.1466e-07,0.0,-0.00970373,0.00197332,0.00516189,-0.0165429,1.44962e-05,-7.912e-05,0.0,-0.0157737,0.0208667,0.0143097,0.233622,0.0,0.1,-0.00516189,0.1204,0.243729,0.102356,0.106889,inf,inf,inf,inf,0,1,0,1,1,0,1,1,0,0,0
26642581,0,0.0,0.0,0.0,0.0,0.547882,5.76515e-08,-3.1466e-07,0.0,-0.00901872,0.00181047,0.00508562,-0.0149136,1.44962e-05,-7.912e-05,0.0,0.0112052,-0.0201433,-0.0106106,0.233645,0.0,0.106013,-0.00508562,0.121843,0.245288,0.103077,0.107312,inf,inf,inf,inf,0,1,0,1,1,0,1,1,0,0,0
26742495,0,0.0,0.0,0.0,0.0,0.549421,5.76515e-08,-3.1466e-07,0.0,-0.00902412,0.00179067,0.00597935,-0.0111036,1.44962e-05,-7.912e-05,0.0,-0.00459726,0.00776121,0.0173266,0.233661,0.0,0.107976,-0.00597935,0.122459,0.246044,0.103323,0.107515,inf,inf,inf,inf,0,1,0,1,1,0,1,1,0,0,0
26846547,0,0.0,0.0,0.0,0.0,0.554359,5.76515e-08,-3.1466e-07,0.0,-0.00868507,0.00166448,0.0070584,-0.00408158,1.44962e-05,-7.912e-05,0.0,-0.020519,-0.0248786,-0.0206643,0.233732,0.0,0.115441,-0.0070584,0.121924,0.245627,0.102956,0.107398,inf,inf,inf,inf,0,1,0,1,1,0,1,1,0,0,0
26946572,0,0.0,0.0,0.0,0.0,0.55968,5.76515e-08,-3.1466e-07,0.0,-0.00917552,0.00212205,0.00895168,0.0031809,1.44962e-05,-7.912e-05,0.0,-0.00396334,-0.00329755,-0.0138507,0.233888,0.0,0.109325,-0.00895168,0.121403,0.245211,0.102611,0.107282,inf,inf,inf,inf,0,1,0,1,1,0,1,1,0,0,0
27046547,0,0.0,0.0,0.0,0.0,0.561037,5.76515e-08,-3.1466e-07,0.0,-0.00905747,0.00241541,0.00934285,0.00431666,1.44962e-05,-7.912e-05,0.0,0.00103364,0.011868,-0.00587719,0.234008,0.0,0.102116,-0.00934285,0.120285,0.244139,0.10197,0.106991,inf,inf,inf,inf,0,1,0,1,1,0,1,1,0,0,0
27150552,0,0.0,0.0,0.0,0.0,0.563316,5.76515e-08,-3.1466e-07,0.0,-0.00892716,0.00229837,0.00945184,0.00596396,1.44962e-05,-7.912e-05,0.0,-0.00913856,0.036806,-0.00185766,0.234137,0.0,0.106687,-0.00945184,0.121618,0.245593,0.102648,0.107394,inf,inf,inf,inf,0,1,0,1,1,0,1,1,0,0,0
27250503,0,0.0,0.0,0.0,0.0,0.564821,5.76515e-08,-3.1466e-07,0.0,-0.00835531,0.00313258,0.00933222,0.006441,1.44962e-05,-7.912e-05,0.0,0.00865939,0.0294394,0.00922748,0.234283,0.0,0.100155,-0.00933222,0.12109,0.24516,0.102312,0.107273,inf,inf,inf,inf,0,1,0,1,1,0,1,1,0,0,0
27350557,0,0.0,0.0,0.0,0.0,0.564284,5.76515e-08,-3.1466e-07,0.0,-0.00779258,0.00422062,0.00928283,0.00500132,1.44962e-05,-7.912e-05,0.0,0.000230737,0.0245416,0.0338188,0.234405,0.0,0.101114,-0.00928283,0.121605,0.24584,0.102516,0.107449,inf,inf,inf,inf,0,1,0,1,1,0,1,1,0,0,0
27456116,0,0.0,0.0,0.0,0.0,0.563394,5.76515e-08,-3.1466e-07,0.0,-0.00749257,0.00464182,0.0089554,0.00312218,1.44962e-05,-7.912e-05,0.0,-0.0173835,-0.0197954,0.0227446,0.234431,0.0,0.1,-0.0089554,0.120992,0.245344,0.102131,0.107306,inf,inf,inf,inf,0,1,0,1,1,0,1,1,0,0,0
27556089,0,0.0,0.0,0.0,0.0,0.561191,5.76515e-08,-3.1466e-07,0.0,-0.00758809,0.00460536,0.00738084,-0.000955522,1.44962e-05,-7.912e-05,0.0,-0.0116894,-0.0002976,0.0288686,0.234444,0.0,0.1,-0.00738084,0.120545,0.244994,0.101873,0.107184,inf,inf,inf,inf,0,1,0,1,1,0,1,1,0,0,0
27656115,0,0.0,0.0,0.0,0.0,0.560897,5.76515e-08,-3.1466e-07,0.0,-0.00722149,0.00534913,0.00739377,-0.00122839,1.44962e-05,-7.912e-05,0.0,-0.0162385,0.0291966,-0.0250664,0.234523,0.0,0.103276,-0.00739377,0.121158,0.245708,0.102178,0.10738,inf,inf,inf,inf,0,1,0,1,1,0,1,1,0,0,0
27760266,0,0.0,0.0,0.0,0.0,0.563321,5.76515e-08,-3.1466e-07,0.0,-0.00644586,0.00642514,0.00742214,0.00130042,1.44962e-05,-7.912e-05,0.0,0.00114739,0.0202073,0.0157856,0.234601,0.0,0.107744,-0.00742214,0.120667,0.245257,0.101908,0.107261,inf,inf,inf,inf,0,1,0,1,1,0,1,1,0,0,0
27860259,0,0.0,0.0,0.0,0.0,0.569067,5.76515e-08,-3.1466e-07,0.0,-0.00546924,0.00612482,0.00884138,0.00811297,1.44962e-05,-7.912e-05,0.0,0.020473,0.0116465,0.0068044,0.234591,0.0,0.115365,-0.00884138,0.120209,0.244819,0.101667,0.107148,inf,inf,inf,inf,0,1,0,1,1,0,1,1,0,0,0
27960993,0,0.0,0.0,0.0,0.0,0.57593,5.76515e-08,-3.1466e-07,0.0,-0.00453296,0.0058854,0.0112201,0.0161316,1.44962e-05,-7.912e-05,0.0,-0.00372163,0.0150455,0.00446935,0.234333,0.0,0.115092,-0.0112201,0.120908,0.245571,0.102049,0.107364,inf,inf,inf,inf,0,1,0,1,1,0,1,1,0,0,0
28064924,0,0.0,0.0,0.0,0.0,0.579806,5.76515e-08,-3.1466e-07,0.0,-0.00406603,0.00734514,0.0130397,0.0195876,1.44962e-05,-7.912e-05,0.0,-0.00133766,0.0182559,0.010817,0.234012,0.0,0.1,-0.0130397,0.120491,0.245154,0.101835,0.10726,inf,inf,inf,inf,0,1,0,1,1,0,1,1,0,0,0
28164881,0,0.0,0.0,0.0,0.0,0.578886,5.76515e-08,-3.1466e-07,0.0,-0.00357417,0.00804691,0.0121169,0.0154716,1.44962e-05,-7.912e-05,0.0,-0.0123695,0.0162935,0.0297768,0.233839,0.0,0.1,-0.0121169,0.120133,0.244795,0.101657,0.107163,inf,inf,inf,inf,0,1,0,1,1,0,1,1,0,0,0
28264889,0,0.0,0.0,0.0,0.0,0.579688,5.76515e-08,-3.1466e-07,0.0,-0.00297822,0.0090585,0.0122395,0.0146039,1.44962e-05,-7.912e-05,0.0,0.0118142,-0.0136654,-0.00764929,0.233604,0.0,0.1,-0.0122395,0.120769,0.245508,0.101977,0.107364,inf,inf,inf,inf,0,1,0,1,1,0,1,1,0,0,0
28368922,0,0.0,0.0,0.0,0.0,0.580567,5.76515e-08,-3.1466e-07,0.0,-0.00272377,0.00936612,0.0121624,0.0136944,1.44962e-05,-7.912e-05,0.0,-0.00607794,0.0145653,-0.0122507,0.233322,0.0,0.1,-0.0121624,0.12206,0.246904,0.102641,0.107752,inf,inf,inf,inf,0,1,0,1,1,0,1,1,0,0,0
28470463,0,0.0,0.0,0.0,0.0,0.578451,5.76515e-08,-3.1466e-07,0.0,-0.00236896,0.00932817,0.0113865,0.00934844,1.44962e-05,-7.912e-05,0.0,-0.00103168,0.00241638,-0.0234806,0.233088,0.0,0.1,-0.0113865,0.12151,0.246404,0.102319,0.107617,inf,inf,inf,inf,0,1,0,1,1,0,1,1,0,0,0
28570637,0,0.0,0.0,0.0,0.0,0.576045,5.76515e-08,-3.1466e-07,0.0,-0.00195415,0.00872376,0.0103252,0.00496191,1.44962e-05,-7.912e-05,0.0,0.00822546,0.0124644,-0.0175145,0.232816,0.0,0.1,-0.0103252,0.122125,0.247102,0.102622,0.10781,inf,inf,inf,inf,0,1,0,1,1,0,1,1,0,0,0
28670619,0,0.0,0.0,0.0,0.0,0.574032,5.76515e-08,-3.1466e-07,0.0,-0.00131432,0.00878138,0.00931199,0.00151929,1.44962e-05,-7.912e-05,0.0,0.00649944,0.0134648,-0.0238317,0.23255,0.0,0.1,-0.00931199,0.121649,0.246693,0.102352,0.107678,inf,inf,inf,inf,0,1,0,1,1,0,1,1,0,0,0
28774636,0,0.0,0.0,0.0,0.0,0.567897,5.76515e-08,-3.1466e-07,0.0,-0.000483809,0.00908488,0.00769125,-0.00614685,1.44962e-05,-7.912e-05,0.0,0.0114815,-0.0130833,0.0265454,0.232317,0.0,0.1,-0.00769125,0.121097,0.246177,0.102038,0.10754,inf,inf,inf,inf,0,1,0,1,1,0,1,1,0,0,0
28874531,0,0.0,0.0,0.0,0.0,0.560633,5.76515e-08,-3.1466e-07,0.0,0.000172411,0.00784675,0.00495807,-0.015204,1.44962e-05,-7.912e-05,0.0,0.00772916,-0.00318661,0.00106005,0.231952,0.0,0.1,-0.00495807,0.121708,0.246859,0.102346,0.107732,inf,inf,inf,inf,0,1,0,1,1,0,1,1,0,0,0
28978674,0,0.0,0.0,0.0,0.0,0.553341,5.76515e-08,-3.1466e-07,0.0,0.000464221,0.00811256,0.00249716,-0.0228057,1.44962e-05,-7.912e-05,0.0,0.00709627,0.024036,-0.00753074,0.231505,0.0,0.1,-0.00249716,0.121194,0.246356,0.102066,0.107603,inf,inf,inf,inf,0,1,0,1,1,0,1,1,0,0,0
29078568,0,0.0,0.0,0.0,0.0,0.54884,5.76515e-08,-3.1466e-07,0.0,0.000760411,0.00836186,0.00092795,-0.0259505,1.44962e-05,-7.912e-05,0.0,-0.0133647,0.0136041,-0.0100472,0.231114,0.0,0.1,-0.00092795,0.120718,0.245872,0.101816,0.107482,inf,inf,inf,inf,0,1,0,1,1,0,1,1,0,0,0
29178436,0,0.0,0.0,0.0,0.0,0.54654,5.76515e-08,-3.1466e-07,0.0,0.00128196,0.00781631,0.000582109,-0.0256881,1.44962e-05,-7.912e-05,0.0,0.00761238,0.0145199,-0.0143947,0.230806,0.0,0.100742,-0.000582109,0.119652,0.244738,0.101263,0.107186,inf,inf,inf,inf,0,1,0,1,1,0,1,1,0,0,0
29282521,0,0.0,0.0,0.0,0.0,0.547472,5.76515e-08,-3.1466e-07,0.0,0.00174833,0.0076466,0.000967992,-0.0214165,1.44962e-05,-7.912e-05,0.0,-0.00996009,0.00144202,-0.0070698,0.23057,0.0,0.104725,-0.000967992,0.121006,0.246151,0.101996,0.107591,inf,inf,inf,inf,0,1,0,1,1,0,1,1,0,0,0
29382539,0,0.0,0.0,0.0,0.0,0.546718,5.76515e-08,-3.1466e-07,0.0,0.00191719,0.00671423,0.000882294,-0.0197775,1.44962e-05,-7.912e-05,0.0,0.00752242,-0.0125213,0.0115167,0.230339,0.0,0.103834,-0.000882294,0.12063,0.245723,0.101817,0.107495,inf,inf,inf,inf,0,1,0,1,1,0,1,1,0,0,0
29482559,0,0.0,0.0,0.0,0.0,0.545036,5.76515e-08,-3.1466e-07,0.0,0.002365,0.0066126,-4.98682e-06,-0.0202701,1.44962e-05,-7.912e-05,0.0,-0.003654,-0.0148726,0.00895744,0.230116,0.0,0.100128,4.98682e-06,0.119637,0.244634,0.101311,0.107218,inf,inf,inf,inf,0,1,0,1,1,0,1,1,0,0,0
29586640,0,0.0,0.0,0.0,0.0,0.544457,5.76515e-08,-3.1466e-07,0.0,0.00219668,0.00603195,-6.01311e-05,-0.018666,1.44962e-05,-7.912e-05,0.0,-0.00919039,0.0189144,-0.00326901,0.229932,0.0,0.101775,6.01311e-05,0.119303,0.244238,0.101151,0.107132,inf,inf,inf,inf,0,1,0,1,1,0,1,1,0,0,0
29686552,0,0.0,0.0,0.0,0.0,0.541916,5.76515e-08,-3.1466e-07,0.0,0.00250549,0.00555234,-0.00105767,-0.0200899,1.44962e-05,-7.912e-05,0.0,-0.00876088,0.00709835,0.00679742,0.229858,0.0,0.1,0.00105767,0.118999,0.243861,0.101011,0.107054,inf,inf,inf,inf,0,1,0,1,1,0,1,1,0,0,0
29787269,0,0.0,0.0,0.0,0.0,0.53648,5.76515e-08,-3.1466e-07,0.0,0.0026069,0.00536722,-0.00225723,-0.0245739,1.44962e-05,-7.912e-05,0.0,0.00964161,-0.00356187,-0.00216285,0.229791,0.0,0.1,0.00225723,0.119792,0.244653,0.10145,0.107296,inf,inf,inf,inf,0,1,0,1,1,0,1,1,0,0,0
29891250,0,0.0,0.0,0.0,0.0,0.530245,5.76515e-08,-3.1466e-07,0.0,0.00257079,0.0048017,-0.00387644,-0.0294866,1.44962e-05,-7.912e-05,0.0,-0.0091297,0.0155225,0.0142399,0.229731,0.0,0.1,0.00387644,0.119513,0.244298,0.101318,0.107226,inf,inf,inf,inf,0,1,0,1,1,0,1,1,0,0,0
29991431,0,0.0,0.0,0.0,0.0,0.529323,5.76515e-08,-3.1466e-07,0.0,0.00249569,0.0048339,-0.00392309,-0.0270554,1.44962e-05,-7.912e-05,0.0,0.00278916,-0.0163971,0.0103317,0.22964,0.0,0.111847,0.00392309,0.119315,0.244026,0.101233,0.107169,inf,inf,inf,inf,0,1,0,1,1,0,1,1,0,0,0
30092912,0,0.0,0.0,0.0,0.0,0.53172,5.76515e-08,-3.1466e-07,0.0,0.00295153,0.00440448,-0.0028636,-0.0208666,1.44962e-05,-7.912e-05,0.0,0.00573892,0.014916,0.00939065,0.229583,0.0,0.112151,0.0028636,0.120133,0.244841,0.101674,0.107419,inf,inf,inf,inf,0,1,0,1,1,0,1,1,0,0,0
30193038,0,0.0,0.0,0.0,0.0,0.535175,5.76515e-08,-3.1466e-07,0.0,0.002546,0.00449988,-0.00150296,-0.0139929,1.44962e-05,-7.912e-05,0.0,-0.0126656,0.0115512,-0.000263573,0.229561,0.0,0.110538,0.00150296,0.119887,0.244521,0.10155,0.10736,inf,inf,inf,inf,0,1,0,1,1,0,1,1,0,0,0
30296997,0,0.0,0.0,0.0,0.0,0.535672,5.76515e-08,-3.1466e-07,0.0,0.00209815,0.0051867,-0.00110748,-0.0117493,1.44962e-05,-7.912e-05,0.0,-0.0340276,0.0237797,-0.027896,0.229555,0.0,0.107607,0.00110748,0.119723,0.244317,0.101469,0.107306,inf,inf,inf,inf,0,1,0,1,1,0,1,1,0,0,0
30397010,0,0.0,0.0,0.0,0.0,0.537971,5.76515e-08,-3.1466e-07,0.0,0.00182501,0.00536397,-0.000506475,-0.0078849,1.44962e-05,-7.912e-05,0.0,0.0237237,0.0149169,0.0112792,0.229493,0.0,0.107961,0.000506475,0.120485,0.245112,0.101849,0.107544,inf,inf,inf,inf,0,1,0,1,1,0,1,1,0,0,0
30500940,0,0.0,0.0,0.0,0.0,0.539918,5.76515e-08,-3.1466e-07,0.0,0.00216649,0.00459929,-0.000225117,-0.00498226,1.44962e-05,-7.912e-05,0.0,-0.0113507,0.041016,0.000418454,0.229436,0.0,0.111727,0.000225117,0.120102,0.244727,0.101604,0.107454,inf,inf,inf,inf,0,1,0,1,1,0,1,1,0,0,0
30600932,0,0.0,0.0,0.0,0.0,0.541208,5.76515e-08,-3.1466e-07,0.0,0.00149679,0.00445612,-0.000353754,-0.00356995,1.44962e-05,-7.912e-05,0.0,-0.00404041,0.00724858,-0.0016161,0.229313,0.0,0.1,0.000353754,0.121449,0.246174,0.102273,0.107865,inf,inf,inf,inf,0,1,0,1,1,0,1,1,0,0,0
30701702,0,0.0,0.0,0.0,0.0,0.539064,5.76515e-08,-3.1466e-07,0.0,0.000764417,0.00473016,-0.00108206,-0.00621279,1.44962e-05,-7.912e-05,0.0,0.0318612,-0.015433,-0.000370614,0.22912,0.0,0.1,0.00108206,0.122074,0.246902,0.102542,0.108068,inf,inf,inf,inf,0,1,0,1,1,0,1,1,0,0,0
30801679,0,0.0,0.0,0.0,0.0,0.533335,5.76515e-08,-3.1466e-07,0.0,-0.0002883,0.00553802,-0.00311173,-0.0132645,1.44962e-05,-7.912e-05,0.0,-0.00384624,0.00801047,-0.0118174,0.229021,0.0,0.1,0.00311173,0.121449,0.246384,0.10212,0.107921,inf,inf,inf,inf,0,1,0,1,1,0,1,1,0,0,0
30905666,0,0.0,0.0,0.0,0.0,0.526841,5.76515e-08,-3.1466e-07,0.0,-0.000981047,0.00505761,-0.00548483,-0.0204629,1.44962e-05,-7.912e-05,0.0,-0.00489802,-0.00223096,0.00368425,0.228891,0.0,0.1,0.00548483,0.122621,0.247767,0.102649,0.108279,inf,inf,inf,inf,0,1,0,1,1,0,1,1,0,0,0
31005731,0,0.0,0.0,0.0,0.0,0.519141,5.76515e-08,-3.1466e-07,0.0,-0.0017196,0.00535901,-0.00762978,-0.0280226,1.44962e-05,-7.912e-05,0.0,-0.0178343,-0.0055296,-0.0190608,0.228967,0.0,0.1,0.00762978,0.122997,0.248348,0.102742,0.10842,inf,inf,inf,inf,0,1,0,1,1,0,1,1,0,0,0
31109864,0,0.0,0.0,0.0,0.0,0.510776,5.76515e-08,-3.1466e-07,0.0,-0.00285013,0.00636961,-0.0100702,-0.0354254,1.44962e-05,-7.912e-05,0.0,0.00151937,0.00231996,-0.0157599,0.229205,0.0,0.1,0.0100702,0.122221,0.247721,0.102246,0.108233,inf,inf,inf,inf,0,1,0,1,1,0,1,1,0,0,0
