timestamp,roll_body,pitch_body,yaw_body,yaw_sp_move_rate,q_d[0],q_d[1],q_d[2],q_d[3],thrust,landing_gear,q_d_valid,roll_reset_integral,pitch_reset_integral,yaw_reset_integral,fw_control_yaw,disable_mc_yaw_control,apply_flaps
4206548,0.0,-0.0,0.0,0.0,1.0,0.0,0.0,0.0,0.0,-1.0,1,0,0,0,0,0,0
4227513,0.0,-0.0,0.0,0.0,1.0,0.0,0.0,0.0,0.0,-1.0,1,0,0,0,0,0,0
4311524,0.0,-0.0,0.0,0.0,1.0,0.0,0.0,0.0,0.0,-1.0,1,0,0,0,0,0,0
4416828,0.0,-0.0,0.0,0.0,1.0,0.0,0.0,0.0,0.0,-1.0,1,0,0,0,0,0,0
4521534,0.0,-0.0,0.0,0.0,1.0,0.0,0.0,0.0,0.0,-1.0,1,0,0,0,0,0,0
4626515,0.0,-0.0,0.0,0.0,1.0,0.0,0.0,0.0,0.0,-1.0,1,0,0,0,0,0,0
4732294,0.0,-0.0,0.0,0.0,1.0,0.0,0.0,0.0,0.0,-1.0,1,0,0,0,0,0,0
4836592,0.0,-0.0,0.0,0.0,1.0,0.0,0.0,0.0,0.0,-1.0,1,0,0,0,0,0,0
4921547,0.0,-0.0,0.0,0.0,1.0,0.0,0.0,0.0,0.0,-1.0,1,0,0,0,0,0,0
5028538,0.0,-0.0,0.0,0.0,1.0,0.0,0.0,0.0,0.0,-1.0,1,0,0,0,0,0,0
5133478,0.0,-0.0,0.0,0.0,1.0,0.0,0.0,0.0,0.0,-1.0,1,0,0,0,0,0,0
5238473,0.0,-0.0,0.0,0.0,1.0,0.0,0.0,0.0,0.0,-1.0,1,0,0,0,0,0,0
5343486,0.0,-0.0,0.0,0.0,1.0,0.0,0.0,0.0,0.0,-1.0,1,0,0,0,0,0,0
5427914,0.0,-0.0,0.0,0.0,1.0,0.0,0.0,0.0,0.0,-1.0,1,0,0,0,0,0,0
5532562,0.0,-0.0,0.0,0.0,1.0,0.0,0.0,0.0,0.0,-1.0,1,0,0,0,0,0,0
5637484,0.0,-0.0,0.0,0.0,1.0,0.0,0.0,0.0,0.0,-1.0,1,0,0,0,0,0,0
5742489,0.0,-0.0,0.0,0.0,1.0,0.0,0.0,0.0,0.0,-1.0,1,0,0,0,0,0,0
5848557,0.0,-0.0,0.0,0.0,1.0,0.0,0.0,0.0,0.0,-1.0,1,0,0,0,0,0,0
5953478,0.0,-0.0,0.0,0.0,1.0,0.0,0.0,0.0,0.0,-1.0,1,0,0,0,0,0,0
6038394,0.0,-0.0,0.0,0.0,1.0,0.0,0.0,0.0,0.0,-1.0,1,0,0,0,0,0,0
6142476,0.0,-0.0,0.0,0.0,1.0,0.0,0.0,0.0,0.0,-1.0,1,0,0,0,0,0,0
6247472,0.0,-0.0,0.0,0.0,1.0,0.0,0.0,0.0,0.0,-1.0,1,0,0,0,0,0,0
6352770,0.0,-0.0,0.0,0.0,1.0,0.0,0.0,0.0,0.0,-1.0,1,0,0,0,0,0,0
6457477,0.0,-0.0,0.0,0.0,1.0,0.0,0.0,0.0,0.0,-1.0,1,0,0,0,0,0,0
6562527,0.0,-0.0,0.0,0.0,1.0,0.0,0.0,0.0,0.0,-1.0,1,0,0,0,0,0,0
6646474,0.0,-0.0,0.0,0.0,1.0,0.0,0.0,0.0,0.0,-1.0,1,0,0,0,0,0,0
6751473,0.0,-0.0,0.0,0.0,1.0,0.0,0.0,0.0,0.0,-1.0,1,0,0,0,0,0,0
6856764,0.0,-0.0,0.0,0.0,1.0,0.0,0.0,0.0,0.0,-1.0,1,0,0,0,0,0,0
6961478,0.0,-0.0,0.0,0.0,1.0,0.0,0.0,0.0,0.0,-1.0,1,0,0,0,0,0,0
7066510,0.0,-0.0,0.0,0.0,1.0,0.0,0.0,0.0,0.0,-1.0,1,0,0,0,0,0,0
7171472,0.0,-0.0,0.0,0.0,1.0,0.0,0.0,0.0,0.0,-1.0,1,0,0,0,0,0,0
7255472,0.0,-0.0,0.0,0.0,1.0,0.0,0.0,0.0,0.0,-1.0,1,0,0,0,0,0,0
7360787,0.0,-0.0,0.0,0.0,1.0,0.0,0.0,0.0,0.0,-1.0,1,0,0,0,0,0,0
7465481,0.0,-0.0,0.0,0.0,1.0,0.0,0.0,0.0,0.0,-1.0,1,0,0,0,0,0,0
7570472,0.0,-0.0,0.0,0.0,1.0,0.0,0.0,0.0,0.0,-1.0,1,0,0,0,0,0,0
7675476,0.0,-0.0,0.0,0.0,1.0,0.0,0.0,0.0,0.0,-1.0,1,0,0,0,0,0,0
7780545,0.0,-0.0,0.0,0.0,1.0,0.0,0.0,0.0,0.0,-1.0,1,0,0,0,0,0,0
7864601,0.0,-0.0,0.0,0.0,1.0,0.0,0.0,0.0,0.0,-1.0,1,0,0,0,0,0,0
7969521,0.0,-0.0,0.0,0.0,1.0,0.0,0.0,0.0,0.0,-1.0,1,0,0,0,0,0,0
8074476,0.0,-0.0,0.0,0.0,1.0,0.0,0.0,0.0,0.0,-1.0,1,0,0,0,0,0,0
8179476,0.0,-0.0,0.0,0.0,1.0,0.0,0.0,0.0,0.0,-1.0,1,0,0,0,0,0,0
8288091,0.0,-0.0,0.251529,0.0,0.992102,0.0,0.0,0.125433,0.0,-1.0,1,0,0,0,0,0,0
8391850,0.0,-0.0,0.250542,0.0,0.992164,0.0,0.0,0.124943,0.0,-1.0,1,0,0,0,0,0,0
8490974,0.0,-0.0,0.249236,0.0,0.992245,0.0,0.0,0.124296,0.0,-1.0,1,0,0,0,0,0,0
8593580,0.0,-0.0,0.247976,0.0,0.992323,0.0,0.0,0.12367,0.0,-1.0,1,0,0,0,0,0,0
8697136,0.0,-0.0,0.246748,0.0,0.992399,0.0,0.0,0.123061,0.0,-1.0,1,0,0,0,0,0,0
8801474,0.0,-0.0,0.24572,0.0,0.992462,0.0,0.0,0.122551,0.0,-1.0,1,0,0,0,0,0,0
8906693,0.0,-0.0,0.24474,0.0,0.992522,0.0,0.0,0.122065,0.0,-1.0,1,0,0,0,0,0,0
9005954,0.0,-0.0,0.243755,0.0,0.992582,0.0,0.0,0.121576,0.0,-1.0,1,0,0,0,0,0,0
9107189,0.0,-0.0,0.242791,0.0,0.992641,0.0,0.0,0.121097,0.0,-1.0,1,0,0,0,0,0,0
9211275,0.0,-0.0,0.241864,0.0,0.992697,0.0,0.0,0.120637,0.0,-1.0,1,0,0,0,0,0,0
9310313,0.0,-0.0,0.240961,0.0,0.992751,0.0,0.0,0.120189,0.0,-1.0,1,0,0,0,0,0,0
9410741,0.0,-0.0,0.240179,0.0,0.992798,0.0,0.0,0.119801,0.0,-1.0,1,0,0,0,0,0,0
9514416,0.0,-0.0,0.239538,0.0,0.992836,0.0,0.0,0.119483,0.0,-1.0,1,0,0,0,0,0,0
9614186,0.0,-0.0,0.239367,0.0,0.992846,0.0,0.0,0.119398,0.0,-1.0,1,0,0,0,0,0,0
9718215,0.0,-0.0,0.239444,0.0,0.992842,0.0,0.0,0.119436,0.0,-1.0,1,0,0,0,0,0,0
9818408,0.0,-0.0,0.23993,0.0,0.992813,0.0,0.0,0.119677,0.0,-1.0,1,0,0,0,0,0,0
9918168,0.0,-0.0,0.240457,0.0,0.992781,0.0,0.0,0.119939,0.0,-1.0,1,0,0,0,0,0,0
10022142,0.0,-0.0,0.24061,0.0,0.992772,0.0,0.0,0.120015,0.0,-1.0,1,0,0,0,0,0,0
10122599,0.0,-0.0,0.240419,0.0,0.992784,0.0,0.0,0.11992,0.0,-1.0,1,0,0,0,0,0,0
10222224,0.0,-0.0,0.240028,0.0,0.992807,0.0,0.0,0.119726,0.0,-1.0,1,0,0,0,0,0,0
10324838,0.0,-0.0,0.23958,0.0,0.992834,0.0,0.0,0.119504,0.0,-1.0,1,0,0,0,0,0,0
10429466,0.0,-0.0,0.23916,0.0,0.992859,0.0,0.0,0.119295,0.0,-1.0,1,0,0,0,0,0,0
10532851,0.0,-0.0,0.238719,0.0,0.992885,0.0,0.0,0.119076,0.0,-1.0,1,0,0,0,0,0,0
10632342,0.0,-0.0,0.238344,0.0,0.992907,0.0,0.0,0.11889,0.0,-1.0,1,0,0,0,0,0,0
10736609,0.0,-0.0,0.238258,0.0,0.992913,0.0,0.0,0.118848,0.0,-1.0,1,0,0,0,0,0,0
10837155,0.0,-0.0,0.238332,0.0,0.992908,0.0,0.0,0.118884,0.0,-1.0,1,0,0,0,0,0,0
10936520,0.0,-0.0,0.238627,0.0,0.992891,0.0,0.0,0.119031,0.0,-1.0,1,0,0,0,0,0,0
11040637,0.0,-0.0,0.238786,0.0,0.992881,0.0,0.0,0.119109,0.0,-1.0,1,0,0,0,0,0,0
11141608,0.0,-0.0,0.238993,0.0,0.992869,0.0,0.0,0.119212,0.0,-1.0,1,0,0,0,0,0,0
11245372,0.0,-0.0,0.239116,0.0,0.992861,0.0,0.0,0.119273,0.0,-1.0,1,0,0,0,0,0,0
11348931,0.0,-0.0,0.23907,0.0,0.992864,0.0,0.0,0.119251,0.0,-1.0,1,0,0,0,0,0,0
11448542,0.0,-0.0,0.239037,0.0,0.992866,0.0,0.0,0.119234,0.0,-1.0,1,0,0,0,0,0,0
11550273,0.0,-0.0,0.238942,0.0,0.992872,0.0,0.0,0.119187,0.0,-1.0,1,0,0,0,0,0,0
11650262,0.0,-0.0,0.238796,0.0,0.992881,0.0,0.0,0.119114,0.0,-1.0,1,0,0,0,0,0,0
11755061,0.0,-0.0,0.238775,0.0,0.992882,0.0,0.0,0.119104,0.0,-1.0,1,0,0,0,0,0,0
11856032,0.0,-0.0,0.238959,0.0,0.992871,0.0,0.0,0.119196,0.0,-1.0,1,0,0,0,0,0,0
11955765,0.0,-0.0,0.239372,0.0,0.992846,0.0,0.0,0.1194,0.0,-1.0,1,0,0,0,0,0,0
12059831,0.0,-0.0,0.239749,0.0,0.992824,0.0,0.0,0.119588,0.0,-1.0,1,0,0,0,0,0,0
12160131,0.0,-0.0,0.239941,0.0,0.992812,0.0,0.0,0.119683,0.0,-1.0,1,0,0,0,0,0,0
12259917,0.0,-0.0,0.240084,0.0,0.992804,0.0,0.0,0.119754,0.0,-1.0,1,0,0,0,0,0,0
12363743,0.0,-0.0,0.240313,0.0,0.99279,0.0,0.0,0.119868,0.0,-1.0,1,0,0,0,0,0,0
12463941,0.0,-0.0,0.240444,0.0,0.992782,0.0,0.0,0.119933,0.0,-1.0,1,0,0,0,0,0,0
12566305,0.0,-0.0,0.240471,0.0,0.99278,0.0,0.0,0.119946,0.0,-1.0,1,0,0,0,0,0,0
12666432,0.0,-0.0,0.240468,0.0,0.992781,0.0,0.0,0.119944,0.0,-1.0,1,0,0,0,0,0,0
12770737,0.0,-0.0,0.240362,0.0,0.992787,0.0,0.0,0.119892,0.0,-1.0,1,0,0,0,0,0,0
12870226,0.0,-0.0,0.240089,0.0,0.992803,0.0,0.0,0.119756,0.0,-1.0,1,0,0,0,0,0,0
12971014,0.0,-0.0,0.239904,0.0,0.992814,0.0,0.0,0.119665,0.0,-1.0,1,0,0,0,0,0,0
13075400,0.0,-0.0,0.239891,0.0,0.992815,0.0,0.0,0.119658,0.0,-1.0,1,0,0,0,0,0,0
13179184,0.0,-0.0,0.24005,0.0,0.992806,0.0,0.0,0.119737,0.0,-1.0,1,0,0,0,0,0,0
13280685,0.0,-0.0,0.240274,0.0,0.992792,0.0,0.0,0.119848,0.0,-1.0,1,0,0,0,0,0,0
13380860,0.0,-0.0,0.240407,0.0,0.992784,0.0,0.0,0.119914,0.0,-1.0,1,0,0,0,0,0,0
13484751,0.0,-0.0,0.240195,0.0,0.992797,0.0,0.0,0.119809,0.0,-1.0,1,0,0,0,0,0,0
13584559,0.0,-0.0,0.239825,0.0,0.992819,0.0,0.0,0.119625,0.0,-1.0,1,0,0,0,0,0,0
13685435,0.0,-0.0,0.23939,0.0,0.992845,0.0,0.0,0.119409,0.0,-1.0,1,0,0,0,0,0,0
13785433,0.0,-0.0,0.238983,0.0,0.992869,0.0,0.0,0.119207,0.0,-1.0,1,0,0,0,0,0,0
13889342,0.0,-0.0,0.238462,0.0,0.9929,0.0,0.0,0.118949,0.0,-1.0,1,0,0,0,0,0,0
13989545,0.0,-0.0,0.238065,0.0,0.992924,0.0,0.0,0.118752,0.0,-1.0,1,0,0,0,0,0,0
14093635,0.0,-0.0,0.237886,0.0,0.992935,0.0,0.0,0.118663,0.0,-1.0,1,0,0,0,0,0,0
14193325,0.0,-0.0,0.237852,0.0,0.992937,0.0,0.0,0.118646,0.0,-1.0,1,0,0,0,0,0,0
14293573,0.0,-0.0,0.23768,0.0,0.992947,0.0,0.0,0.11856,0.0,-1.0,1,0,0,0,0,0,0
14397876,0.0,-0.0,0.237446,0.0,0.992961,0.0,0.0,0.118444,0.0,-1.0,1,0,0,0,0,0,0
14497465,0.0,-0.0,0.237162,0.0,0.992977,0.0,0.0,0.118303,0.0,-1.0,1,0,0,0,0,0,0
14598149,0.0,-0.0,0.235477,0.0,0.993077,0.0,0.0,0.117466,0.0,-1.0,1,0,0,0,0,0,0
14701963,0.0,-0.0,0.234269,0.0,0.993148,0.0,0.0,0.116867,0.0,-1.0,1,0,0,0,0,0,0
14801418,0.0,-0.0,0.233518,0.0,0.993191,0.0,0.0,0.116494,0.0,-1.0,1,0,0,0,0,0,0
14905353,0.0,-0.0,0.232965,0.0,0.993224,0.0,0.0,0.116219,0.0,-1.0,1,0,0,0,0,0,0
15005844,0.0,-0.0,0.232562,0.0,0.993247,0.0,0.0,0.116019,0.0,-1.0,1,0,0,0,0,0,0
15105365,0.0,-0.0,0.232128,0.0,0.993272,0.0,0.0,0.115803,0.0,-1.0,1,0,0,0,0,0,0
15207485,0.0,-0.0,0.231726,0.0,0.993295,0.0,0.0,0.115604,0.0,-1.0,1,0,0,0,0,0,0
15307908,0.0,-0.0,0.231234,0.0,0.993324,0.0,0.0,0.11536,0.0,-1.0,1,0,0,0,0,0,0
15411766,0.0,-0.0,0.230435,0.0,0.99337,0.0,0.0,0.114963,0.0,-1.0,1,0,0,0,0,0,0
15513021,0.0,-0.0,0.229551,0.0,0.993421,0.0,0.0,0.114524,0.0,-1.0,1,0,0,0,0,0,0
15612513,0.0,-0.0,0.228696,0.0,0.993469,0.0,0.0,0.114099,0.0,-1.0,1,0,0,0,0,0,0
15716353,0.0,-0.0,0.227892,0.0,0.993515,0.0,0.0,0.113699,0.0,-1.0,1,0,0,0,0,0,0
15819202,0.0,-0.0,0.22732,0.0,0.993548,0.0,0.0,0.113415,0.0,-1.0,1,0,0,0,0,0,0
15918233,0.0,-0.0,0.22683,0.0,0.993575,0.0,0.0,0.113172,0.0,-1.0,1,0,0,0,0,0,0
16019029,0.0,-0.0,0.226322,0.0,0.993604,0.0,0.0,0.11292,0.0,-1.0,1,0,0,0,0,0,0
16122998,0.0,-0.0,0.225916,0.0,0.993627,0.0,0.0,0.112718,0.0,-1.0,1,0,0,0,0,0,0
16221955,0.0,-0.0,0.225628,0.0,0.993643,0.0,0.0,0.112575,0.0,-1.0,1,0,0,0,0,0,0
16326121,0.0,-0.0,0.225525,0.0,0.993649,0.0,0.0,0.112524,0.0,-1.0,1,0,0,0,0,0,0
16426458,0.0,-0.0,0.225617,0.0,0.993644,0.0,0.0,0.112569,0.0,-1.0,1,0,0,0,0,0,0
16526231,0.0,-0.0,0.225688,0.0,0.99364,0.0,0.0,0.112605,0.0,-1.0,1,0,0,0,0,0,0
16630220,0.0,-0.0,0.22577,0.0,0.993635,0.0,0.0,0.112645,0.0,-1.0,1,0,0,0,0,0,0
16730651,0.0,-0.0,0.225885,0.0,0.993629,0.0,0.0,0.112703,0.0,-1.0,1,0,0,0,0,0,0
16830228,0.0,-0.0,0.226073,0.0,0.993618,0.0,0.0,0.112796,0.0,-1.0,1,0,0,0,0,0,0
16934188,0.0,-0.0,0.22632,0.0,0.993604,0.0,0.0,0.112918,0.0,-1.0,1,0,0,0,0,0,0
17034614,0.0,-0.0,0.22665,0.0,0.993586,0.0,0.0,0.113083,0.0,-1.0,1,0,0,0,0,0,0
17134952,0.0,-0.0,0.226811,0.0,0.993577,0.0,0.0,0.113162,0.0,-1.0,1,0,0,0,0,0,0
17237463,0.0,-0.0,0.226201,0.0,0.993611,0.0,0.0,0.11286,0.0,-1.0,1,0,0,0,0,0,0
17341759,0.0,-0.0,0.224341,0.0,0.993715,0.0,0.0,0.111936,0.0,-1.0,1,0,0,0,0,0,0
17440682,0.0,-0.0,0.22264,0.0,0.99381,0.0,0.0,0.11109,0.0,-1.0,1,0,0,0,0,0,0
17542408,0.0,-0.0,0.221694,0.0,0.993863,0.0,0.0,0.11062,0.0,-1.0,1,0,0,0,0,0,0
17646145,0.0,-0.0,0.221372,0.0,0.993881,0.0,0.0,0.11046,0.0,-1.0,1,0,0,0,0,0,0
17745350,0.0,-0.0,0.221569,0.0,0.99387,0.0,0.0,0.110558,0.0,-1.0,1,0,0,0,0,0,0
17848688,0.0,-0.0,0.221858,0.0,0.993854,0.0,0.0,0.110702,0.0,-1.0,1,0,0,0,0,0,0
17947740,0.0,-0.0,0.222199,0.0,0.993835,0.0,0.0,0.110871,0.0,-1.0,1,0,0,0,0,0,0
18049315,0.0,-0.0,0.222559,0.0,0.993815,0.0,0.0,0.11105,0.0,-1.0,1,0,0,0,0,0,0
18153565,0.0,-0.0,0.222836,0.0,0.993799,0.0,0.0,0.111187,0.0,-1.0,1,0,0,0,0,0,0
18253150,0.0,-0.0,0.223153,0.0,0.993782,0.0,0.0,0.111345,0.0,-1.0,1,0,0,0,0,0,0
18355310,0.0,-0.0,0.223477,0.0,0.993764,0.0,0.0,0.111506,0.0,-1.0,1,0,0,0,0,0,0
18454738,0.0,-0.0,0.223787,0.0,0.993746,0.0,0.0,0.11166,0.0,-1.0,1,0,0,0,0,0,0
18558944,0.0,-0.0,0.224118,0.0,0.993728,0.0,0.0,0.111825,0.0,-1.0,1,0,0,0,0,0,0
18659197,0.0,-0.0,0.224496,0.0,0.993707,0.0,0.0,0.112012,0.0,-1.0,1,0,0,0,0,0,0
18759093,0.0,-0.0,0.22496,0.0,0.993681,0.0,0.0,0.112243,0.0,-1.0,1,0,0,0,0,0,0
18862978,0.0,-0.0,0.225497,0.0,0.993651,0.0,0.0,0.11251,0.0,-1.0,1,0,0,0,0,0,0
18963441,0.0,-0.0,0.226155,0.0,0.993614,0.0,0.0,0.112836,0.0,-1.0,1,0,0,0,0,0,0
19067416,0.0,-0.0,0.226875,0.0,0.993573,0.0,0.0,0.113194,0.0,-1.0,1,0,0,0,0,0,0
19166746,0.0,-0.0,0.227438,0.0,0.993541,0.0,0.0,0.113474,0.0,-1.0,1,0,0,0,0,0,0
19267806,0.0,-0.0,0.227942,0.0,0.993512,0.0,0.0,0.113724,0.0,-1.0,1,0,0,0,0,0,0
19367745,0.0,-0.0,0.228254,0.0,0.993495,0.0,0.0,0.11388,0.0,-1.0,1,0,0,0,0,0,0
19471769,0.0,-0.0,0.228532,0.0,0.993479,0.0,0.0,0.114017,0.0,-1.0,1,0,0,0,0,0,0
19572984,0.0,-0.0,0.228836,0.0,0.993461,0.0,0.0,0.114168,0.0,-1.0,1,0,0,0,0,0,0
19676850,0.0,-0.0,0.229316,0.0,0.993434,0.0,0.0,0.114407,0.0,-1.0,1,0,0,0,0,0,0
19780149,0.0,-0.0,0.229946,0.0,0.993398,0.0,0.0,0.11472,0.0,-1.0,1,0,0,0,0,0,0
19881356,0.0,-0.0,0.230479,0.0,0.993367,0.0,0.0,0.114985,0.0,-1.0,1,0,0,0,0,0,0
19982968,0.0,-0.0,0.230917,0.0,0.993342,0.0,0.0,0.115202,0.0,-1.0,1,0,0,0,0,0,0
20081958,0.0,-0.0,0.231228,0.0,0.993324,0.0,0.0,0.115357,0.0,-1.0,1,0,0,0,0,0,0
20186930,0.0,-0.0,0.23138,0.0,0.993315,0.0,0.0,0.115432,0.0,-1.0,1,0,0,0,0,0,0
20289453,0.0,-0.0,0.231419,0.0,0.993313,0.0,0.0,0.115452,0.0,-1.0,1,0,0,0,0,0,0
20392947,0.0,-0.0,0.231507,0.0,0.993308,0.0,0.0,0.115495,0.0,-1.0,1,0,0,0,0,0,0
20492543,0.0,-0.0,0.231554,0.0,0.993305,0.0,0.0,0.115518,0.0,-1.0,1,0,0,0,0,0,0
20596608,0.0,-0.0,0.231793,0.0,0.993291,0.0,0.0,0.115637,0.0,-1.0,1,0,0,0,0,0,0
20696901,0.0,-0.0,0.232051,0.0,0.993277,0.0,0.0,0.115765,0.0,-1.0,1,0,0,0,0,0,0
20796543,0.0,-0.0,0.232374,0.0,0.993258,0.0,0.0,0.115926,0.0,-1.0,1,0,0,0,0,0,0
20900696,0.0,-0.0,0.232665,0.0,0.993241,0.0,0.0,0.11607,0.0,-1.0,1,0,0,0,0,0,0
21000828,0.0,-0.0,0.233003,0.0,0.993221,0.0,0.0,0.116238,0.0,-1.0,1,0,0,0,0,0,0
21100680,0.0,-0.0,0.233455,0.0,0.993195,0.0,0.0,0.116463,0.0,-1.0,1,0,0,0,0,0,0
21204523,0.0,-0.0,0.233885,0.0,0.99317,0.0,0.0,0.116676,0.0,-1.0,1,0,0,0,0,0,0
21304878,0.0,-0.0,0.234138,0.0,0.993155,0.0,0.0,0.116802,0.0,-1.0,1,0,0,0,0,0,0
21405421,0.0,-0.0,0.234206,0.0,0.993151,0.0,0.0,0.116836,0.0,-1.0,1,0,0,0,0,0,0
21509285,0.0,-0.0,0.234241,0.0,0.993149,0.0,0.0,0.116853,0.0,-1.0,1,0,0,0,0,0,0
21611811,0.0,-0.0,0.234367,0.0,0.993142,0.0,0.0,0.116916,0.0,-1.0,1,0,0,0,0,0,0
21710912,0.0,-0.0,0.234382,0.0,0.993141,0.0,0.0,0.116923,0.0,-1.0,1,0,0,0,0,0,0
21812016,0.0,-0.0,0.234274,0.0,0.993147,0.0,0.0,0.116869,0.0,-1.0,1,0,0,0,0,0,0
21915819,0.0,-0.0,0.23402,0.0,0.993162,0.0,0.0,0.116743,0.0,-1.0,1,0,0,0,0,0,0
22014935,0.0,-0.0,0.233764,0.0,0.993177,0.0,0.0,0.116616,0.0,-1.0,1,0,0,0,0,0,0
22118931,0.0,-0.0,0.233448,0.0,0.993196,0.0,0.0,0.116459,0.0,-1.0,1,0,0,0,0,0,0
22219240,0.0,-0.0,0.233109,0.0,0.993215,0.0,0.0,0.116291,0.0,-1.0,1,0,0,0,0,0,0
22319864,0.0,-0.0,0.232731,0.0,0.993237,0.0,0.0,0.116103,0.0,-1.0,1,0,0,0,0,0,0
22420106,0.0,-0.0,0.232369,0.0,0.993258,0.0,0.0,0.115923,0.0,-1.0,1,0,0,0,0,0,0
22523996,0.0,-0.0,0.231974,0.0,0.993281,0.0,0.0,0.115727,0.0,-1.0,1,0,0,0,0,0,0
22623799,0.0,-0.0,0.231696,0.0,0.993297,0.0,0.0,0.115589,0.0,-1.0,1,0,0,0,0,0,0
22727731,0.0,-0.0,0.231398,0.0,0.993314,0.0,0.0,0.115441,0.0,-1.0,1,0,0,0,0,0,0
22827929,0.0,-0.0,0.231084,0.0,0.993332,0.0,0.0,0.115285,0.0,-1.0,1,0,0,0,0,0,0
22927742,0.0,-0.0,0.230757,0.0,0.993351,0.0,0.0,0.115123,0.0,-1.0,1,0,0,0,0,0,0
23031794,0.0,-0.0,0.230511,0.0,0.993365,0.0,0.0,0.115,0.0,-1.0,1,0,0,0,0,0,0
23132804,0.0,-0.0,0.230334,0.0,0.993376,0.0,0.0,0.114913,0.0,-1.0,1,0,0,0,0,0,0
23231763,0.0,-0.0,0.230265,0.0,0.99338,0.0,0.0,0.114879,0.0,-1.0,1,0,0,0,0,0,0
23333935,0.0,-0.0,0.230189,0.0,0.993384,0.0,0.0,0.114841,0.0,-1.0,1,0,0,0,0,0,0
23438203,0.0,-0.0,0.230223,0.0,0.993382,0.0,0.0,0.114857,0.0,-1.0,1,0,0,0,0,0,0
23537375,0.0,-0.0,0.230286,0.0,0.993378,0.0,0.0,0.114889,0.0,-1.0,1,0,0,0,0,0,0
23641414,0.0,-0.0,0.230364,0.0,0.993374,0.0,0.0,0.114927,0.0,-1.0,1,0,0,0,0,0,0
23742606,0.0,-0.0,0.230452,0.0,0.993369,0.0,0.0,0.114971,0.0,-1.0,1,0,0,0,0,0,0
23842140,0.0,-0.0,0.23046,0.0,0.993368,0.0,0.0,0.114975,0.0,-1.0,1,0,0,0,0,0,0
23942635,0.0,-0.0,0.230445,0.0,0.993369,0.0,0.0,0.114968,0.0,-1.0,1,0,0,0,0,0,0
24046546,0.0,-0.0,0.230453,0.0,0.993369,0.0,0.0,0.114972,0.0,-1.0,1,0,0,0,0,0,0
24146126,0.0,-0.0,0.230417,0.0,0.993371,0.0,0.0,0.114954,0.0,-1.0,1,0,0,0,0,0,0
24250247,0.0,-0.0,0.230325,0.0,0.993376,0.0,0.0,0.114908,0.0,-1.0,1,0,0,0,0,0,0
24350463,0.0,-0.0,0.23029,0.0,0.993378,0.0,0.0,0.114891,0.0,-1.0,1,0,0,0,0,0,0
24450296,0.0,-0.0,0.230351,0.0,0.993375,0.0,0.0,0.114921,0.0,-1.0,1,0,0,0,0,0,0
24554148,0.0,-0.0,0.230511,0.0,0.993365,0.0,0.0,0.115,0.0,-1.0,1,0,0,0,0,0,0
24654359,0.0,-0.0,0.23077,0.0,0.993351,0.0,0.0,0.115129,0.0,-1.0,1,0,0,0,0,0,0
24755831,0.0,-0.0,0.230941,0.0,0.993341,0.0,0.0,0.115214,0.0,-1.0,1,0,0,0,0,0,0
24856847,0.0,-0.0,0.231114,0.0,0.993331,0.0,0.0,0.1153,0.0,-1.0,1,0,0,0,0,0,0
24960576,0.0,-0.0,0.231272,0.0,0.993322,0.0,0.0,0.115379,0.0,-1.0,1,0,0,0,0,0,0
25059850,0.0,-0.0,0.231468,0.0,0.99331,0.0,0.0,0.115476,0.0,-1.0,1,0,0,0,0,0,0
25163721,0.0,-0.0,0.231589,0.0,0.993303,0.0,0.0,0.115536,0.0,-1.0,1,0,0,0,0,0,0
25264644,0.0,-0.0,0.231627,0.0,0.993301,0.0,0.0,0.115555,0.0,-1.0,1,0,0,0,0,0,0
25363775,0.0,-0.0,0.231773,0.0,0.993293,0.0,0.0,0.115627,0.0,-1.0,1,0,0,0,0,0,0
25467982,0.0,-0.0,0.231961,0.0,0.993282,0.0,0.0,0.115721,0.0,-1.0,1,0,0,0,0,0,0
25568268,0.0,-0.0,0.232144,0.0,0.993271,0.0,0.0,0.115812,0.0,-1.0,1,0,0,0,0,0,0
25667794,0.0,-0.0,0.232239,0.0,0.993266,0.0,0.0,0.115859,0.0,-1.0,1,0,0,0,0,0,0
25771787,0.0,-0.0,0.2323,0.0,0.993262,0.0,0.0,0.115889,0.0,-1.0,1,0,0,0,0,0,0
25871954,0.0,-0.0,0.232411,0.0,0.993256,0.0,0.0,0.115944,0.0,-1.0,1,0,0,0,0,0,0
25975955,0.0,-0.0,0.232613,0.0,0.993244,0.0,0.0,0.116045,0.0,-1.0,1,0,0,0,0,0,0
26075768,0.0,-0.0,0.232946,0.0,0.993225,0.0,0.0,0.11621,0.0,-1.0,1,0,0,0,0,0,0
26177872,0.0,-0.0,0.233245,0.0,0.993207,0.0,0.0,0.116358,0.0,-1.0,1,0,0,0,0,0,0
26278198,0.0,-0.0,0.233495,0.0,0.993193,0.0,0.0,0.116483,0.0,-1.0,1,0,0,0,0,0,0
26379210,0.0,-0.0,0.233632,0.0,0.993185,0.0,0.0,0.11655,0.0,-1.0,1,0,0,0,0,0,0
26483802,0.0,-0.0,0.233628,0.0,0.993185,0.0,0.0,0.116549,0.0,-1.0,1,0,0,0,0,0,0
26582748,0.0,-0.0,0.233637,0.0,0.993184,0.0,0.0,0.116553,0.0,-1.0,1,0,0,0,0,0,0
26683841,0.0,-0.0,0.233656,0.0,0.993183,0.0,0.0,0.116563,0.0,-1.0,1,0,0,0,0,0,0
26787799,0.0,-0.0,0.233686,0.0,0.993182,0.0,0.0,0.116577,0.0,-1.0,1,0,0,0,0,0,0
26886989,0.0,-0.0,0.233787,0.0,0.993176,0.0,0.0,0.116628,0.0,-1.0,1,0,0,0,0,0,0
26990916,0.0,-0.0,0.233962,0.0,0.993166,0.0,0.0,0.116714,0.0,-1.0,1,0,0,0,0,0,0
27091309,0.0,-0.0,0.234059,0.0,0.99316,0.0,0.0,0.116763,0.0,-1.0,1,0,0,0,0,0,0
27190976,0.0,-0.0,0.23422,0.0,0.99315,0.0,0.0,0.116843,0.0,-1.0,1,0,0,0,0,0,0
27294917,0.0,-0.0,0.234335,0.0,0.993144,0.0,0.0,0.1169,0.0,-1.0,1,0,0,0,0,0,0
27396816,0.0,-0.0,0.2344,0.0,0.99314,0.0,0.0,0.116932,0.0,-1.0,1,0,0,0,0,0,0
27496355,0.0,-0.0,0.234416,0.0,0.993139,0.0,0.0,0.11694,0.0,-1.0,1,0,0,0,0,0,0
27596816,0.0,-0.0,0.234475,0.0,0.993136,0.0,0.0,0.116969,0.0,-1.0,1,0,0,0,0,0,0
27701044,0.0,-0.0,0.234578,0.0,0.99313,0.0,0.0,0.11702,0.0,-1.0,1,0,0,0,0,0,0
27800732,0.0,-0.0,0.234622,0.0,0.993127,0.0,0.0,0.117042,0.0,-1.0,1,0,0,0,0,0,0
27904590,0.0,-0.0,0.234477,0.0,0.993135,0.0,0.0,0.11697,0.0,-1.0,1,0,0,0,0,0,0
28005832,0.0,-0.0,0.234206,0.0,0.993151,0.0,0.0,0.116835,0.0,-1.0,1,0,0,0,0,0,0
28105418,0.0,-0.0,0.23395,0.0,0.993166,0.0,0.0,0.116708,0.0,-1.0,1,0,0,0,0,0,0
28205790,0.0,-0.0,0.233736,0.0,0.993179,0.0,0.0,0.116602,0.0,-1.0,1,0,0,0,0,0,0
28309641,0.0,-0.0,0.233497,0.0,0.993193,0.0,0.0,0.116483,0.0,-1.0,1,0,0,0,0,0,0
28410246,0.0,-0.0,0.233208,0.0,0.993209,0.0,0.0,0.11634,0.0,-1.0,1,0,0,0,0,0,0
28511197,0.0,-0.0,0.23297,0.0,0.993223,0.0,0.0,0.116222,0.0,-1.0,1,0,0,0,0,0,0
28616285,0.0,-0.0,0.232715,0.0,0.993238,0.0,0.0,0.116095,0.0,-1.0,1,0,0,0,0,0,0
28719396,0.0,-0.0,0.232473,0.0,0.993252,0.0,0.0,0.115975,0.0,-1.0,1,0,0,0,0,0,0
28819036,0.0,-0.0,0.232155,0.0,0.993271,0.0,0.0,0.115817,0.0,-1.0,1,0,0,0,0,0,0
28922944,0.0,-0.0,0.231714,0.0,0.993296,0.0,0.0,0.115598,0.0,-1.0,1,0,0,0,0,0,0
29023209,0.0,-0.0,0.231323,0.0,0.993319,0.0,0.0,0.115404,0.0,-1.0,1,0,0,0,0,0,0
29122999,0.0,-0.0,0.23097,0.0,0.993339,0.0,0.0,0.115229,0.0,-1.0,1,0,0,0,0,0,0
29226753,0.0,-0.0,0.230685,0.0,0.993355,0.0,0.0,0.115087,0.0,-1.0,1,0,0,0,0,0,0
29328092,0.0,-0.0,0.230469,0.0,0.993368,0.0,0.0,0.11498,0.0,-1.0,1,0,0,0,0,0,0
29427057,0.0,-0.0,0.230231,0.0,0.993382,0.0,0.0,0.114861,0.0,-1.0,1,0,0,0,0,0,0
29530955,0.0,-0.0,0.230024,0.0,0.993393,0.0,0.0,0.114759,0.0,-1.0,1,0,0,0,0,0,0
29631466,0.0,-0.0,0.229888,0.0,0.993401,0.0,0.0,0.114691,0.0,-1.0,1,0,0,0,0,0,0
29731684,0.0,-0.0,0.229841,0.0,0.993404,0.0,0.0,0.114668,0.0,-1.0,1,0,0,0,0,0,0
29835724,0.0,-0.0,0.229765,0.0,0.993408,0.0,0.0,0.11463,0.0,-1.0,1,0,0,0,0,0,0
29935929,0.0,-0.0,0.229696,0.0,0.993412,0.0,0.0,0.114596,0.0,-1.0,1,0,0,0,0,0,0
30036614,0.0,-0.0,0.229616,0.0,0.993417,0.0,0.0,0.114556,0.0,-1.0,1,0,0,0,0,0,0
30138439,0.0,-0.0,0.229583,0.0,0.993419,0.0,0.0,0.11454,0.0,-1.0,1,0,0,0,0,0,0
30241859,0.0,-0.0,0.22957,0.0,0.993419,0.0,0.0,0.114533,0.0,-1.0,1,0,0,0,0,0,0
30341380,0.0,-0.0,0.229536,0.0,0.993421,0.0,0.0,0.114516,0.0,-1.0,1,0,0,0,0,0,0
30445396,0.0,-0.0,0.229468,0.0,0.993425,0.0,0.0,0.114482,0.0,-1.0,1,0,0,0,0,0,0
30545535,0.0,-0.0,0.229381,0.0,0.99343,0.0,0.0,0.114439,0.0,-1.0,1,0,0,0,0,0,0
30645362,0.0,-0.0,0.229205,0.0,0.99344,0.0,0.0,0.114352,0.0,-1.0,1,0,0,0,0,0,0
30746352,0.0,-0.0,0.229085,0.0,0.993447,0.0,0.0,0.114292,0.0,-1.0,1,0,0,0,0,0,0
30851294,0.0,-0.0,0.228959,0.0,0.993454,0.0,0.0,0.11423,0.0,-1.0,1,0,0,0,0,0,0
30950159,0.0,-0.0,0.228906,0.0,0.993457,0.0,0.0,0.114203,0.0,-1.0,1,0,0,0,0,0,0
31054183,0.0,-0.0,0.229061,0.0,0.993449,0.0,0.0,0.11428,0.0,-1.0,1,0,0,0,0,0,0
31154374,0.0,-0.0,0.229307,0.0,0.993434,0.0,0.0,0.114402,0.0,-1.0,1,0,0,0,0,0,0
31254142,0.0,-0.0,0.229593,0.0,0.993418,0.0,0.0,0.114545,0.0,-1.0,1,0,0,0,0,0,0
31358175,0.0,-0.0,0.22989,0.0,0.993401,0.0,0.0,0.114692,0.0,-1.0,1,0,0,0,0,0,0
31460330,0.0,-0.0,0.230105,0.0,0.993389,0.0,0.0,0.114799,0.0,-1.0,1,0,0,0,0,0,0
31559783,0.0,-0.0,0.230296,0.0,0.993378,0.0,0.0,0.114894,0.0,-1.0,1,0,0,0,0,0,0
31660337,0.0,-0.0,0.230495,0.0,0.993366,0.0,0.0,0.114993,0.0,-1.0,1,0,0,0,0,0,0
31765333,0.0,-0.0,0.230687,0.0,0.993355,0.0,0.0,0.115088,0.0,-1.0,1,0,0,0,0,0,0
31864626,0.0,-0.0,0.230843,0.0,0.993346,0.0,0.0,0.115165,0.0,-1.0,1,0,0,0,0,0,0
31964990,0.0,-0.0,0.230995,0.0,0.993338,0.0,0.0,0.115241,0.0,-1.0,1,0,0,0,0,0,0
32068841,0.0,-0.0,0.231109,0.0,0.993331,0.0,0.0,0.115297,0.0,-1.0,1,0,0,0,0,0,0
32168507,0.0,-0.0,0.231149,0.0,0.993329,0.0,0.0,0.115317,0.0,-1.0,1,0,0,0,0,0,0
32272590,0.0,-0.0,0.231407,0.0,0.993314,0.0,0.0,0.115445,0.0,-1.0,1,0,0,0,0,0,0
32372805,0.0,-0.0,0.232177,0.0,0.993269,0.0,0.0,0.115828,0.0,-1.0,1,0,0,0,0,0,0
32472571,0.0,-0.0,0.232939,0.0,0.993225,0.0,0.0,0.116206,0.0,-1.0,1,0,0,0,0,0,0
32575014,0.0,-0.0,0.233536,0.0,0.99319,0.0,0.0,0.116503,0.0,-1.0,1,0,0,0,0,0,0
32678706,0.0,-0.0,0.233907,0.0,0.993169,0.0,0.0,0.116687,0.0,-1.0,1,0,0,0,0,0,0
32778188,0.0,-0.0,0.234069,0.0,0.993159,0.0,0.0,0.116768,0.0,-1.0,1,0,0,0,0,0,0
32879253,0.0,-0.0,0.234138,0.0,0.993155,0.0,0.0,0.116802,0.0,-1.0,1,0,0,0,0,0,0
32983696,0.0,-0.0,0.234163,0.0,0.993154,0.0,0.0,0.116814,0.0,-1.0,1,0,0,0,0,0,0
33087822,0.0,-0.0,0.234248,0.0,0.993149,0.0,0.0,0.116856,0.0,-1.0,1,0,0,0,0,0,0
33186979,0.0,-0.0,0.23444,0.0,0.993138,0.0,0.0,0.116952,0.0,-1.0,1,0,0,0,0,0,0
33290929,0.0,-0.0,0.234599,0.0,0.993128,0.0,0.0,0.117031,0.0,-1.0,1,0,0,0,0,0,0
33391760,0.0,-0.0,0.234749,0.0,0.993119,0.0,0.0,0.117105,0.0,-1.0,1,0,0,0,0,0,0
33491080,0.0,-0.0,0.234258,0.0,0.993148,0.0,0.0,0.116861,0.0,-1.0,1,0,0,0,0,0,0
33594951,0.0,-0.0,0.233398,0.0,0.993198,0.0,0.0,0.116434,0.0,-1.0,1,0,0,0,0,0,0
33695152,0.0,-0.0,0.232694,0.0,0.993239,0.0,0.0,0.116085,0.0,-1.0,1,0,0,0,0,0,0
33794903,0.0,-0.0,0.232304,0.0,0.993262,0.0,0.0,0.115891,0.0,-1.0,1,0,0,0,0,0,0
33896856,0.0,-0.0,0.232081,0.0,0.993275,0.0,0.0,0.11578,0.0,-1.0,1,0,0,0,0,0,0
34001068,0.0,-0.0,0.232112,0.0,0.993273,0.0,0.0,0.115796,0.0,-1.0,1,0,0,0,0,0,0
34100624,0.0,-0.0,0.23223,0.0,0.993266,0.0,0.0,0.115854,0.0,-1.0,1,0,0,0,0,0,0
34204605,0.0,-0.0,0.232293,0.0,0.993263,0.0,0.0,0.115886,0.0,-1.0,1,0,0,0,0,0,0
34305598,0.0,-0.0,0.232351,0.0,0.993259,0.0,0.0,0.115914,0.0,-1.0,1,0,0,0,0,0,0
34405422,0.0,-0.0,0.232295,0.0,0.993262,0.0,0.0,0.115887,0.0,-1.0,1,0,0,0,0,0,0
34505598,0.0,-0.0,0.232184,0.0,0.993269,0.0,0.0,0.115831,0.0,-1.0,1,0,0,0,0,0,0
34609725,0.0,-0.0,0.232013,0.0,0.993279,0.0,0.0,0.115746,0.0,-1.0,1,0,0,0,0,0,0
34709385,0.0,-0.0,0.231862,0.0,0.993288,0.0,0.0,0.115672,0.0,-1.0,1,0,0,0,0,0,0
34813352,0.0,-0.0,0.231841,0.0,0.993289,0.0,0.0,0.115661,0.0,-1.0,1,0,0,0,0,0,0
34915206,0.0,-0.0,0.231693,0.0,0.993297,0.0,0.0,0.115588,0.0,-1.0,1,0,0,0,0,0,0
35014942,0.0,-0.0,0.231523,0.0,0.993307,0.0,0.0,0.115503,0.0,-1.0,1,0,0,0,0,0,0
35115261,0.0,-0.0,0.231376,0.0,0.993316,0.0,0.0,0.11543,0.0,-1.0,1,0,0,0,0,0,0
35219870,0.0,-0.0,0.231328,0.0,0.993318,0.0,0.0,0.115406,0.0,-1.0,1,0,0,0,0,0,0
35318932,0.0,-0.0,0.231249,0.0,0.993323,0.0,0.0,0.115367,0.0,-1.0,1,0,0,0,0,0,0
35419400,0.0,-0.0,0.231096,0.0,0.993332,0.0,0.0,0.115291,0.0,-1.0,1,0,0,0,0,0,0
35523201,0.0,-0.0,0.231006,0.0,0.993337,0.0,0.0,0.115246,0.0,-1.0,1,0,0,0,0,0,0
35623777,0.0,-0.0,0.230856,0.0,0.993346,0.0,0.0,0.115172,0.0,-1.0,1,0,0,0,0,0,0
35725167,0.0,-0.0,0.230733,0.0,0.993353,0.0,0.0,0.115111,0.0,-1.0,1,0,0,0,0,0,0
35824532,0.0,-0.0,0.230546,0.0,0.993363,0.0,0.0,0.115018,0.0,-1.0,1,0,0,0,0,0,0
35930317,0.0,-0.0,0.230383,0.0,0.993373,0.0,0.0,0.114937,0.0,-1.0,1,0,0,0,0,0,0
36031341,0.0,-0.0,0.230173,0.0,0.993385,0.0,0.0,0.114833,0.0,-1.0,1,0,0,0,0,0,0
36130743,0.0,-0.0,0.229935,0.0,0.993399,0.0,0.0,0.114714,0.0,-1.0,1,0,0,0,0,0,0
36231972,0.0,-0.0,0.229699,0.0,0.993412,0.0,0.0,0.114597,0.0,-1.0,1,0,0,0,0,0,0
36336758,0.0,-0.0,0.22948,0.0,0.993425,0.0,0.0,0.114488,0.0,-1.0,1,0,0,0,0,0,0
36440881,0.0,-0.0,0.229318,0.0,0.993434,0.0,0.0,0.114408,0.0,-1.0,1,0,0,0,0,0,0
36541150,0.0,-0.0,0.229205,0.0,0.99344,0.0,0.0,0.114352,0.0,-1.0,1,0,0,0,0,0,0
36642376,0.0,-0.0,0.229069,0.0,0.993448,0.0,0.0,0.114284,0.0,-1.0,1,0,0,0,0,0,0
36742153,0.0,-0.0,0.229033,0.0,0.99345,0.0,0.0,0.114266,0.0,-1.0,1,0,0,0,0,0,0
36846164,0.0,-0.0,0.228964,0.0,0.993454,0.0,0.0,0.114232,0.0,-1.0,1,0,0,0,0,0,0
36947227,0.0,-0.0,0.22892,0.0,0.993457,0.0,0.0,0.11421,0.0,-1.0,1,0,0,0,0,0,0
37046903,0.0,-0.0,0.228882,0.0,0.993459,0.0,0.0,0.114192,0.0,-1.0,1,0,0,0,0,0,0
37150956,0.0,-0.0,0.228901,0.0,0.993458,0.0,0.0,0.114201,0.0,-1.0,1,0,0,0,0,0,0
37251191,0.0,-0.0,0.228949,0.0,0.993455,0.0,0.0,0.114225,0.0,-1.0,1,0,0,0,0,0,0
37351777,0.0,-0.0,0.228922,0.0,0.993456,0.0,0.0,0.114211,0.0,-1.0,1,0,0,0,0,0,0
37453480,0.0,-0.0,0.228871,0.0,0.993459,0.0,0.0,0.114186,0.0,-1.0,1,0,0,0,0,0,0
37557897,0.0,-0.0,0.228832,0.0,0.993462,0.0,0.0,0.114167,0.0,-1.0,1,0,0,0,0,0,0
37662511,0.0,-0.0,0.228899,0.0,0.993458,0.0,0.0,0.1142,0.0,-1.0,1,0,0,0,0,0,0
37761302,0.0,-0.0,0.228944,0.0,0.993455,0.0,0.0,0.114222,0.0,-1.0,1,0,0,0,0,0,0
37865364,0.0,-0.0,0.229062,0.0,0.993448,0.0,0.0,0.114281,0.0,-1.0,1,0,0,0,0,0,0
37965602,0.0,-0.0,0.229061,0.0,0.993449,0.0,0.0,0.11428,0.0,-1.0,1,0,0,0,0,0,0
38066978,0.0,-0.0,0.229076,0.0,0.993448,0.0,0.0,0.114288,0.0,-1.0,1,0,0,0,0,0,0
38168276,0.0,-0.0,0.229051,0.0,0.993449,0.0,0.0,0.114275,0.0,-1.0,1,0,0,0,0,0,0
38272103,0.0,-0.0,0.229022,0.0,0.993451,0.0,0.0,0.114261,0.0,-1.0,1,0,0,0,0,0,0
38372342,0.0,-0.0,0.229018,0.0,0.993451,0.0,0.0,0.114259,0.0,-1.0,1,0,0,0,0,0,0
38470260,0.0,-0.0,0.229052,0.0,0.993449,0.0,0.0,0.114276,0.0,-1.0,1,0,0,0,0,0,0
38575043,0.0,-0.0,0.229072,0.0,0.993448,0.0,0.0,0.114286,0.0,-1.0,1,0,0,0,0,0,0
38675209,0.0,-0.0,0.229121,0.0,0.993445,0.0,0.0,0.11431,0.0,-1.0,1,0,0,0,0,0,0
38779194,0.0,-0.0,0.229257,0.0,0.993437,0.0,0.0,0.114377,0.0,-1.0,1,0,0,0,0,0,0
38878986,0.0,-0.0,0.229392,0.0,0.99343,0.0,0.0,0.114444,0.0,-1.0,1,0,0,0,0,0,0
38979457,0.0,-0.0,0.229569,0.0,0.993419,0.0,0.0,0.114533,0.0,-1.0,1,0,0,0,0,0,0
39083474,0.0,-0.0,0.229748,0.0,0.993409,0.0,0.0,0.114622,0.0,-1.0,1,0,0,0,0,0,0
39182743,0.0,-0.0,0.229942,0.0,0.993398,0.0,0.0,0.114718,0.0,-1.0,1,0,0,0,0,0,0
39283403,0.0,-0.0,0.230116,0.0,0.993388,0.0,0.0,0.114804,0.0,-1.0,1,0,0,0,0,0,0
39387817,0.0,-0.0,0.23023,0.0,0.993382,0.0,0.0,0.114861,0.0,-1.0,1,0,0,0,0,0,0
39486970,0.0,-0.0,0.230322,0.0,0.993376,0.0,0.0,0.114907,0.0,-1.0,1,0,0,0,0,0,0
39590930,0.0,-0.0,0.230465,0.0,0.993368,0.0,0.0,0.114978,0.0,-1.0,1,0,0,0,0,0,0
39691449,0.0,-0.0,0.230621,0.0,0.993359,0.0,0.0,0.115055,0.0,-1.0,1,0,0,0,0,0,0
39790908,0.0,-0.0,0.230764,0.0,0.993351,0.0,0.0,0.115126,0.0,-1.0,1,0,0,0,0,0,0
39894752,0.0,-0.0,0.230924,0.0,0.993342,0.0,0.0,0.115206,0.0,-1.0,1,0,0,0,0,0,0
39996178,0.0,-0.0,0.231055,0.0,0.993334,0.0,0.0,0.115271,0.0,-1.0,1,0,0,0,0,0,0
40097371,0.0,-0.0,0.231208,0.0,0.993325,0.0,0.0,0.115347,0.0,-1.0,1,0,0,0,0,0,0
40198452,0.0,-0.0,0.231327,0.0,0.993318,0.0,0.0,0.115406,0.0,-1.0,1,0,0,0,0,0,0
40301628,0.0,-0.0,0.231334,0.0,0.993318,0.0,0.0,0.115409,0.0,-1.0,1,0,0,0,0,0,0
40401963,0.0,-0.0,0.231204,0.0,0.993326,0.0,0.0,0.115345,0.0,-1.0,1,0,0,0,0,0,0
40502392,0.0,-0.0,0.231186,0.0,0.993327,0.0,0.0,0.115336,0.0,-1.0,1,0,0,0,0,0,0
40606963,0.0,-0.0,0.231172,0.0,0.993327,0.0,0.0,0.115329,0.0,-1.0,1,0,0,0,0,0,0
40711018,0.0,-0.0,0.23121,0.0,0.993325,0.0,0.0,0.115347,0.0,-1.0,1,0,0,0,0,0,0
40812679,0.0,-0.0,0.231275,0.0,0.993321,0.0,0.0,0.11538,0.0,-1.0,1,0,0,0,0,0,0
40912763,0.0,-0.0,0.231531,0.0,0.993307,0.0,0.0,0.115507,0.0,-1.0,1,0,0,0,0,0,0
41012553,0.0,-0.0,0.231779,0.0,0.993292,0.0,0.0,0.11563,0.0,-1.0,1,0,0,0,0,0,0
41113776,0.0,-0.0,0.231952,0.0,0.993282,0.0,0.0,0.115716,0.0,-1.0,1,0,0,0,0,0,0
41217600,0.0,-0.0,0.232102,0.0,0.993274,0.0,0.0,0.115791,0.0,-1.0,1,0,0,0,0,0,0
41317369,0.0,-0.0,0.232229,0.0,0.993266,0.0,0.0,0.115854,0.0,-1.0,1,0,0,0,0,0,0
41419170,0.0,-0.0,0.232627,0.0,0.993243,0.0,0.0,0.116051,0.0,-1.0,1,0,0,0,0,0,0
41523282,0.0,-0.0,0.233157,0.0,0.993212,0.0,0.0,0.116315,0.0,-1.0,1,0,0,0,0,0,0
41622980,0.0,-0.0,0.233581,0.0,0.993188,0.0,0.0,0.116525,0.0,-1.0,1,0,0,0,0,0,0
41723212,0.0,-0.0,0.233805,0.0,0.993175,0.0,0.0,0.116636,0.0,-1.0,1,0,0,0,0,0,0
41827460,0.0,-0.0,0.233905,0.0,0.993169,0.0,0.0,0.116686,0.0,-1.0,1,0,0,0,0,0,0
41926917,0.0,-0.0,0.233909,0.0,0.993169,0.0,0.0,0.116688,0.0,-1.0,1,0,0,0,0,0,0
42027347,0.0,-0.0,0.233841,0.0,0.993173,0.0,0.0,0.116654,0.0,-1.0,1,0,0,0,0,0,0
42132012,0.0,-0.0,0.233756,0.0,0.993178,0.0,0.0,0.116612,0.0,-1.0,1,0,0,0,0,0,0
42231790,0.0,-0.0,0.233606,0.0,0.993186,0.0,0.0,0.116537,0.0,-1.0,1,0,0,0,0,0,0
42332322,0.0,-0.0,0.233443,0.0,0.993196,0.0,0.0,0.116456,0.0,-1.0,1,0,0,0,0,0,0
42436078,0.0,-0.0,0.2333,0.0,0.993204,0.0,0.0,0.116385,0.0,-1.0,1,0,0,0,0,0,0
42535753,0.0,-0.0,0.233165,0.0,0.993212,0.0,0.0,0.116319,0.0,-1.0,1,0,0,0,0,0,0
42635964,0.0,-0.0,0.233026,0.0,0.99322,0.0,0.0,0.116249,0.0,-1.0,1,0,0,0,0,0,0
42738191,0.0,-0.0,0.23281,0.0,0.993233,0.0,0.0,0.116142,0.0,-1.0,1,0,0,0,0,0,0
42842118,0.0,-0.0,0.232637,0.0,0.993243,0.0,0.0,0.116056,0.0,-1.0,1,0,0,0,0,0,0
42942580,0.0,-0.0,0.23243,0.0,0.993255,0.0,0.0,0.115954,0.0,-1.0,1,0,0,0,0,0,0
43042188,0.0,-0.0,0.232185,0.0,0.993269,0.0,0.0,0.115832,0.0,-1.0,1,0,0,0,0,0,0
43146148,0.0,-0.0,0.231991,0.0,0.99328,0.0,0.0,0.115736,0.0,-1.0,1,0,0,0,0,0,0
43246997,0.0,-0.0,0.231791,0.0,0.993292,0.0,0.0,0.115636,0.0,-1.0,1,0,0,0,0,0,0
43347064,0.0,-0.0,0.23163,0.0,0.993301,0.0,0.0,0.115556,0.0,-1.0,1,0,0,0,0,0,0
43450954,0.0,-0.0,0.231455,0.0,0.993311,0.0,0.0,0.115469,0.0,-1.0,1,0,0,0,0,0,0
43551785,0.0,-0.0,0.231419,0.0,0.993313,0.0,0.0,0.115451,0.0,-1.0,1,0,0,0,0,0,0
43650799,0.0,-0.0,0.231305,0.0,0.99332,0.0,0.0,0.115395,0.0,-1.0,1,0,0,0,0,0,0
43755013,0.0,-0.0,0.231227,0.0,0.993324,0.0,0.0,0.115356,0.0,-1.0,1,0,0,0,0,0,0
43855177,0.0,-0.0,0.231148,0.0,0.993329,0.0,0.0,0.115317,0.0,-1.0,1,0,0,0,0,0,0
43956496,0.0,-0.0,0.231144,0.0,0.993329,0.0,0.0,0.115315,0.0,-1.0,1,0,0,0,0,0,0
44060710,0.0,-0.0,0.231146,0.0,0.993329,0.0,0.0,0.115316,0.0,-1.0,1,0,0,0,0,0,0
44160825,0.0,-0.0,0.231167,0.0,0.993328,0.0,0.0,0.115326,0.0,-1.0,1,0,0,0,0,0,0
44260615,0.0,-0.0,0.231084,0.0,0.993332,0.0,0.0,0.115285,0.0,-1.0,1,0,0,0,0,0,0
44364566,0.0,-0.0,0.231063,0.0,0.993334,0.0,0.0,0.115275,0.0,-1.0,1,0,0,0,0,0,0
44465386,0.0,-0.0,0.231082,0.0,0.993333,0.0,0.0,0.115284,0.0,-1.0,1,0,0,0,0,0,0
44564545,0.0,-0.0,0.231109,0.0,0.993331,0.0,0.0,0.115297,0.0,-1.0,1,0,0,0,0,0,0
44668612,0.0,-0.0,0.231145,0.0,0.993329,0.0,0.0,0.115315,0.0,-1.0,1,0,0,0,0,0,0
44769626,0.0,-0.0,0.231192,0.0,0.993326,0.0,0.0,0.115339,0.0,-1.0,1,0,0,0,0,0,0
44872924,0.0,-0.0,0.231272,0.0,0.993322,0.0,0.0,0.115378,0.0,-1.0,1,0,0,0,0,0,0
44972564,0.0,-0.0,0.231351,0.0,0.993317,0.0,0.0,0.115418,0.0,-1.0,1,0,0,0,0,0,0
45072811,0.0,-0.0,0.231421,0.0,0.993313,0.0,0.0,0.115452,0.0,-1.0,1,0,0,0,0,0,0
45173393,0.0,-0.0,0.231478,0.0,0.99331,0.0,0.0,0.115481,0.0,-1.0,1,0,0,0,0,0,0
45278159,0.0,-0.0,0.231469,0.0,0.99331,0.0,0.0,0.115476,0.0,-1.0,1,0,0,0,0,0,0
45379483,0.0,-0.0,0.231541,0.0,0.993306,0.0,0.0,0.115512,0.0,-1.0,1,0,0,0,0,0,0
45478979,0.0,-0.0,0.231606,0.0,0.993302,0.0,0.0,0.115544,0.0,-1.0,1,0,0,0,0,0,0
45583016,0.0,-0.0,0.231541,0.0,0.993306,0.0,0.0,0.115512,0.0,-1.0,1,0,0,0,0,0,0
45684032,0.0,-0.0,0.231492,0.0,0.993309,0.0,0.0,0.115488,0.0,-1.0,1,0,0,0,0,0,0
45783538,0.0,-0.0,0.231461,0.0,0.993311,0.0,0.0,0.115472,0.0,-1.0,1,0,0,0,0,0,0
45885015,0.0,-0.0,0.231429,0.0,0.993313,0.0,0.0,0.115456,0.0,-1.0,1,0,0,0,0,0,0
45987973,0.0,-0.0,0.23148,0.0,0.99331,0.0,0.0,0.115482,0.0,-1.0,1,0,0,0,0,0,0
46087825,0.0,-0.0,0.231443,0.0,0.993312,0.0,0.0,0.115463,0.0,-1.0,1,0,0,0,0,0,0
46189644,0.0,-0.0,0.231318,0.0,0.993319,0.0,0.0,0.115401,0.0,-1.0,1,0,0,0,0,0,0
46294411,0.0,-0.0,0.231175,0.0,0.993327,0.0,0.0,0.11533,0.0,-1.0,1,0,0,0,0,0,0
46397643,0.0,-0.0,0.231176,0.0,0.993327,0.0,0.0,0.115331,0.0,-1.0,1,0,0,0,0,0,0
46497386,0.0,-0.0,0.23115,0.0,0.993329,0.0,0.0,0.115318,0.0,-1.0,1,0,0,0,0,0,0
46601377,0.0,-0.0,0.231071,0.0,0.993333,0.0,0.0,0.115279,0.0,-1.0,1,0,0,0,0,0,0
46701894,0.0,-0.0,0.231164,0.0,0.993328,0.0,0.0,0.115325,0.0,-1.0,1,0,0,0,0,0,0
46801316,0.0,-0.0,0.231269,0.0,0.993322,0.0,0.0,0.115377,0.0,-1.0,1,0,0,0,0,0,0
46905382,0.0,-0.0,0.23141,0.0,0.993314,0.0,0.0,0.115447,0.0,-1.0,1,0,0,0,0,0,0
47005608,0.0,-0.0,0.231594,0.0,0.993303,0.0,0.0,0.115538,0.0,-1.0,1,0,0,0,0,0,0
47106162,0.0,-0.0,0.231673,0.0,0.993298,0.0,0.0,0.115578,0.0,-1.0,1,0,0,0,0,0,0
47207166,0.0,-0.0,0.2318,0.0,0.993291,0.0,0.0,0.115641,0.0,-1.0,1,0,0,0,0,0,0
47308642,0.0,-0.0,0.231797,0.0,0.993291,0.0,0.0,0.115639,0.0,-1.0,1,0,0,0,0,0,0
47413396,0.0,-0.0,0.231613,0.0,0.993302,0.0,0.0,0.115548,0.0,-1.0,1,0,0,0,0,0,0
47513619,0.0,-0.0,0.231274,0.0,0.993321,0.0,0.0,0.11538,0.0,-1.0,1,0,0,0,0,0,0
47613308,0.0,-0.0,0.231064,0.0,0.993334,0.0,0.0,0.115275,0.0,-1.0,1,0,0,0,0,0,0
47717150,0.0,-0.0,0.230919,0.0,0.993342,0.0,0.0,0.115203,0.0,-1.0,1,0,0,0,0,0,0
47818178,0.0,-0.0,0.230875,0.0,0.993344,0.0,0.0,0.115181,0.0,-1.0,1,0,0,0,0,0,0
47917369,0.0,-0.0,0.230869,0.0,0.993345,0.0,0.0,0.115178,0.0,-1.0,1,0,0,0,0,0,0
48021350,0.0,-0.0,0.230928,0.0,0.993341,0.0,0.0,0.115208,0.0,-1.0,1,0,0,0,0,0,0
48121551,0.0,-0.0,0.230941,0.0,0.993341,0.0,0.0,0.115214,0.0,-1.0,1,0,0,0,0,0,0
48225800,0.0,-0.0,0.230906,0.0,0.993343,0.0,0.0,0.115197,0.0,-1.0,1,0,0,0,0,0,0
48330243,0.0,-0.0,0.230839,0.0,0.993347,0.0,0.0,0.115164,0.0,-1.0,1,0,0,0,0,0,0
48430972,0.0,-0.0,0.230813,0.0,0.993348,0.0,0.0,0.115151,0.0,-1.0,1,0,0,0,0,0,0
48532012,0.0,-0.0,0.230731,0.0,0.993353,0.0,0.0,0.11511,0.0,-1.0,1,0,0,0,0,0,0
48631770,0.0,-0.0,0.230601,0.0,0.99336,0.0,0.0,0.115045,0.0,-1.0,1,0,0,0,0,0,0
48735734,0.0,-0.0,0.230423,0.0,0.99337,0.0,0.0,0.114957,0.0,-1.0,1,0,0,0,0,0,0
48836228,0.0,-0.0,0.230324,0.0,0.993376,0.0,0.0,0.114908,0.0,-1.0,1,0,0,0,0,0,0
48935762,0.0,-0.0,0.230243,0.0,0.993381,0.0,0.0,0.114867,0.0,-1.0,1,0,0,0,0,0,0
49039875,0.0,-0.0,0.230213,0.0,0.993383,0.0,0.0,0.114853,0.0,-1.0,1,0,0,0,0,0,0
49140519,0.0,-0.0,0.23017,0.0,0.993385,0.0,0.0,0.114831,0.0,-1.0,1,0,0,0,0,0,0
49244014,0.0,-0.0,0.230044,0.0,0.993392,0.0,0.0,0.114769,0.0,-1.0,1,0,0,0,0,0,0
49343739,0.0,-0.0,0.229831,0.0,0.993405,0.0,0.0,0.114663,0.0,-1.0,1,0,0,0,0,0,0
49443995,0.0,-0.0,0.229576,0.0,0.993419,0.0,0.0,0.114536,0.0,-1.0,1,0,0,0,0,0,0
49548220,0.0,-0.0,0.229319,0.0,0.993434,0.0,0.0,0.114409,0.0,-1.0,1,0,0,0,0,0,0
49647850,0.0,-0.0,0.229131,0.0,0.993445,0.0,0.0,0.114315,0.0,-1.0,1,0,0,0,0,0,0
49748814,0.0,-0.0,0.229052,0.0,0.993449,0.0,0.0,0.114276,0.0,-1.0,1,0,0,0,0,0,0
49849356,0.0,-0.0,0.228929,0.0,0.993456,0.0,0.0,0.114215,0.0,-1.0,1,0,0,0,0,0,0
49953397,0.0,-0.0,0.228799,0.0,0.993464,0.0,0.0,0.11415,0.0,-1.0,1,0,0,0,0,0,0
50054160,0.0,-0.0,0.228679,0.0,0.99347,0.0,0.0,0.11409,0.0,-1.0,1,0,0,0,0,0,0
50157647,0.0,-0.0,0.228539,0.0,0.993478,0.0,0.0,0.114021,0.0,-1.0,1,0,0,0,0,0,0
50258250,0.0,-0.0,0.228479,0.0,0.993482,0.0,0.0,0.113991,0.0,-1.0,1,0,0,0,0,0,0
50358421,0.0,-0.0,0.228393,0.0,0.993487,0.0,0.0,0.113949,0.0,-1.0,1,0,0,0,0,0,0
50458169,0.0,-0.0,0.228274,0.0,0.993493,0.0,0.0,0.11389,0.0,-1.0,1,0,0,0,0,0,0
50562217,0.0,-0.0,0.22827,0.0,0.993494,0.0,0.0,0.113887,0.0,-1.0,1,0,0,0,0,0,0
50662371,0.0,-0.0,0.228314,0.0,0.993491,0.0,0.0,0.113909,0.0,-1.0,1,0,0,0,0,0,0
50766352,0.0,-0.0,0.228333,0.0,0.99349,0.0,0.0,0.113919,0.0,-1.0,1,0,0,0,0,0,0
50867840,0.0,-0.0,0.228319,0.0,0.993491,0.0,0.0,0.113912,0.0,-1.0,1,0,0,0,0,0,0
50968589,0.0,-0.0,0.228298,0.0,0.993492,0.0,0.0,0.113901,0.0,-1.0,1,0,0,0,0,0,0
51067974,0.0,-0.0,0.228245,0.0,0.993495,0.0,0.0,0.113875,0.0,-1.0,1,0,0,0,0,0,0
51171766,0.0,-0.0,0.228245,0.0,0.993495,0.0,0.0,0.113875,0.0,-1.0,1,0,0,0,0,0,0
51272110,0.0,-0.0,0.228231,0.0,0.993496,0.0,0.0,0.113868,0.0,-1.0,1,0,0,0,0,0,0
51371775,0.0,-0.0,0.228257,0.0,0.993494,0.0,0.0,0.113881,0.0,-1.0,1,0,0,0,0,0,0
51475745,0.0,-0.0,0.228277,0.0,0.993493,0.0,0.0,0.113891,0.0,-1.0,1,0,0,0,0,0,0
51576235,0.0,-0.0,0.228331,0.0,0.99349,0.0,0.0,0.113918,0.0,-1.0,1,0,0,0,0,0,0
51680146,0.0,-0.0,0.228363,0.0,0.993488,0.0,0.0,0.113933,0.0,-1.0,1,0,0,0,0,0,0
51779895,0.0,-0.0,0.228346,0.0,0.993489,0.0,0.0,0.113925,0.0,-1.0,1,0,0,0,0,0,0
51880847,0.0,-0.0,0.228354,0.0,0.993489,0.0,0.0,0.113929,0.0,-1.0,1,0,0,0,0,0,0
51984290,0.0,-0.0,0.228365,0.0,0.993488,0.0,0.0,0.113935,0.0,-1.0,1,0,0,0,0,0,0
52083807,0.0,-0.0,0.228355,0.0,0.993489,0.0,0.0,0.11393,0.0,-1.0,1,0,0,0,0,0,0
52186639,0.0,-0.0,0.22846,0.0,0.993483,0.0,0.0,0.113982,0.0,-1.0,1,0,0,0,0,0,0
52286158,0.0,-0.0,0.228563,0.0,0.993477,0.0,0.0,0.114033,0.0,-1.0,1,0,0,0,0,0,0
52387738,0.0,-0.0,0.228555,0.0,0.993477,0.0,0.0,0.114029,0.0,-1.0,1,0,0,0,0,0,0
52491690,0.0,-0.0,0.228608,0.0,0.993474,0.0,0.0,0.114055,0.0,-1.0,1,0,0,0,0,0,0
52590907,0.0,-0.0,0.228703,0.0,0.993469,0.0,0.0,0.114102,0.0,-1.0,1,0,0,0,0,0,0
52695048,0.0,-0.0,0.228827,0.0,0.993462,0.0,0.0,0.114164,0.0,-1.0,1,0,0,0,0,0,0
52795977,0.0,-0.0,0.228987,0.0,0.993453,0.0,0.0,0.114243,0.0,-1.0,1,0,0,0,0,0,0
52895766,0.0,-0.0,0.229045,0.0,0.99345,0.0,0.0,0.114272,0.0,-1.0,1,0,0,0,0,0,0
52995979,0.0,-0.0,0.229039,0.0,0.99345,0.0,0.0,0.114269,0.0,-1.0,1,0,0,0,0,0,0
53097503,0.0,-0.0,0.229071,0.0,0.993448,0.0,0.0,0.114285,0.0,-1.0,1,0,0,0,0,0,0
53201382,0.0,-0.0,0.229098,0.0,0.993446,0.0,0.0,0.114299,0.0,-1.0,1,0,0,0,0,0,0
53301820,0.0,-0.0,0.229143,0.0,0.993444,0.0,0.0,0.114321,0.0,-1.0,1,0,0,0,0,0,0
53405802,0.0,-0.0,0.229231,0.0,0.993439,0.0,0.0,0.114365,0.0,-1.0,1,0,0,0,0,0,0
53505335,0.0,-0.0,0.229301,0.0,0.993435,0.0,0.0,0.1144,0.0,-1.0,1,0,0,0,0,0,0
53605891,0.0,-0.0,0.229352,0.0,0.993432,0.0,0.0,0.114425,0.0,-1.0,1,0,0,0,0,0,0
53709668,0.0,-0.0,0.229429,0.0,0.993428,0.0,0.0,0.114463,0.0,-1.0,1,0,0,0,0,0,0
53809393,0.0,-0.0,0.229568,0.0,0.99342,0.0,0.0,0.114532,0.0,-1.0,1,0,0,0,0,0,0
53909724,0.0,-0.0,0.229725,0.0,0.993411,0.0,0.0,0.11461,0.0,-1.0,1,0,0,0,0,0,0
54011748,0.0,-0.0,0.229841,0.0,0.993404,0.0,0.0,0.114668,0.0,-1.0,1,0,0,0,0,0,0
54115807,0.0,-0.0,0.229898,0.0,0.993401,0.0,0.0,0.114696,0.0,-1.0,1,0,0,0,0,0,0
54216641,0.0,-0.0,0.229877,0.0,0.993402,0.0,0.0,0.114686,0.0,-1.0,1,0,0,0,0,0,0
54315778,0.0,-0.0,0.229873,0.0,0.993402,0.0,0.0,0.114683,0.0,-1.0,1,0,0,0,0,0,0
54419930,0.0,-0.0,0.229861,0.0,0.993403,0.0,0.0,0.114678,0.0,-1.0,1,0,0,0,0,0,0
54520699,0.0,-0.0,0.229851,0.0,0.993403,0.0,0.0,0.114672,0.0,-1.0,1,0,0,0,0,0,0
54619820,0.0,-0.0,0.229811,0.0,0.993406,0.0,0.0,0.114653,0.0,-1.0,1,0,0,0,0,0,0
54723721,0.0,-0.0,0.229747,0.0,0.993409,0.0,0.0,0.114621,0.0,-1.0,1,0,0,0,0,0,0
54824584,0.0,-0.0,0.229706,0.0,0.993412,0.0,0.0,0.114601,0.0,-1.0,1,0,0,0,0,0,0
54928289,0.0,-0.0,0.229689,0.0,0.993413,0.0,0.0,0.114592,0.0,-1.0,1,0,0,0,0,0,0
55027783,0.0,-0.0,0.229695,0.0,0.993412,0.0,0.0,0.114595,0.0,-1.0,1,0,0,0,0,0,0
55128000,0.0,-0.0,0.229777,0.0,0.993408,0.0,0.0,0.114636,0.0,-1.0,1,0,0,0,0,0,0
55232555,0.0,-0.0,0.229771,0.0,0.993408,0.0,0.0,0.114633,0.0,-1.0,1,0,0,0,0,0,0
55331719,0.0,-0.0,0.229811,0.0,0.993406,0.0,0.0,0.114653,0.0,-1.0,1,0,0,0,0,0,0
55432032,0.0,-0.0,0.229917,0.0,0.9934,0.0,0.0,0.114705,0.0,-1.0,1,0,0,0,0,0,0
55535973,0.0,-0.0,0.229864,0.0,0.993403,0.0,0.0,0.114679,0.0,-1.0,1,0,0,0,0,0,0
55635815,0.0,-0.0,0.229852,0.0,0.993403,0.0,0.0,0.114673,0.0,-1.0,1,0,0,0,0,0,0
55739795,0.0,-0.0,0.229782,0.0,0.993407,0.0,0.0,0.114639,0.0,-1.0,1,0,0,0,0,0,0
55840063,0.0,-0.0,0.229678,0.0,0.993413,0.0,0.0,0.114587,0.0,-1.0,1,0,0,0,0,0,0
55939843,0.0,-0.0,0.229553,0.0,0.99342,0.0,0.0,0.114525,0.0,-1.0,1,0,0,0,0,0,0
56043707,0.0,-0.0,0.229405,0.0,0.993429,0.0,0.0,0.114451,0.0,-1.0,1,0,0,0,0,0,0
56143879,0.0,-0.0,0.229261,0.0,0.993437,0.0,0.0,0.11438,0.0,-1.0,1,0,0,0,0,0,0
56243709,0.0,-0.0,0.229194,0.0,0.993441,0.0,0.0,0.114346,0.0,-1.0,1,0,0,0,0,0,0
56346408,0.0,-0.0,0.229111,0.0,0.993446,0.0,0.0,0.114305,0.0,-1.0,1,0,0,0,0,0,0
56449657,0.0,-0.0,0.229038,0.0,0.99345,0.0,0.0,0.114269,0.0,-1.0,1,0,0,0,0,0,0
56549404,0.0,-0.0,0.228972,0.0,0.993454,0.0,0.0,0.114236,0.0,-1.0,1,0,0,0,0,0,0
56651060,0.0,-0.0,0.22892,0.0,0.993457,0.0,0.0,0.11421,0.0,-1.0,1,0,0,0,0,0,0
56754719,0.0,-0.0,0.228853,0.0,0.99346,0.0,0.0,0.114177,0.0,-1.0,1,0,0,0,0,0,0
56854163,0.0,-0.0,0.228767,0.0,0.993465,0.0,0.0,0.114134,0.0,-1.0,1,0,0,0,0,0,0
56954970,0.0,-0.0,0.228625,0.0,0.993473,0.0,0.0,0.114063,0.0,-1.0,1,0,0,0,0,0,0
57059199,0.0,-0.0,0.228611,0.0,0.993474,0.0,0.0,0.114057,0.0,-1.0,1,0,0,0,0,0,0
57158159,0.0,-0.0,0.22892,0.0,0.993457,0.0,0.0,0.11421,0.0,-1.0,1,0,0,0,0,0,0
57262175,0.0,-0.0,0.229307,0.0,0.993434,0.0,0.0,0.114402,0.0,-1.0,1,0,0,0,0,0,0
57362965,0.0,-0.0,0.229564,0.0,0.99342,0.0,0.0,0.11453,0.0,-1.0,1,0,0,0,0,0,0
57462169,0.0,-0.0,0.229721,0.0,0.993411,0.0,0.0,0.114608,0.0,-1.0,1,0,0,0,0,0,0
57566128,0.0,-0.0,0.229762,0.0,0.993408,0.0,0.0,0.114628,0.0,-1.0,1,0,0,0,0,0,0
57668052,0.0,-0.0,0.229731,0.0,0.99341,0.0,0.0,0.114613,0.0,-1.0,1,0,0,0,0,0,0
57767771,0.0,-0.0,0.229669,0.0,0.993414,0.0,0.0,0.114582,0.0,-1.0,1,0,0,0,0,0,0
57868059,0.0,-0.0,0.229565,0.0,0.99342,0.0,0.0,0.114531,0.0,-1.0,1,0,0,0,0,0,0
57972055,0.0,-0.0,0.229511,0.0,0.993423,0.0,0.0,0.114504,0.0,-1.0,1,0,0,0,0,0,0
58072344,0.0,-0.0,0.229542,0.0,0.993421,0.0,0.0,0.114519,0.0,-1.0,1,0,0,0,0,0,0
58172773,0.0,-0.0,0.229594,0.0,0.993418,0.0,0.0,0.114545,0.0,-1.0,1,0,0,0,0,0,0
58275042,0.0,-0.0,0.229712,0.0,0.993411,0.0,0.0,0.114603,0.0,-1.0,1,0,0,0,0,0,0
58378996,0.0,-0.0,0.229814,0.0,0.993405,0.0,0.0,0.114654,0.0,-1.0,1,0,0,0,0,0,0
58479852,0.0,-0.0,0.229965,0.0,0.993397,0.0,0.0,0.114729,0.0,-1.0,1,0,0,0,0,0,0
58579805,0.0,-0.0,0.230078,0.0,0.99339,0.0,0.0,0.114786,0.0,-1.0,1,0,0,0,0,0,0
58680115,0.0,-0.0,0.230109,0.0,0.993389,0.0,0.0,0.114801,0.0,-1.0,1,0,0,0,0,0,0
58784355,0.0,-0.0,0.230079,0.0,0.99339,0.0,0.0,0.114786,0.0,-1.0,1,0,0,0,0,0,0
58883725,0.0,-0.0,0.230079,0.0,0.99339,0.0,0.0,0.114786,0.0,-1.0,1,0,0,0,0,0,0
58987787,0.0,-0.0,0.230081,0.0,0.99339,0.0,0.0,0.114787,0.0,-1.0,1,0,0,0,0,0,0
59088258,0.0,-0.0,0.230095,0.0,0.993389,0.0,0.0,0.114794,0.0,-1.0,1,0,0,0,0,0,0
59187738,0.0,-0.0,0.23017,0.0,0.993385,0.0,0.0,0.114831,0.0,-1.0,1,0,0,0,0,0,0
59291770,0.0,-0.0,0.230334,0.0,0.993376,0.0,0.0,0.114913,0.0,-1.0,1,0,0,0,0,0,0
59393556,0.0,-0.0,0.230532,0.0,0.993364,0.0,0.0,0.115011,0.0,-1.0,1,0,0,0,0,0,0
59493374,0.0,-0.0,0.230667,0.0,0.993356,0.0,0.0,0.115078,0.0,-1.0,1,0,0,0,0,0,0
59593793,0.0,-0.0,0.230701,0.0,0.993354,0.0,0.0,0.115095,0.0,-1.0,1,0,0,0,0,0,0
59698482,0.0,-0.0,0.230716,0.0,0.993354,0.0,0.0,0.115102,0.0,-1.0,1,0,0,0,0,0,0
59797354,0.0,-0.0,0.230743,0.0,0.993352,0.0,0.0,0.115116,0.0,-1.0,1,0,0,0,0,0,0
59901313,0.0,-0.0,0.230744,0.0,0.993352,0.0,0.0,0.115116,0.0,-1.0,1,0,0,0,0,0,0
60001633,0.0,-0.0,0.230813,0.0,0.993348,0.0,0.0,0.115151,0.0,-1.0,1,0,0,0,0,0,0
60101361,0.0,-0.0,0.230835,0.0,0.993347,0.0,0.0,0.115162,0.0,-1.0,1,0,0,0,0,0,0
60205372,0.0,-0.0,0.230886,0.0,0.993344,0.0,0.0,0.115187,0.0,-1.0,1,0,0,0,0,0,0
60305606,0.0,-0.0,0.230972,0.0,0.993339,0.0,0.0,0.115229,0.0,-1.0,1,0,0,0,0,0,0
60405482,0.0,-0.0,0.231035,0.0,0.993335,0.0,0.0,0.115261,0.0,-1.0,1,0,0,0,0,0,0
60510212,0.0,-0.0,0.231143,0.0,0.993329,0.0,0.0,0.115314,0.0,-1.0,1,0,0,0,0,0,0
60610470,0.0,-0.0,0.231195,0.0,0.993326,0.0,0.0,0.11534,0.0,-1.0,1,0,0,0,0,0,0
60710237,0.0,-0.0,0.231158,0.0,0.993328,0.0,0.0,0.115322,0.0,-1.0,1,0,0,0,0,0,0
60812026,0.0,-0.0,0.231185,0.0,0.993327,0.0,0.0,0.115335,0.0,-1.0,1,0,0,0,0,0,0
60916142,0.0,-0.0,0.231224,0.0,0.993324,0.0,0.0,0.115355,0.0,-1.0,1,0,0,0,0,0,0
61016547,0.0,-0.0,0.231254,0.0,0.993323,0.0,0.0,0.11537,0.0,-1.0,1,0,0,0,0,0,0
61116738,0.0,-0.0,0.231291,0.0,0.99332,0.0,0.0,0.115388,0.0,-1.0,1,0,0,0,0,0,0
61221027,0.0,-0.0,0.231347,0.0,0.993317,0.0,0.0,0.115416,0.0,-1.0,1,0,0,0,0,0,0
61319813,0.0,-0.0,0.231426,0.0,0.993313,0.0,0.0,0.115455,0.0,-1.0,1,0,0,0,0,0,0
61423822,0.0,-0.0,0.231496,0.0,0.993309,0.0,0.0,0.11549,0.0,-1.0,1,0,0,0,0,0,0
61522713,0.0,-0.0,0.23153,0.0,0.993307,0.0,0.0,0.115507,0.0,-1.0,1,0,0,0,0,0,0
61627039,0.0,-0.0,0.231626,0.0,0.993301,0.0,0.0,0.115554,0.0,-1.0,1,0,0,0,0,0,0
61728009,0.0,-0.0,0.231617,0.0,0.993302,0.0,0.0,0.11555,0.0,-1.0,1,0,0,0,0,0,0
61826998,0.0,-0.0,0.231581,0.0,0.993304,0.0,0.0,0.115532,0.0,-1.0,1,0,0,0,0,0,0
61930951,0.0,-0.0,0.23151,0.0,0.993308,0.0,0.0,0.115497,0.0,-1.0,1,0,0,0,0,0,0
62031450,0.0,-0.0,0.231455,0.0,0.993311,0.0,0.0,0.115469,0.0,-1.0,1,0,0,0,0,0,0
62131757,0.0,-0.0,0.231383,0.0,0.993315,0.0,0.0,0.115434,0.0,-1.0,1,0,0,0,0,0,0
62235546,0.0,-0.0,0.231292,0.0,0.99332,0.0,0.0,0.115388,0.0,-1.0,1,0,0,0,0,0,0
62336094,0.0,-0.0,0.231167,0.0,0.993328,0.0,0.0,0.115326,0.0,-1.0,1,0,0,0,0,0,0
62435734,0.0,-0.0,0.231064,0.0,0.993334,0.0,0.0,0.115275,0.0,-1.0,1,0,0,0,0,0,0
62540709,0.0,-0.0,0.231021,0.0,0.993336,0.0,0.0,0.115254,0.0,-1.0,1,0,0,0,0,0,0
62641629,0.0,-0.0,0.230935,0.0,0.993341,0.0,0.0,0.115211,0.0,-1.0,1,0,0,0,0,0,0
62741341,0.0,-0.0,0.230843,0.0,0.993346,0.0,0.0,0.115166,0.0,-1.0,1,0,0,0,0,0,0
62841865,0.0,-0.0,0.230735,0.0,0.993353,0.0,0.0,0.115112,0.0,-1.0,1,0,0,0,0,0,0
62945678,0.0,-0.0,0.23065,0.0,0.993357,0.0,0.0,0.11507,0.0,-1.0,1,0,0,0,0,0,0
63045147,0.0,-0.0,0.230585,0.0,0.993361,0.0,0.0,0.115037,0.0,-1.0,1,0,0,0,0,0,0
63146365,0.0,-0.0,0.230487,0.0,0.993367,0.0,0.0,0.114989,0.0,-1.0,1,0,0,0,0,0,0
63251014,0.0,-0.0,0.230395,0.0,0.993372,0.0,0.0,0.114943,0.0,-1.0,1,0,0,0,0,0,0
63350241,0.0,-0.0,0.230363,0.0,0.993374,0.0,0.0,0.114927,0.0,-1.0,1,0,0,0,0,0,0
63450522,0.0,-0.0,0.230335,0.0,0.993376,0.0,0.0,0.114913,0.0,-1.0,1,0,0,0,0,0,0
63554404,0.0,-0.0,0.230199,0.0,0.993383,0.0,0.0,0.114846,0.0,-1.0,1,0,0,0,0,0,0
63654105,0.0,-0.0,0.229868,0.0,0.993402,0.0,0.0,0.114681,0.0,-1.0,1,0,0,0,0,0,0
63758347,0.0,-0.0,0.229517,0.0,0.993422,0.0,0.0,0.114507,0.0,-1.0,1,0,0,0,0,0,0
63858587,0.0,-0.0,0.229267,0.0,0.993437,0.0,0.0,0.114383,0.0,-1.0,1,0,0,0,0,0,0
63958151,0.0,-0.0,0.229097,0.0,0.993446,0.0,0.0,0.114298,0.0,-1.0,1,0,0,0,0,0,0
64062980,0.0,-0.0,0.228962,0.0,0.993454,0.0,0.0,0.114231,0.0,-1.0,1,0,0,0,0,0,0
64163974,0.0,-0.0,0.228844,0.0,0.993461,0.0,0.0,0.114173,0.0,-1.0,1,0,0,0,0,0,0
64263550,0.0,-0.0,0.228753,0.0,0.993466,0.0,0.0,0.114127,0.0,-1.0,1,0,0,0,0,0,0
64364043,0.0,-0.0,0.228696,0.0,0.993469,0.0,0.0,0.114099,0.0,-1.0,1,0,0,0,0,0,0
64468162,0.0,-0.0,0.228696,0.0,0.993469,0.0,0.0,0.114099,0.0,-1.0,1,0,0,0,0,0,0
64567815,0.0,-0.0,0.228619,0.0,0.993474,0.0,0.0,0.114061,0.0,-1.0,1,0,0,0,0,0,0
64671802,0.0,-0.0,0.2286,0.0,0.993475,0.0,0.0,0.114051,0.0,-1.0,1,0,0,0,0,0,0
64772022,0.0,-0.0,0.228568,0.0,0.993477,0.0,0.0,0.114035,0.0,-1.0,1,0,0,0,0,0,0
64871740,0.0,-0.0,0.228567,0.0,0.993477,0.0,0.0,0.114035,0.0,-1.0,1,0,0,0,0,0,0
64975748,0.0,-0.0,0.228603,0.0,0.993475,0.0,0.0,0.114053,0.0,-1.0,1,0,0,0,0,0,0
65075944,0.0,-0.0,0.228632,0.0,0.993473,0.0,0.0,0.114067,0.0,-1.0,1,0,0,0,0,0,0
65175735,0.0,-0.0,0.228658,0.0,0.993472,0.0,0.0,0.11408,0.0,-1.0,1,0,0,0,0,0,0
65279912,0.0,-0.0,0.228749,0.0,0.993466,0.0,0.0,0.114125,0.0,-1.0,1,0,0,0,0,0,0
65380299,0.0,-0.0,0.228874,0.0,0.993459,0.0,0.0,0.114187,0.0,-1.0,1,0,0,0,0,0,0
65483984,0.0,-0.0,0.228304,0.0,0.993492,0.0,0.0,0.113904,0.0,-1.0,1,0,0,0,0,0,0
65585434,0.0,-0.0,0.227574,0.0,0.993533,0.0,0.0,0.113542,0.0,-1.0,1,0,0,0,0,0,0
65686237,0.0,-0.0,0.226652,0.0,0.993585,0.0,0.0,0.113084,0.0,-1.0,1,0,0,0,0,0,0
65785457,0.0,-0.0,0.22595,0.0,0.993625,0.0,0.0,0.112735,0.0,-1.0,1,0,0,0,0,0,0
65889443,0.0,-0.0,0.225493,0.0,0.993651,0.0,0.0,0.112508,0.0,-1.0,1,0,0,0,0,0,0
65990527,0.0,-0.0,0.225336,0.0,0.99366,0.0,0.0,0.11243,0.0,-1.0,1,0,0,0,0,0,0
66089383,0.0,-0.0,0.225329,0.0,0.99366,0.0,0.0,0.112426,0.0,-1.0,1,0,0,0,0,0,0
66193126,0.0,-0.0,0.225465,0.0,0.993652,0.0,0.0,0.112494,0.0,-1.0,1,0,0,0,0,0,0
66295181,0.0,-0.0,0.225646,0.0,0.993642,0.0,0.0,0.112584,0.0,-1.0,1,0,0,0,0,0,0
66394173,0.0,-0.0,0.225856,0.0,0.99363,0.0,0.0,0.112688,0.0,-1.0,1,0,0,0,0,0,0
66498220,0.0,-0.0,0.226083,0.0,0.993618,0.0,0.0,0.112801,0.0,-1.0,1,0,0,0,0,0,0
66598391,0.0,-0.0,0.226299,0.0,0.993605,0.0,0.0,0.112908,0.0,-1.0,1,0,0,0,0,0,0
66700639,0.0,-0.0,0.226413,0.0,0.993599,0.0,0.0,0.112965,0.0,-1.0,1,0,0,0,0,0,0
66801643,0.0,-0.0,0.226499,0.0,0.993594,0.0,0.0,0.113008,0.0,-1.0,1,0,0,0,0,0,0
66901362,0.0,-0.0,0.226544,0.0,0.993592,0.0,0.0,0.11303,0.0,-1.0,1,0,0,0,0,0,0
67005152,0.0,-0.0,0.226674,0.0,0.993584,0.0,0.0,0.113094,0.0,-1.0,1,0,0,0,0,0,0
67105889,0.0,-0.0,0.226724,0.0,0.993581,0.0,0.0,0.113119,0.0,-1.0,1,0,0,0,0,0,0
67210261,0.0,-0.0,0.226775,0.0,0.993579,0.0,0.0,0.113144,0.0,-1.0,1,0,0,0,0,0,0
67313626,0.0,-0.0,0.226798,0.0,0.993577,0.0,0.0,0.113156,0.0,-1.0,1,0,0,0,0,0,0
67413355,0.0,-0.0,0.226842,0.0,0.993575,0.0,0.0,0.113178,0.0,-1.0,1,0,0,0,0,0,0
67517313,0.0,-0.0,0.226909,0.0,0.993571,0.0,0.0,0.113211,0.0,-1.0,1,0,0,0,0,0,0
67617514,0.0,-0.0,0.226967,0.0,0.993568,0.0,0.0,0.11324,0.0,-1.0,1,0,0,0,0,0,0
67717312,0.0,-0.0,0.226964,0.0,0.993568,0.0,0.0,0.113239,0.0,-1.0,1,0,0,0,0,0,0
67821314,0.0,-0.0,0.226984,0.0,0.993567,0.0,0.0,0.113248,0.0,-1.0,1,0,0,0,0,0,0
67922462,0.0,-0.0,0.227004,0.0,0.993566,0.0,0.0,0.113258,0.0,-1.0,1,0,0,0,0,0,0
68022937,0.0,-0.0,0.227013,0.0,0.993565,0.0,0.0,0.113263,0.0,-1.0,1,0,0,0,0,0,0
68123772,0.0,-0.0,0.227056,0.0,0.993563,0.0,0.0,0.113284,0.0,-1.0,1,0,0,0,0,0,0
68228045,0.0,-0.0,0.227128,0.0,0.993559,0.0,0.0,0.11332,0.0,-1.0,1,0,0,0,0,0,0
68326983,0.0,-0.0,0.227192,0.0,0.993555,0.0,0.0,0.113352,0.0,-1.0,1,0,0,0,0,0,0
68430957,0.0,-0.0,0.227262,0.0,0.993551,0.0,0.0,0.113386,0.0,-1.0,1,0,0,0,0,0,0
68531451,0.0,-0.0,0.227378,0.0,0.993544,0.0,0.0,0.113444,0.0,-1.0,1,0,0,0,0,0,0
68631005,0.0,-0.0,0.227416,0.0,0.993542,0.0,0.0,0.113463,0.0,-1.0,1,0,0,0,0,0,0
68732041,0.0,-0.0,0.22745,0.0,0.99354,0.0,0.0,0.11348,0.0,-1.0,1,0,0,0,0,0,0
68835953,0.0,-0.0,0.227454,0.0,0.99354,0.0,0.0,0.113482,0.0,-1.0,1,0,0,0,0,0,0
68935712,0.0,-0.0,0.227447,0.0,0.99354,0.0,0.0,0.113479,0.0,-1.0,1,0,0,0,0,0,0
69039762,0.0,-0.0,0.227429,0.0,0.993541,0.0,0.0,0.11347,0.0,-1.0,1,0,0,0,0,0,0
69140078,0.0,-0.0,0.22734,0.0,0.993546,0.0,0.0,0.113426,0.0,-1.0,1,0,0,0,0,0,0
69241322,0.0,-0.0,0.227299,0.0,0.993549,0.0,0.0,0.113405,0.0,-1.0,1,0,0,0,0,0,0
69342325,0.0,-0.0,0.227198,0.0,0.993555,0.0,0.0,0.113355,0.0,-1.0,1,0,0,0,0,0,0
69445576,0.0,-0.0,0.227126,0.0,0.993559,0.0,0.0,0.113319,0.0,-1.0,1,0,0,0,0,0,0
69545414,0.0,-0.0,0.22707,0.0,0.993562,0.0,0.0,0.113291,0.0,-1.0,1,0,0,0,0,0,0
69645741,0.0,-0.0,0.226989,0.0,0.993566,0.0,0.0,0.113251,0.0,-1.0,1,0,0,0,0,0,0
69750573,0.0,-0.0,0.226943,0.0,0.993569,0.0,0.0,0.113228,0.0,-1.0,1,0,0,0,0,0,0
69849389,0.0,-0.0,0.226825,0.0,0.993576,0.0,0.0,0.11317,0.0,-1.0,1,0,0,0,0,0,0
69953352,0.0,-0.0,0.226742,0.0,0.99358,0.0,0.0,0.113128,0.0,-1.0,1,0,0,0,0,0,0
70054379,0.0,-0.0,0.226634,0.0,0.993586,0.0,0.0,0.113075,0.0,-1.0,1,0,0,0,0,0,0
70153362,0.0,-0.0,0.226478,0.0,0.993595,0.0,0.0,0.112997,0.0,-1.0,1,0,0,0,0,0,0
70254396,0.0,-0.0,0.226336,0.0,0.993603,0.0,0.0,0.112927,0.0,-1.0,1,0,0,0,0,0,0
70358468,0.0,-0.0,0.226287,0.0,0.993606,0.0,0.0,0.112902,0.0,-1.0,1,0,0,0,0,0,0
70459861,0.0,-0.0,0.226257,0.0,0.993608,0.0,0.0,0.112887,0.0,-1.0,1,0,0,0,0,0,0
70560072,0.0,-0.0,0.226224,0.0,0.99361,0.0,0.0,0.112871,0.0,-1.0,1,0,0,0,0,0,0
70663997,0.0,-0.0,0.226191,0.0,0.993612,0.0,0.0,0.112855,0.0,-1.0,1,0,0,0,0,0,0
70763757,0.0,-0.0,0.226241,0.0,0.993609,0.0,0.0,0.112879,0.0,-1.0,1,0,0,0,0,0,0
70864971,0.0,-0.0,0.226254,0.0,0.993608,0.0,0.0,0.112886,0.0,-1.0,1,0,0,0,0,0,0
70967971,0.0,-0.0,0.226262,0.0,0.993608,0.0,0.0,0.11289,0.0,-1.0,1,0,0,0,0,0,0
71067864,0.0,-0.0,0.226292,0.0,0.993606,0.0,0.0,0.112905,0.0,-1.0,1,0,0,0,0,0,0
71168842,0.0,-0.0,0.226279,0.0,0.993607,0.0,0.0,0.112898,0.0,-1.0,1,0,0,0,0,0,0
71272822,0.0,-0.0,0.226216,0.0,0.99361,0.0,0.0,0.112867,0.0,-1.0,1,0,0,0,0,0,0
71376256,0.0,-0.0,0.226178,0.0,0.993612,0.0,0.0,0.112848,0.0,-1.0,1,0,0,0,0,0,0
71475706,0.0,-0.0,0.226119,0.0,0.993616,0.0,0.0,0.112819,0.0,-1.0,1,0,0,0,0,0,0
71580665,0.0,-0.0,0.226107,0.0,0.993616,0.0,0.0,0.112813,0.0,-1.0,1,0,0,0,0,0,0
71681415,0.0,-0.0,0.226076,0.0,0.993618,0.0,0.0,0.112798,0.0,-1.0,1,0,0,0,0,0,0
71782098,0.0,-0.0,0.226095,0.0,0.993617,0.0,0.0,0.112807,0.0,-1.0,1,0,0,0,0,0,0
71882384,0.0,-0.0,0.225968,0.0,0.993624,0.0,0.0,0.112744,0.0,-1.0,1,0,0,0,0,0,0
71986753,0.0,-0.0,0.225869,0.0,0.99363,0.0,0.0,0.112695,0.0,-1.0,1,0,0,0,0,0,0
72086987,0.0,-0.0,0.22579,0.0,0.993634,0.0,0.0,0.112655,0.0,-1.0,1,0,0,0,0,0,0
72187969,0.0,-0.0,0.225725,0.0,0.993638,0.0,0.0,0.112623,0.0,-1.0,1,0,0,0,0,0,0
72287734,0.0,-0.0,0.22575,0.0,0.993636,0.0,0.0,0.112636,0.0,-1.0,1,0,0,0,0,0,0
72390207,0.0,-0.0,0.22579,0.0,0.993634,0.0,0.0,0.112655,0.0,-1.0,1,0,0,0,0,0,0
72493829,0.0,-0.0,0.225948,0.0,0.993625,0.0,0.0,0.112734,0.0,-1.0,1,0,0,0,0,0,0
72593354,0.0,-0.0,0.22608,0.0,0.993618,0.0,0.0,0.112799,0.0,-1.0,1,0,0,0,0,0,0
72697433,0.0,-0.0,0.226197,0.0,0.993611,0.0,0.0,0.112858,0.0,-1.0,1,0,0,0,0,0,0
72798471,0.0,-0.0,0.226265,0.0,0.993607,0.0,0.0,0.112891,0.0,-1.0,1,0,0,0,0,0,0
72897440,0.0,-0.0,0.226341,0.0,0.993603,0.0,0.0,0.112929,0.0,-1.0,1,0,0,0,0,0,0
72998504,0.0,-0.0,0.226495,0.0,0.993594,0.0,0.0,0.113005,0.0,-1.0,1,0,0,0,0,0,0
73102945,0.0,-0.0,0.226677,0.0,0.993584,0.0,0.0,0.113096,0.0,-1.0,1,0,0,0,0,0,0
73202109,0.0,-0.0,0.2268,0.0,0.993577,0.0,0.0,0.113157,0.0,-1.0,1,0,0,0,0,0,0
73306071,0.0,-0.0,0.226961,0.0,0.993568,0.0,0.0,0.113237,0.0,-1.0,1,0,0,0,0,0,0
73406551,0.0,-0.0,0.227108,0.0,0.99356,0.0,0.0,0.11331,0.0,-1.0,1,0,0,0,0,0,0
73506163,0.0,-0.0,0.227188,0.0,0.993555,0.0,0.0,0.11335,0.0,-1.0,1,0,0,0,0,0,0
73610232,0.0,-0.0,0.227275,0.0,0.99355,0.0,0.0,0.113393,0.0,-1.0,1,0,0,0,0,0,0
73712057,0.0,-0.0,0.22726,0.0,0.993551,0.0,0.0,0.113386,0.0,-1.0,1,0,0,0,0,0,0
73811772,0.0,-0.0,0.227355,0.0,0.993546,0.0,0.0,0.113433,0.0,-1.0,1,0,0,0,0,0,0
73912022,0.0,-0.0,0.227399,0.0,0.993543,0.0,0.0,0.113455,0.0,-1.0,1,0,0,0,0,0,0
74016783,0.0,-0.0,0.227519,0.0,0.993536,0.0,0.0,0.113514,0.0,-1.0,1,0,0,0,0,0,0
74116603,0.0,-0.0,0.227551,0.0,0.993535,0.0,0.0,0.11353,0.0,-1.0,1,0,0,0,0,0,0
74217658,0.0,-0.0,0.227622,0.0,0.993531,0.0,0.0,0.113566,0.0,-1.0,1,0,0,0,0,0,0
74320988,0.0,-0.0,0.227718,0.0,0.993525,0.0,0.0,0.113613,0.0,-1.0,1,0,0,0,0,0,0
74422187,0.0,-0.0,0.227905,0.0,0.993514,0.0,0.0,0.113706,0.0,-1.0,1,0,0,0,0,0,0
74523192,0.0,-0.0,0.228022,0.0,0.993508,0.0,0.0,0.113764,0.0,-1.0,1,0,0,0,0,0,0
74622167,0.0,-0.0,0.22812,0.0,0.993502,0.0,0.0,0.113813,0.0,-1.0,1,0,0,0,0,0,0
74726129,0.0,-0.0,0.228278,0.0,0.993493,0.0,0.0,0.113891,0.0,-1.0,1,0,0,0,0,0,0
74826513,0.0,-0.0,0.228399,0.0,0.993486,0.0,0.0,0.113951,0.0,-1.0,1,0,0,0,0,0,0
74931117,0.0,-0.0,0.228432,0.0,0.993484,0.0,0.0,0.113968,0.0,-1.0,1,0,0,0,0,0,0
75034999,0.0,-0.0,0.228378,0.0,0.993488,0.0,0.0,0.113941,0.0,-1.0,1,0,0,0,0,0,0
75134162,0.0,-0.0,0.228356,0.0,0.993489,0.0,0.0,0.11393,0.0,-1.0,1,0,0,0,0,0,0
75238243,0.0,-0.0,0.228333,0.0,0.99349,0.0,0.0,0.113918,0.0,-1.0,1,0,0,0,0,0,0
75339222,0.0,-0.0,0.228268,0.0,0.993494,0.0,0.0,0.113886,0.0,-1.0,1,0,0,0,0,0,0
75438190,0.0,-0.0,0.228289,0.0,0.993493,0.0,0.0,0.113897,0.0,-1.0,1,0,0,0,0,0,0
75542971,0.0,-0.0,0.228269,0.0,0.993494,0.0,0.0,0.113887,0.0,-1.0,1,0,0,0,0,0,0
75643404,0.0,-0.0,0.228225,0.0,0.993496,0.0,0.0,0.113865,0.0,-1.0,1,0,0,0,0,0,0
75742906,0.0,-0.0,0.228187,0.0,0.993498,0.0,0.0,0.113846,0.0,-1.0,1,0,0,0,0,0,0
75846976,0.0,-0.0,0.228141,0.0,0.993501,0.0,0.0,0.113823,0.0,-1.0,1,0,0,0,0,0,0
75948805,0.0,-0.0,0.228087,0.0,0.993504,0.0,0.0,0.113797,0.0,-1.0,1,0,0,0,0,0,0
76048596,0.0,-0.0,0.228042,0.0,0.993507,0.0,0.0,0.113774,0.0,-1.0,1,0,0,0,0,0,0
76149654,0.0,-0.0,0.227991,0.0,0.99351,0.0,0.0,0.113749,0.0,-1.0,1,0,0,0,0,0,0
76254093,0.0,-0.0,0.227981,0.0,0.99351,0.0,0.0,0.113744,0.0,-1.0,1,0,0,0,0,0,0
76357618,0.0,-0.0,0.227909,0.0,0.993514,0.0,0.0,0.113708,0.0,-1.0,1,0,0,0,0,0,0
76457366,0.0,-0.0,0.227855,0.0,0.993517,0.0,0.0,0.113681,0.0,-1.0,1,0,0,0,0,0,0
76561388,0.0,-0.0,0.227834,0.0,0.993518,0.0,0.0,0.113671,0.0,-1.0,1,0,0,0,0,0,0
76661869,0.0,-0.0,0.227776,0.0,0.993522,0.0,0.0,0.113642,0.0,-1.0,1,0,0,0,0,0,0
76761415,0.0,-0.0,0.227698,0.0,0.993526,0.0,0.0,0.113603,0.0,-1.0,1,0,0,0,0,0,0
76865313,0.0,-0.0,0.227587,0.0,0.993533,0.0,0.0,0.113548,0.0,-1.0,1,0,0,0,0,0,0
76965613,0.0,-0.0,0.227403,0.0,0.993543,0.0,0.0,0.113457,0.0,-1.0,1,0,0,0,0,0,0
77069845,0.0,-0.0,0.226934,0.0,0.99357,0.0,0.0,0.113223,0.0,-1.0,1,0,0,0,0,0,0
77173746,0.0,-0.0,0.226516,0.0,0.993593,0.0,0.0,0.113016,0.0,-1.0,1,0,0,0,0,0,0
77273311,0.0,-0.0,0.226218,0.0,0.99361,0.0,0.0,0.112868,0.0,-1.0,1,0,0,0,0,0,0
77373883,0.0,-0.0,0.226056,0.0,0.993619,0.0,0.0,0.112787,0.0,-1.0,1,0,0,0,0,0,0
77474961,0.0,-0.0,0.225912,0.0,0.993627,0.0,0.0,0.112716,0.0,-1.0,1,0,0,0,0,0,0
77578916,0.0,-0.0,0.225828,0.0,0.993632,0.0,0.0,0.112674,0.0,-1.0,1,0,0,0,0,0,0
77679783,0.0,-0.0,0.225774,0.0,0.993635,0.0,0.0,0.112647,0.0,-1.0,1,0,0,0,0,0,0
77783304,0.0,-0.0,0.225782,0.0,0.993635,0.0,0.0,0.112652,0.0,-1.0,1,0,0,0,0,0,0
77883004,0.0,-0.0,0.225773,0.0,0.993635,0.0,0.0,0.112647,0.0,-1.0,1,0,0,0,0,0,0
77983226,0.0,-0.0,0.225751,0.0,0.993636,0.0,0.0,0.112636,0.0,-1.0,1,0,0,0,0,0,0
78087179,0.0,-0.0,0.225752,0.0,0.993636,0.0,0.0,0.112637,0.0,-1.0,1,0,0,0,0,0,0
78187022,0.0,-0.0,0.225726,0.0,0.993638,0.0,0.0,0.112623,0.0,-1.0,1,0,0,0,0,0,0
78287980,0.0,-0.0,0.225702,0.0,0.993639,0.0,0.0,0.112612,0.0,-1.0,1,0,0,0,0,0,0
78392245,0.0,-0.0,0.225711,0.0,0.993639,0.0,0.0,0.112616,0.0,-1.0,1,0,0,0,0,0,0
78491756,0.0,-0.0,0.225689,0.0,0.99364,0.0,0.0,0.112605,0.0,-1.0,1,0,0,0,0,0,0
78592618,0.0,-0.0,0.225702,0.0,0.993639,0.0,0.0,0.112612,0.0,-1.0,1,0,0,0,0,0,0
78696531,0.0,-0.0,0.225717,0.0,0.993638,0.0,0.0,0.112619,0.0,-1.0,1,0,0,0,0,0,0
78794664,0.0,-0.0,0.225727,0.0,0.993638,0.0,0.0,0.112624,0.0,-1.0,1,0,0,0,0,0,0
78898493,0.0,-0.0,0.225776,0.0,0.993635,0.0,0.0,0.112649,0.0,-1.0,1,0,0,0,0,0,0
78998179,0.0,-0.0,0.225836,0.0,0.993632,0.0,0.0,0.112678,0.0,-1.0,1,0,0,0,0,0,0
79099185,0.0,-0.0,0.22592,0.0,0.993627,0.0,0.0,0.11272,0.0,-1.0,1,0,0,0,0,0,0
79200756,0.0,-0.0,0.226012,0.0,0.993622,0.0,0.0,0.112766,0.0,-1.0,1,0,0,0,0,0,0
79304614,0.0,-0.0,0.226017,0.0,0.993621,0.0,0.0,0.112768,0.0,-1.0,1,0,0,0,0,0,0
79404796,0.0,-0.0,0.226041,0.0,0.99362,0.0,0.0,0.11278,0.0,-1.0,1,0,0,0,0,0,0
79508879,0.0,-0.0,0.226056,0.0,0.993619,0.0,0.0,0.112787,0.0,-1.0,1,0,0,0,0,0,0
79608567,0.0,-0.0,0.226077,0.0,0.993618,0.0,0.0,0.112798,0.0,-1.0,1,0,0,0,0,0,0
79709627,0.0,-0.0,0.226181,0.0,0.993612,0.0,0.0,0.11285,0.0,-1.0,1,0,0,0,0,0,0
79809417,0.0,-0.0,0.226307,0.0,0.993605,0.0,0.0,0.112912,0.0,-1.0,1,0,0,0,0,0,0
79913272,0.0,-0.0,0.22645,0.0,0.993597,0.0,0.0,0.112983,0.0,-1.0,1,0,0,0,0,0,0
80013756,0.0,-0.0,0.226611,0.0,0.993588,0.0,0.0,0.113063,0.0,-1.0,1,0,0,0,0,0,0
80117619,0.0,-0.0,0.226709,0.0,0.993582,0.0,0.0,0.113112,0.0,-1.0,1,0,0,0,0,0,0
80217501,0.0,-0.0,0.226843,0.0,0.993575,0.0,0.0,0.113178,0.0,-1.0,1,0,0,0,0,0,0
80318256,0.0,-0.0,0.226876,0.0,0.993573,0.0,0.0,0.113195,0.0,-1.0,1,0,0,0,0,0,0
80421618,0.0,-0.0,0.226902,0.0,0.993571,0.0,0.0,0.113208,0.0,-1.0,1,0,0,0,0,0,0
80521365,0.0,-0.0,0.226922,0.0,0.99357,0.0,0.0,0.113218,0.0,-1.0,1,0,0,0,0,0,0
80623280,0.0,-0.0,0.226983,0.0,0.993567,0.0,0.0,0.113248,0.0,-1.0,1,0,0,0,0,0,0
80723778,0.0,-0.0,0.227083,0.0,0.993561,0.0,0.0,0.113298,0.0,-1.0,1,0,0,0,0,0,0
80824766,0.0,-0.0,0.227103,0.0,0.99356,0.0,0.0,0.113307,0.0,-1.0,1,0,0,0,0,0,0
80928834,0.0,-0.0,0.227116,0.0,0.993559,0.0,0.0,0.113314,0.0,-1.0,1,0,0,0,0,0,0
81030225,0.0,-0.0,0.227121,0.0,0.993559,0.0,0.0,0.113316,0.0,-1.0,1,0,0,0,0,0,0
