timestamp,rollspeed,pitchspeed,yawspeed,rollspeed_integ,pitchspeed_integ,yawspeed_integ,additional_integ1
4188692,-0.00588259,0.00267254,0.00326632,0.0,0.0,0.0,0.0
4192626,-0.00640909,0.00298065,0.00522929,0.0,0.0,0.0,0.0
4224660,-0.00489146,0.00260595,0.00268536,0.0,0.0,0.0,0.0
4256660,-0.00643045,0.00360342,0.00530175,0.0,0.0,0.0,0.0
4288634,-0.00591855,0.00205067,0.00543401,0.0,0.0,0.0,0.0
4320625,-0.00540983,0.00553323,0.00203015,0.0,0.0,0.0,0.0
4348623,-0.00434218,0.00453414,0.00474368,0.0,0.0,0.0,0.0
4380637,-0.00480812,0.00432245,0.00760781,0.0,0.0,0.0,0.0
4412645,-0.0080408,0.00275592,0.00512786,0.0,0.0,0.0,0.0
4444646,-0.00666405,0.00223575,0.00422013,0.0,0.0,0.0,0.0
4478255,-0.00721359,0.00264734,0.00449404,0.0,0.0,0.0,0.0
4506269,-0.0047442,0.00277306,0.0045982,0.0,0.0,0.0,0.0
4538260,-0.00597257,0.00276136,0.00419777,0.0,0.0,0.0,0.0
4570227,-0.00790764,0.00545866,0.00349795,0.0,0.0,0.0,0.0
4602231,-0.00623318,0.0035065,0.003825,0.0,0.0,0.0,0.0
4635100,-0.00535929,0.0044282,0.00514886,0.0,0.0,0.0,0.0
4667062,-0.00588545,0.00350729,0.00417754,0.0,0.0,0.0,0.0
4699096,-0.00626791,0.00446951,0.00376269,0.0,0.0,0.0,0.0
4731021,-0.00618624,0.00413226,0.00239921,0.0,0.0,0.0,0.0
4763074,-0.00299556,0.00385606,0.00528573,0.0,0.0,0.0,0.0
4795022,-0.00510217,0.00264051,0.00616583,0.0,0.0,0.0,0.0
4827035,-0.00699767,0.00427191,0.00356818,0.0,0.0,0.0,0.0
4859009,-0.00433803,0.00351934,0.00224868,0.0,0.0,0.0,0.0
4891024,-0.00563067,0.00350555,0.00407649,0.0,0.0,0.0,0.0
4918995,-0.00615962,0.00302952,0.00441406,0.0,0.0,0.0,0.0
4951069,-0.00857273,0.00331535,0.00415678,0.0,0.0,0.0,0.0
4983076,-0.00632308,0.00334692,0.00318892,0.0,0.0,0.0,0.0
5015070,-0.00487148,0.0042251,0.00480187,0.0,0.0,0.0,0.0
5047040,-0.00605335,0.0048091,0.00574195,0.0,0.0,0.0,0.0
5079067,-0.00546694,0.00531507,0.0031134,0.0,0.0,0.0,0.0
5111097,-0.0056403,0.00349016,0.00202837,0.0,0.0,0.0,0.0
5143051,-0.00873536,0.00498739,0.00357582,0.0,0.0,0.0,0.0
5171069,-0.00542637,0.00357317,0.00471525,0.0,0.0,0.0,0.0
5203067,-0.00827865,0.00277063,0.00489336,0.0,0.0,0.0,0.0
5235022,-0.00708652,0.00252329,0.00432551,0.0,0.0,0.0,0.0
5267077,-0.00856209,0.00465159,0.00413176,0.0,0.0,0.0,0.0
5299051,-0.00633831,0.00457391,0.00284986,0.0,0.0,0.0,0.0
5331074,-0.00452271,0.00641239,0.00391004,0.0,0.0,0.0,0.0
5363036,-0.00591875,0.00391925,0.00346,0.0,0.0,0.0,0.0
5395037,-0.008513,0.00375855,0.00573488,0.0,0.0,0.0,0.0
5427061,-0.00624755,0.00161258,0.0040552,0.0,0.0,0.0,0.0
5459017,-0.00705888,0.00430996,0.00457841,0.0,0.0,0.0,0.0
5491037,-0.00436741,0.00424739,0.00384449,0.0,0.0,0.0,0.0
5523042,-0.00440744,0.00502572,0.0035451,0.0,0.0,0.0,0.0
5555065,-0.0052468,0.0043325,0.00522205,0.0,0.0,0.0,0.0
5586994,-0.0068933,0.00275108,0.00515048,0.0,0.0,0.0,0.0
5619017,-0.00420388,0.0042848,0.00386704,0.0,0.0,0.0,0.0
5646990,-0.0039054,0.00353127,0.00612348,0.0,0.0,0.0,0.0
5678990,-0.00644971,0.00377769,0.00684496,0.0,0.0,0.0,0.0
5711032,-0.00635018,0.00323775,0.0057989,0.0,0.0,0.0,0.0
5743047,-0.00792041,0.00432394,0.00479315,0.0,0.0,0.0,0.0
5775020,-0.00453315,0.00281141,0.00488029,0.0,0.0,0.0,0.0
5807030,-0.00402971,0.0047777,0.00524637,0.0,0.0,0.0,0.0
5839040,-0.00466815,0.00419757,0.00202502,0.0,0.0,0.0,0.0
5871078,-0.00612489,0.00356598,0.0024709,0.0,0.0,0.0,0.0
5899053,-0.00599728,0.00395135,0.00395747,0.0,0.0,0.0,0.0
5931047,-0.00491913,0.0028217,0.00698748,0.0,0.0,0.0,0.0
5963023,-0.00468536,0.00395849,0.00356917,0.0,0.0,0.0,0.0
5995035,-0.00649153,0.00446855,0.00379333,0.0,0.0,0.0,0.0
6028633,-0.00478572,0.00451783,0.00655887,0.0,0.0,0.0,0.0
6056650,-0.0049557,0.00433525,0.004304,0.0,0.0,0.0,0.0
6088624,-0.00380466,0.00651723,0.00364952,0.0,0.0,0.0,0.0
6120682,-0.00553446,0.00413953,0.0041,0.0,0.0,0.0,0.0
6152601,-0.00593707,0.00382507,0.00486297,0.0,0.0,0.0,0.0
6184609,-0.00641437,0.00373732,0.0061318,0.0,0.0,0.0,0.0
6216635,-0.00303313,0.004683,0.00275576,0.0,0.0,0.0,0.0
6248652,-0.00500664,0.0033004,0.00177935,0.0,0.0,0.0,0.0
6276633,-0.00529822,0.00329677,0.00391539,0.0,0.0,0.0,0.0
6308692,-0.00510486,0.00367179,0.00415153,0.0,0.0,0.0,0.0
6336656,-0.00597655,0.00454321,0.000168752,0.0,0.0,0.0,0.0
6368693,-0.00705466,0.00440392,0.00560452,0.0,0.0,0.0,0.0
6400618,-0.00698406,0.00552233,0.00492714,0.0,0.0,0.0,0.0
6432665,-0.00483382,0.00296127,0.0043548,0.0,0.0,0.0,0.0
6464661,-0.0053941,0.00461506,0.00415452,0.0,0.0,0.0,0.0
6496699,-0.00586554,0.00417723,0.00427254,0.0,0.0,0.0,0.0
6528624,-0.00488225,0.00361719,0.00334472,0.0,0.0,0.0,0.0
6560663,-0.00900786,0.00213641,0.00411273,0.0,0.0,0.0,0.0
6588643,-0.00698693,0.00301721,0.00537289,0.0,0.0,0.0,0.0
6620657,-0.00392063,0.00195861,0.00545289,0.0,0.0,0.0,0.0
6652658,-0.00577435,0.00369984,0.00545623,0.0,0.0,0.0,0.0
6684706,-0.00621516,0.00561806,0.00537662,0.0,0.0,0.0,0.0
6716618,-0.00497983,0.004984,0.00471733,0.0,0.0,0.0,0.0
6748667,-0.00493237,0.00489132,0.00407767,0.0,0.0,0.0,0.0
6780652,-0.00511204,0.00359402,0.00501752,0.0,0.0,0.0,0.0
6812696,-0.00729832,0.00477673,0.00392725,0.0,0.0,0.0,0.0
6840660,-0.00611936,0.00332633,0.00403545,0.0,0.0,0.0,0.0
6872635,-0.00458248,0.00429158,0.00441548,0.0,0.0,0.0,0.0
6904611,-0.00579773,0.00291501,0.00487031,0.0,0.0,0.0,0.0
6936644,-0.00671371,0.00433421,0.00600434,0.0,0.0,0.0,0.0
6968632,-0.00373893,0.00464009,0.00462569,0.0,0.0,0.0,0.0
7000622,-0.00672848,0.00483985,0.00628812,0.0,0.0,0.0,0.0
7032625,-0.00605734,0.004823,0.00478239,0.0,0.0,0.0,0.0
7064663,-0.00331313,0.00514792,0.00348667,0.0,0.0,0.0,0.0
7092634,-0.00570234,0.0027533,0.00419795,0.0,0.0,0.0,0.0
7124676,-0.00503922,0.00506119,0.00550876,0.0,0.0,0.0,0.0
7156668,-0.00420464,0.00401676,0.00400129,0.0,0.0,0.0,0.0
7188654,-0.00479756,0.0024463,0.00431247,0.0,0.0,0.0,0.0
7220638,-0.00654602,0.00282699,0.00323075,0.0,0.0,0.0,0.0
7252709,-0.00469069,0.00255323,0.00418231,0.0,0.0,0.0,0.0
7284668,-0.00295519,0.00407924,0.00339769,0.0,0.0,0.0,0.0
7316713,-0.00409748,0.00262825,0.00467795,0.0,0.0,0.0,0.0
7348627,-0.0068765,0.00207927,0.00489052,0.0,0.0,0.0,0.0
7380684,-0.00544655,0.00310484,0.00533169,0.0,0.0,0.0,0.0
7412670,-0.00643642,0.00308207,0.00400032,0.0,0.0,0.0,0.0
7444625,-0.00534639,0.00379963,0.00487028,0.0,0.0,0.0,0.0
7476623,-0.00700137,0.00313582,0.00320468,0.0,0.0,0.0,0.0
7508625,-0.00643842,0.00418526,0.00422314,0.0,0.0,0.0,0.0
7540657,-0.00548889,0.00474228,0.00544339,0.0,0.0,0.0,0.0
7568678,-0.00667447,0.00456253,0.0022762,0.0,0.0,0.0,0.0
7600667,-0.0069857,0.00380137,0.00322665,0.0,0.0,0.0,0.0
7632674,-0.00696024,0.00470773,0.00444434,0.0,0.0,0.0,0.0
7664600,-0.00651453,0.00461775,0.00511407,0.0,0.0,0.0,0.0
7698256,-0.00470055,0.00503224,0.00349199,0.0,0.0,0.0,0.0
7726273,-0.00603052,0.00479269,0.00625858,0.0,0.0,0.0,0.0
7758235,-0.00506184,0.00308553,0.00468642,0.0,0.0,0.0,0.0
7790304,-0.00510632,0.00479064,0.00342814,0.0,0.0,0.0,0.0
7822255,-0.00559132,0.00512134,0.00248251,0.0,0.0,0.0,0.0
7854280,-0.00588043,0.00220314,0.00320046,0.0,0.0,0.0,0.0
7886230,-0.00814168,0.00457206,0.00705406,0.0,0.0,0.0,0.0
7918296,-0.00523419,0.00636092,0.00459646,0.0,0.0,0.0,0.0
7950260,-0.00616738,0.00371415,0.00586804,0.0,0.0,0.0,0.0
7978288,-0.00526834,0.00415173,0.00449134,0.0,0.0,0.0,0.0
8010265,-0.00627319,0.00413167,0.00454327,0.0,0.0,0.0,0.0
8042262,-0.00443297,0.00495331,0.00595692,0.0,0.0,0.0,0.0
8074218,-0.006009,0.00507893,0.00350515,0.0,0.0,0.0,0.0
8106306,-0.00659664,0.00481746,0.0040382,0.0,0.0,0.0,0.0
8138199,-0.00730662,0.00404513,0.00394858,0.0,0.0,0.0,0.0
8170237,-0.00779468,0.00380208,0.00394331,0.0,0.0,0.0,0.0
8202203,-0.00557071,0.00438713,0.00350169,0.0,0.0,0.0,0.0
8230252,0.00344337,0.0157121,0.00098795,0.0,0.0,0.0,0.0
8262238,-0.000745368,0.0151039,-0.00103231,0.0,0.0,0.0,0.0
8294287,-0.000431238,0.0145067,-0.000421601,0.0,0.0,0.0,0.0
8326238,0.00178622,0.0140694,-0.000259934,0.0,0.0,0.0,0.0
8358281,-0.000168619,0.0157614,0.00232671,0.0,0.0,0.0,0.0
8390250,0.00181997,0.0134453,0.000263489,0.0,0.0,0.0,0.0
8422298,-0.000255612,0.0138855,0.00108455,0.0,0.0,0.0,0.0
8454265,0.00149628,0.0119136,-0.00136417,0.0,0.0,0.0,0.0
8482299,0.00328854,0.0144582,0.000270654,0.0,0.0,0.0,0.0
8514228,-0.00107767,0.01256,0.000722384,0.0,0.0,0.0,0.0
8546248,0.000197161,0.0128138,-0.000133058,0.0,0.0,0.0,0.0
8579060,0.000261249,0.014115,0.000597413,0.0,0.0,0.0,0.0
8607806,0.000381853,0.0107651,-0.000457198,0.0,0.0,0.0,0.0
8639952,0.00114384,0.0111586,-7.3466e-05,0.0,0.0,0.0,0.0
8671847,0.000602184,0.00983861,0.00139449,0.0,0.0,0.0,0.0
8703892,0.00108829,0.0116433,-0.000927939,0.0,0.0,0.0,0.0
8735814,-0.00073829,0.0107459,-5.23203e-05,0.0,0.0,0.0,0.0
8767852,0.000980428,0.0121111,0.000859287,0.0,0.0,0.0,0.0
8799909,0.00273209,0.0104785,0.0010098,0.0,0.0,0.0,0.0
8831889,0.00213371,0.0128438,-0.00164041,0.0,0.0,0.0,0.0
8863852,0.000870486,0.0120069,-0.0014743,0.0,0.0,0.0,0.0
8897476,0.000755159,0.0110895,0.000886658,0.0,0.0,0.0,0.0
8929491,0.0018833,0.00989006,-0.00145065,0.0,0.0,0.0,0.0
8961464,-0.00176532,0.0104901,5.56791e-06,0.0,0.0,0.0,0.0
8993545,-0.00125116,0.0102907,7.533e-06,0.0,0.0,0.0,0.0
9025449,0.000720767,0.00994034,0.00136582,0.0,0.0,0.0,0.0
9057517,0.000317893,0.0118077,0.000238212,0.0,0.0,0.0,0.0
9089461,0.000563944,0.00976766,-0.00185967,0.0,0.0,0.0,0.0
9121478,0.000939712,0.00746384,-0.00209694,0.0,0.0,0.0,0.0
9153406,0.00128288,0.00895178,-0.000193379,0.0,0.0,0.0,0.0
9185408,0.000705182,0.00976964,-0.000982029,0.0,0.0,0.0,0.0
9213419,0.00101533,0.00894978,-0.000506556,0.0,0.0,0.0,0.0
9245464,0.00247063,0.00992111,0.00102241,0.0,0.0,0.0,0.0
9277499,-0.000264838,0.008941,0.000591302,0.0,0.0,0.0,0.0
9309543,0.000207428,0.00860325,-0.000720979,0.0,0.0,0.0,0.0
9341459,0.0030673,0.00963343,0.000321739,0.0,0.0,0.0,0.0
9373462,0.0017359,0.00924404,-0.000190791,0.0,0.0,0.0,0.0
9405457,0.000826729,0.00965116,0.00074896,0.0,0.0,0.0,0.0
9437468,0.00162187,0.00958891,-0.00137368,0.0,0.0,0.0,0.0
9465458,0.00166243,0.00930199,0.00114753,0.0,0.0,0.0,0.0
9497557,0.00153149,0.00952165,-0.00156417,0.0,0.0,0.0,0.0
9529442,4.53382e-05,0.0100163,-0.0004571,0.0,0.0,0.0,0.0
9561489,-0.00137138,0.00955362,-0.00107786,0.0,0.0,0.0,0.0
9593477,-0.00121313,0.00952072,-0.00065055,0.0,0.0,0.0,0.0
9625537,-0.000721192,0.0105721,-0.000533129,0.0,0.0,0.0,0.0
9657467,0.000614,0.00778427,-0.00129843,0.0,0.0,0.0,0.0
9689453,0.00136452,0.00870255,0.000338756,0.0,0.0,0.0,0.0
9721480,-0.000238076,0.00864888,-0.000222434,0.0,0.0,0.0,0.0
9753478,-0.000542533,0.00765848,-0.00179423,0.0,0.0,0.0,0.0
9785455,-0.00146313,0.00831729,0.000152573,0.0,0.0,0.0,0.0
9817476,0.000162221,0.00963166,0.000173649,0.0,0.0,0.0,0.0
9849503,-0.000911507,0.0101665,0.00335977,0.0,0.0,0.0,0.0
9881441,0.00213304,0.00993318,-0.00163799,0.0,0.0,0.0,0.0
9913446,-0.000512877,0.00728354,-0.000893959,0.0,0.0,0.0,0.0
9941402,0.00184621,0.0075587,-0.000417882,0.0,0.0,0.0,0.0
9973418,0.000702207,0.00941378,-0.000477038,0.0,0.0,0.0,0.0
10005404,0.00252022,0.00947098,-0.00207618,0.0,0.0,0.0,0.0
10037481,-0.00112554,0.00839686,0.000358323,0.0,0.0,0.0,0.0
10069484,0.00151853,0.00717655,0.00119725,0.0,0.0,0.0,0.0
10101486,0.00172548,0.00779867,0.000822237,0.0,0.0,0.0,0.0
10133460,0.00283979,0.00563494,0.000474712,0.0,0.0,0.0,0.0
10165528,7.85454e-05,0.00916064,0.00138889,0.0,0.0,0.0,0.0
10193454,0.000897944,0.00764685,0.001149,0.0,0.0,0.0,0.0
10225483,0.000506174,0.00604835,0.000728266,0.0,0.0,0.0,0.0
10258274,0.000871344,0.00786072,0.00158469,0.0,0.0,0.0,0.0
10290284,-0.000418149,0.0090808,-0.00178312,0.0,0.0,0.0,0.0
10323062,0.00103966,0.00760588,0.00163074,0.0,0.0,0.0,0.0
10355839,-0.000118417,0.00736823,-7.99554e-05,0.0,0.0,0.0,0.0
10387910,0.00168621,0.00722811,-0.00129551,0.0,0.0,0.0,0.0
10419926,0.000563123,0.00749874,-0.000541008,0.0,0.0,0.0,0.0
10451899,-0.00101492,0.00662499,0.00219823,0.0,0.0,0.0,0.0
10483837,0.00197194,0.00827799,0.00105833,0.0,0.0,0.0,0.0
10511874,0.000870045,0.00819432,-0.00163194,0.0,0.0,0.0,0.0
10543835,0.000639074,0.00745721,1.56942e-05,0.0,0.0,0.0,0.0
10575896,0.000921476,0.00689897,0.000644172,0.0,0.0,0.0,0.0
10607864,-1.05379e-06,0.00724135,-6.81295e-05,0.0,0.0,0.0,0.0
10639915,-8.70181e-06,0.00654253,-0.000739468,0.0,0.0,0.0,0.0
10671832,0.000191793,0.00659253,-0.00227473,0.0,0.0,0.0,0.0
10703889,0.00141892,0.00626377,0.00153503,0.0,0.0,0.0,0.0
10735879,-0.000339327,0.00617098,-0.000941894,0.0,0.0,0.0,0.0
10763910,0.00203035,0.00685652,-0.000687035,0.0,0.0,0.0,0.0
10795847,0.00155895,0.00422193,-0.000167096,0.0,0.0,0.0,0.0
10827866,0.000125094,0.0072367,-7.09207e-05,0.0,0.0,0.0,0.0
10859884,-0.00163217,0.00752496,0.000448035,0.0,0.0,0.0,0.0
10891924,0.00127595,0.00700929,-0.000275228,0.0,0.0,0.0,0.0
10923832,0.000644312,0.00805349,-4.91543e-05,0.0,0.0,0.0,0.0
10955931,0.00094304,0.00488413,-0.000310311,0.0,0.0,0.0,0.0
10987859,-0.00255103,0.00712852,0.000612951,0.0,0.0,0.0,0.0
11019952,0.000501153,0.0050216,-0.000579076,0.0,0.0,0.0,0.0
11051801,-7.61119e-05,0.00768004,-0.000712956,0.0,0.0,0.0,0.0
11083804,-0.000976245,0.00693553,0.000867822,0.0,0.0,0.0,0.0
11115820,-0.000341418,0.00767305,0.00206807,0.0,0.0,0.0,0.0
11147869,0.000966798,0.00704334,-0.000237623,0.0,0.0,0.0,0.0
11179941,-7.20778e-05,0.00480471,0.000396304,0.0,0.0,0.0,0.0
11211833,0.000938175,0.00524539,-0.0011147,0.0,0.0,0.0,0.0
11243867,0.00055465,0.00836547,-0.000524197,0.0,0.0,0.0,0.0
11275874,-0.00149222,0.00495445,0.00110162,0.0,0.0,0.0,0.0
11307926,0.00125348,0.00643752,-0.000862597,0.0,0.0,0.0,0.0
11339878,0.00345793,0.0062607,-0.00155644,0.0,0.0,0.0,0.0
11371868,0.00410991,0.00630459,0.000408704,0.0,0.0,0.0,0.0
11403880,0.000138591,0.00610258,-0.000714561,0.0,0.0,0.0,0.0
11435929,-0.00122498,0.00521584,-0.00238304,0.0,0.0,0.0,0.0
11463876,0.00225958,0.00597773,0.000639718,0.0,0.0,0.0,0.0
11495932,0.000564458,0.00589901,0.000485268,0.0,0.0,0.0,0.0
11527836,0.00219285,0.00526477,-0.000946486,0.0,0.0,0.0,0.0
11560667,0.00115844,0.00626199,-0.000947279,0.0,0.0,0.0,0.0
11592677,0.000970741,0.00518365,-0.0016316,0.0,0.0,0.0,0.0
11621435,-0.00489359,0.00595573,-0.000301286,0.0,0.0,0.0,0.0
11653469,-0.00540806,0.00516712,0.000670952,0.0,0.0,0.0,0.0
11686272,0.00438966,0.00523439,-0.0022376,0.0,0.0,0.0,0.0
11718301,0.00189661,0.00645006,0.000201498,0.0,0.0,0.0,0.0
11750234,-0.00537183,0.00558004,0.00160779,0.0,0.0,0.0,0.0
11782268,-0.0059022,0.00485723,0.000628156,0.0,0.0,0.0,0.0
11814269,0.000738136,0.00524546,-0.000107098,0.0,0.0,0.0,0.0
11846314,0.00118504,0.00792962,-0.000547098,0.0,0.0,0.0,0.0
11878237,0.00193349,0.0052666,-0.000338128,0.0,0.0,0.0,0.0
11911024,-1.76337e-05,0.00478089,0.000308666,0.0,0.0,0.0,0.0
11943133,-0.00116904,0.00531961,0.00018162,0.0,0.0,0.0,0.0
11975040,-5.43771e-05,0.00751439,-0.000251881,0.0,0.0,0.0,0.0
12007044,-0.00176368,0.00634649,-0.000778832,0.0,0.0,0.0,0.0
12039010,0.000131079,0.0070442,-0.000216016,0.0,0.0,0.0,0.0
12071077,-0.000535347,0.00674038,0.00117006,0.0,0.0,0.0,0.0
12103052,-0.00157738,0.00420216,0.000942942,0.0,0.0,0.0,0.0
12135073,-0.00122719,0.00359077,0.000629995,0.0,0.0,0.0,0.0
12167034,-0.00100288,0.00592344,-0.000874585,0.0,0.0,0.0,0.0
12199040,0.00134881,0.0070884,-0.00023525,0.0,0.0,0.0,0.0
12231103,0.00223707,0.00435985,-0.0019038,0.0,0.0,0.0,0.0
12263026,-3.34936e-05,0.0052081,0.00209232,0.0,0.0,0.0,0.0
12295027,6.29211e-05,0.00489391,-0.00170102,0.0,0.0,0.0,0.0
12327025,-0.00161471,0.00587792,0.000230578,0.0,0.0,0.0,0.0
12363063,0.00172554,0.0040817,0.00167668,0.0,0.0,0.0,0.0
12395049,0.00069488,0.00533275,-0.000259222,0.0,0.0,0.0,0.0
12423035,0.00072611,0.00571314,-0.000138192,0.0,0.0,0.0,0.0
12455047,0.0009257,0.00496005,-0.00114769,0.0,0.0,0.0,0.0
12487081,0.00122975,0.00512082,-0.000366204,0.0,0.0,0.0,0.0
12519065,0.000573591,0.00533135,-0.00146287,0.0,0.0,0.0,0.0
12552646,-0.000907558,0.00362947,6.53402e-05,0.0,0.0,0.0,0.0
12581515,0.00153497,0.00570503,0.00225493,0.0,0.0,0.0,0.0
12613469,-0.00026068,0.00542804,0.000775096,0.0,0.0,0.0,0.0
12645478,0.000602259,0.00405509,-0.00108667,0.0,0.0,0.0,0.0
12677479,-0.00150002,0.00523389,-0.00116431,0.0,0.0,0.0,0.0
12709512,-0.00106235,0.0048048,0.00129496,0.0,0.0,0.0,0.0
12741461,0.00103831,0.00441035,0.00140137,0.0,0.0,0.0,0.0
12769500,-0.0017186,0.00413102,0.0016889,0.0,0.0,0.0,0.0
12801465,0.00054034,0.00333818,-0.000460171,0.0,0.0,0.0,0.0
12833457,-0.000192104,0.00536461,-0.00099136,0.0,0.0,0.0,0.0
12865436,0.000764027,0.00508118,-0.000173078,0.0,0.0,0.0,0.0
12897533,0.000536486,0.00365788,-0.0015379,0.0,0.0,0.0,0.0
12929500,0.00269927,0.00466921,-0.00123287,0.0,0.0,0.0,0.0
12961474,0.000278324,0.00385365,-0.00149846,0.0,0.0,0.0,0.0
12993453,-0.000734156,0.00351132,0.00110569,0.0,0.0,0.0,0.0
13025511,-0.000951801,0.00569439,0.00114005,0.0,0.0,0.0,0.0
13057487,0.00262514,0.00455465,0.000381332,0.0,0.0,0.0,0.0
13090236,0.00192182,0.00573388,0.000325559,0.0,0.0,0.0,0.0
13122266,0.00285698,0.00532773,-0.000151752,0.0,0.0,0.0,0.0
13154285,0.00153321,0.00476977,0.00153992,0.0,0.0,0.0,0.0
13186324,-0.000642318,0.00485535,-0.000190013,0.0,0.0,0.0,0.0
13215846,0.00348197,0.00557719,-0.00210767,0.0,0.0,0.0,0.0
13247888,-0.00221084,0.00415083,0.00137758,0.0,0.0,0.0,0.0
13279964,-0.00107183,0.00369611,0.00119762,0.0,0.0,0.0,0.0
13311840,-0.000193772,0.00512595,-0.00179536,0.0,0.0,0.0,0.0
13339909,-0.00074788,0.00544333,-0.00136937,0.0,0.0,0.0,0.0
13371820,0.00058287,0.00350471,0.00215987,0.0,0.0,0.0,0.0
13403805,0.000828343,0.00466785,0.000823996,0.0,0.0,0.0,0.0
13435833,-0.000817186,0.00437628,0.00102935,0.0,0.0,0.0,0.0
13467841,-0.000289605,0.00474563,-0.0010469,0.0,0.0,0.0,0.0
13499847,-0.000739736,0.00432852,0.00116239,0.0,0.0,0.0,0.0
13531828,0.00233455,0.00434949,-0.000256641,0.0,0.0,0.0,0.0
13563864,-0.00040413,0.00610744,-0.00129326,0.0,0.0,0.0,0.0
13595918,6.41928e-05,0.00512993,-0.00213503,0.0,0.0,0.0,0.0
13627830,-0.00104298,0.00540424,-0.00021301,0.0,0.0,0.0,0.0
13659901,-0.000962529,0.00289311,-0.000363378,0.0,0.0,0.0,0.0
13691881,0.000156569,0.0041327,0.00056927,0.0,0.0,0.0,0.0
13723915,0.000923109,0.00508962,-0.00118271,0.0,0.0,0.0,0.0
13756644,-0.000824102,0.00383368,0.000132916,0.0,0.0,0.0,0.0
13784702,0.000580565,0.00509254,-0.000828409,0.0,0.0,0.0,0.0
13816640,-0.00191988,0.00519865,-4.23416e-05,0.0,0.0,0.0,0.0
13848666,0.000872559,0.00432507,0.00118531,0.0,0.0,0.0,0.0
13880675,0.00143879,0.00304832,0.00171186,0.0,0.0,0.0,0.0
13912726,0.000936829,0.00277137,-9.32314e-05,0.0,0.0,0.0,0.0
13944642,-0.00246524,0.00299618,-0.000160583,0.0,0.0,0.0,0.0
13976644,0.000467169,0.00230629,0.00078378,0.0,0.0,0.0,0.0
14008649,0.00120345,0.0044495,0.000986526,0.0,0.0,0.0,0.0
14036649,-0.000162364,0.00249941,0.000721384,0.0,0.0,0.0,0.0
14068650,-0.000426249,0.00415228,-0.000329241,0.0,0.0,0.0,0.0
14100677,0.00204668,0.00400909,-0.000373616,0.0,0.0,0.0,0.0
14132613,-0.000727186,0.00508239,-0.000155078,0.0,0.0,0.0,0.0
14164647,0.000340838,0.00408958,0.000267748,0.0,0.0,0.0,0.0
14196660,0.0018192,0.0038478,-0.00156877,0.0,0.0,0.0,0.0
14228674,-0.00240762,0.00362737,0.000370137,0.0,0.0,0.0,0.0
14260654,0.00165745,0.00300192,-0.000556815,0.0,0.0,0.0,0.0
14292634,-0.00133033,0.00364716,0.000706369,0.0,0.0,0.0,0.0
14324678,-0.00146137,0.00391617,-0.00070594,0.0,0.0,0.0,0.0
14356665,0.00179047,0.00342312,-0.00251212,0.0,0.0,0.0,0.0
14388649,0.000579862,0.00391068,-0.00109654,0.0,0.0,0.0,0.0
14420649,0.00135949,0.00318833,-0.000268471,0.0,0.0,0.0,0.0
14452691,-0.000749003,0.00196702,0.000305396,0.0,0.0,0.0,0.0
14484691,-0.00196532,0.0027391,0.000439473,0.0,0.0,0.0,0.0
14516685,-0.00116847,0.00274188,-0.00044822,0.0,0.0,0.0,0.0
14548632,0.00208801,0.00176361,0.000709209,0.0,0.0,0.0,0.0
14580704,-0.00211918,0.00370933,-0.00170867,0.0,0.0,0.0,0.0
14612687,-0.000336375,0.00215307,-0.000249401,0.0,0.0,0.0,0.0
14644678,-0.00122805,0.00308445,-0.00101849,0.0,0.0,0.0,0.0
14676636,-0.00212749,0.00214307,0.00236207,0.0,0.0,0.0,0.0
14708730,-0.00143215,0.00414779,0.000736387,0.0,0.0,0.0,0.0
14736646,-0.000752361,0.000735372,-0.000714298,0.0,0.0,0.0,0.0
14768706,-0.000537187,0.00376431,-0.000789866,0.0,0.0,0.0,0.0
14800638,-0.000663019,0.0027621,0.001951,0.0,0.0,0.0,0.0
14832647,-0.000186969,0.00224334,0.00241254,0.0,0.0,0.0,0.0
14864625,-0.000361648,0.00284406,0.000568182,0.0,0.0,0.0,0.0
14896686,0.00137382,0.00266707,-0.000750719,0.0,0.0,0.0,0.0
14928659,-0.000869362,0.00222549,0.00180269,0.0,0.0,0.0,0.0
14960683,-3.37455e-05,0.00127886,0.0011246,0.0,0.0,0.0,0.0
14988687,-0.000810854,0.00169259,-0.00137426,0.0,0.0,0.0,0.0
15020680,0.000852601,0.00175587,-0.00149813,0.0,0.0,0.0,0.0
15052632,0.000540161,0.00288276,0.000554833,0.0,0.0,0.0,0.0
15084715,-0.000677997,0.00294762,-0.00051906,0.0,0.0,0.0,0.0
15116685,-0.00103462,0.00336969,-0.00150805,0.0,0.0,0.0,0.0
15146289,0.000896295,0.00220158,-0.00107723,0.0,0.0,0.0,0.0
15178231,-0.000219012,0.00402994,0.000295218,0.0,0.0,0.0,0.0
15210237,-0.00187415,0.00263771,-0.000901968,0.0,0.0,0.0,0.0
15242237,5.00898e-05,0.00395148,-0.00021948,0.0,0.0,0.0,0.0
15274232,0.00160331,0.00318094,0.00194393,0.0,0.0,0.0,0.0
15307135,-0.000162907,0.00312265,-0.00118851,0.0,0.0,0.0,0.0
15335045,0.000790079,0.000777978,1.61538e-05,0.0,0.0,0.0,0.0
15367116,0.000551133,0.00270927,-0.000261826,0.0,0.0,0.0,0.0
15399025,0.000992587,0.000992422,-0.000212375,0.0,0.0,0.0,0.0
15431076,0.000516908,0.00123616,0.000399318,0.0,0.0,0.0,0.0
15463022,0.00210737,0.0013729,-0.000367713,0.0,0.0,0.0,0.0
15495863,0.00134909,0.00142369,-0.000320982,0.0,0.0,0.0,0.0
15527919,0.00225591,0.00381658,-0.000464093,0.0,0.0,0.0,0.0
15559873,0.00173349,0.00293517,0.000192253,0.0,0.0,0.0,0.0
15591860,0.00105531,0.000880862,0.00167677,0.0,0.0,0.0,0.0
15623852,-0.000444718,0.00157956,0.000177333,0.0,0.0,0.0,0.0
15655897,0.00205454,0.00132576,-0.000880514,0.0,0.0,0.0,0.0
15687834,0.000376667,0.00282718,-0.000149127,0.0,0.0,0.0,0.0
15719914,0.000612581,0.0029814,-0.000266307,0.0,0.0,0.0,0.0
15749470,0.00207129,0.00265158,-0.00104696,0.0,0.0,0.0,0.0
15781435,0.000292764,0.000775239,-0.00287165,0.0,0.0,0.0,0.0
15813465,-0.00022741,0.00119763,-0.000477505,0.0,0.0,0.0,0.0
15845473,0.000736086,0.00258093,-0.000398466,0.0,0.0,0.0,0.0
15877564,-0.00150834,0.0027498,-0.000798386,0.0,0.0,0.0,0.0
15909434,-0.00302672,0.00165419,-0.001119,0.0,0.0,0.0,0.0
15937516,-0.000763815,0.00191168,0.0015575,0.0,0.0,0.0,0.0
15969435,-0.00158435,-0.000504777,-4.76586e-05,0.0,0.0,0.0,0.0
16001462,0.000304202,0.0016625,0.00113261,0.0,0.0,0.0,0.0
16033476,0.00165123,0.00202728,7.99876e-05,0.0,0.0,0.0,0.0
16065482,0.00346735,0.00180012,0.000238741,0.0,0.0,0.0,0.0
16097464,-0.000762885,0.000922043,0.00104576,0.0,0.0,0.0,0.0
16129483,0.00213501,0.00124634,-0.00196791,0.0,0.0,0.0,0.0
16157475,-0.000552857,0.0020692,0.000163826,0.0,0.0,0.0,0.0
16189464,0.00037901,0.00268652,-0.000345594,0.0,0.0,0.0,0.0
16221450,-0.000775934,0.00232025,0.00107494,0.0,0.0,0.0,0.0
16253414,0.00170272,0.0016424,0.00116115,0.0,0.0,0.0,0.0
16285401,0.00294782,-0.000498059,0.000969431,0.0,0.0,0.0,0.0
16317471,-0.00168759,0.00148126,-0.00193931,0.0,0.0,0.0,0.0
16349480,0.000805185,0.0026669,0.00108964,0.0,0.0,0.0,0.0
16381527,0.000895323,0.00363618,0.000495917,0.0,0.0,0.0,0.0
16409481,4.88223e-05,0.00245441,-0.000292923,0.0,0.0,0.0,0.0
16441459,-0.000737817,0.00319607,0.000871657,0.0,0.0,0.0,0.0
16473442,0.000240543,0.000978115,4.92935e-05,0.0,0.0,0.0,0.0
16505496,0.000594706,0.00253382,0.000646918,0.0,0.0,0.0,0.0
16537518,-0.000977135,0.000250007,-0.00291551,0.0,0.0,0.0,0.0
16569438,-0.000852685,0.00172544,0.000267172,0.0,0.0,0.0,0.0
16601467,-0.000702577,0.0029624,-0.000231023,0.0,0.0,0.0,0.0
16633496,4.59626e-05,0.00200064,9.97866e-06,0.0,0.0,0.0,0.0
16665483,0.00112479,-0.00012041,-9.92119e-05,0.0,0.0,0.0,0.0
16697550,0.000214043,0.00189468,-0.000978356,0.0,0.0,0.0,0.0
16729443,0.000672763,0.00344412,-8.74847e-05,0.0,0.0,0.0,0.0
16761492,0.000899664,0.00183811,-0.000915347,0.0,0.0,0.0,0.0
16793433,-0.00249903,0.00159569,-0.000803365,0.0,0.0,0.0,0.0
16825514,-0.00220987,0.000538471,-0.00302173,0.0,0.0,0.0,0.0
16857471,0.000503206,3.12717e-05,-0.000981991,0.0,0.0,0.0,0.0
16889500,0.000429027,0.00155965,-0.00154086,0.0,0.0,0.0,0.0
16921478,-5.12786e-06,0.000639969,0.000608499,0.0,0.0,0.0,0.0
16953522,-0.000242617,0.00375363,-0.000971882,0.0,0.0,0.0,0.0
16985401,-0.00167861,0.00447094,0.00124592,0.0,0.0,0.0,0.0
17017457,-0.000907893,0.000716564,-0.00115512,0.0,0.0,0.0,0.0
17049464,0.000991574,0.00123616,0.000625455,0.0,0.0,0.0,0.0
17081401,0.00149569,0.0008483,-0.000736525,0.0,0.0,0.0,0.0
17114292,0.000105545,0.000384039,0.00225638,0.0,0.0,0.0,0.0
17146240,0.00173646,0.00291124,-0.00071496,0.0,0.0,0.0,0.0
17175864,-0.000894327,0.000822536,2.16137e-05,0.0,0.0,0.0,0.0
17207888,0.00145494,0.00086824,-0.0011497,0.0,0.0,0.0,0.0
17239882,0.00308539,0.000305949,-0.00219657,0.0,0.0,0.0,0.0
17271901,0.0018779,0.000313539,0.00161771,0.0,0.0,0.0,0.0
17303846,0.00124365,0.000403171,0.000430862,0.0,0.0,0.0,0.0
17335856,-0.000473547,0.00137626,-0.000646635,0.0,0.0,0.0,0.0
17367833,-0.00205416,0.000419569,-8.9251e-05,0.0,0.0,0.0,0.0
17399918,-0.000941178,0.00181707,-0.000381507,0.0,0.0,0.0,0.0
17427801,-0.000569589,0.000740395,-0.00166327,0.0,0.0,0.0,0.0
17459977,-0.000997563,0.000757018,0.000989972,0.0,0.0,0.0,0.0
17491828,0.000806065,0.00318549,0.00077622,0.0,0.0,0.0,0.0
17524687,0.000517542,0.00149978,0.00117088,0.0,0.0,0.0,0.0
17556641,-0.000139009,0.000132324,-0.00121325,0.0,0.0,0.0,0.0
17588662,0.000360444,-0.000324454,-0.000556097,0.0,0.0,0.0,0.0
17620671,0.000401898,0.00110697,-0.00052016,0.0,0.0,0.0,0.0
17652682,0.00064067,0.000989212,0.0012009,0.0,0.0,0.0,0.0
17684635,0.00159031,0.000885819,8.5975e-06,0.0,0.0,0.0,0.0
17716639,-0.000525531,0.00261336,-0.000923579,0.0,0.0,0.0,0.0
17748688,0.000266898,0.00066707,-0.00254482,0.0,0.0,0.0,0.0
17781400,0.000963277,0.00175624,9.67872e-05,0.0,0.0,0.0,0.0
17815055,0.00140381,0.00205763,-9.44887e-05,0.0,0.0,0.0,0.0
17847075,0.00122653,0.00195073,0.00185168,0.0,0.0,0.0,0.0
17879032,-0.000766925,-0.000357626,-0.00135112,0.0,0.0,0.0,0.0
17911119,-0.000456202,-0.000368557,-0.00109757,0.0,0.0,0.0,0.0
17943069,-0.000833577,0.00123439,-5.86049e-05,0.0,0.0,0.0,0.0
17975832,-0.00183305,0.000176792,-0.00183628,0.0,0.0,0.0,0.0
18007880,0.000462005,0.00218182,-0.00108021,0.0,0.0,0.0,0.0
18039883,0.000116338,0.00153857,-0.00111712,0.0,0.0,0.0,0.0
18071912,0.000923231,0.000523452,-0.000868097,0.0,0.0,0.0,0.0
18099879,0.00144559,-0.00088555,0.000687857,0.0,0.0,0.0,0.0
18132700,0.001605,0.00410533,-0.000123823,0.0,0.0,0.0,0.0
18164642,0.0022775,0.000464051,-0.00189642,0.0,0.0,0.0,0.0
18196665,0.00148725,0.00123836,0.000837171,0.0,0.0,0.0,0.0
18228642,0.000158403,0.000384139,0.00117903,0.0,0.0,0.0,0.0
18260659,0.00167937,0.000530305,6.06477e-06,0.0,0.0,0.0,0.0
18290266,0.00118927,0.00261064,-0.00110727,0.0,0.0,0.0,0.0
18322249,-0.000504761,0.00171288,0.000285697,0.0,0.0,0.0,0.0
18354317,0.0017979,0.000725169,0.000226506,0.0,0.0,0.0,0.0
18386207,-0.00110771,0.00188655,-0.000150719,0.0,0.0,0.0,0.0
18418256,0.000768309,0.00325529,-0.00174258,0.0,0.0,0.0,0.0
18450227,0.000767437,0.00119546,-0.000253322,0.0,0.0,0.0,0.0
18478255,0.000684376,0.00160932,-0.00186948,0.0,0.0,0.0,0.0
18510250,0.000553235,0.0010206,-0.00139577,0.0,0.0,0.0,0.0
18542295,0.00127541,0.00159082,-0.000288507,0.0,0.0,0.0,0.0
18574227,0.00274804,0.00213033,0.000782377,0.0,0.0,0.0,0.0
18606272,0.000373141,0.00216164,-0.00110527,0.0,0.0,0.0,0.0
18638254,0.00032032,0.000454801,-9.14475e-05,0.0,0.0,0.0,0.0
18670283,0.000357718,0.00269339,-0.00307446,0.0,0.0,0.0,0.0
18702242,0.00023096,0.00134328,-0.000642878,0.0,0.0,0.0,0.0
18730303,0.00100415,0.00229637,0.00100316,0.0,0.0,0.0,0.0
18762258,-0.00134754,0.00105033,-0.00209008,0.0,0.0,0.0,0.0
18794266,0.000516014,-0.000626371,-0.00149939,0.0,0.0,0.0,0.0
18826285,-0.00104008,-0.000928566,0.00114561,0.0,0.0,0.0,0.0
18858303,0.000266815,0.000391506,0.000315857,0.0,0.0,0.0,0.0
18890231,0.000786141,0.00262986,-0.000184915,0.0,0.0,0.0,0.0
18922274,0.000460144,0.004069,-5.04754e-05,0.0,0.0,0.0,0.0
18954280,-0.000356793,0.00102407,0.00140839,0.0,0.0,0.0,0.0
18986329,-0.000692872,0.000562029,0.000299073,0.0,0.0,0.0,0.0
19018228,-0.00157466,0.000785347,-0.000499913,0.0,0.0,0.0,0.0
19050238,0.00150863,0.00191578,-0.00111607,0.0,0.0,0.0,0.0
19082284,-0.00143363,0.00238245,-0.00159652,0.0,0.0,0.0,0.0
19114271,-0.0005492,0.00261038,0.000460316,0.0,0.0,0.0,0.0
19146213,0.000701995,0.000714059,-0.000837611,0.0,0.0,0.0,0.0
19178218,-0.00157978,0.00284493,-0.00346846,0.0,0.0,0.0,0.0
19206213,0.00166122,0.000515084,-0.000558458,0.0,0.0,0.0,0.0
19238207,-0.00165452,0.00122288,0.00026611,0.0,0.0,0.0,0.0
19270231,-0.00022989,0.00266751,-0.00112683,0.0,0.0,0.0,0.0
19302265,0.000502593,0.000591183,-7.74399e-05,0.0,0.0,0.0,0.0
19335073,-0.001286,-0.000128094,-0.00169177,0.0,0.0,0.0,0.0
19367042,-0.00017087,0.000238052,0.000157943,0.0,0.0,0.0,0.0
19395047,-0.000612849,0.000934341,0.00125478,0.0,0.0,0.0,0.0
19427025,-0.000593331,0.00260802,0.000121151,0.0,0.0,0.0,0.0
19459091,-3.35556e-06,0.0024787,0.00095998,0.0,0.0,0.0,0.0
19491059,9.97861e-05,0.00168003,0.00089877,0.0,0.0,0.0,0.0
19523067,-0.00066684,0.00130638,0.000866559,0.0,0.0,0.0,0.0
19555038,-0.000618725,0.00150974,-0.000431145,0.0,0.0,0.0,0.0
19587103,-0.000698638,-0.000939123,8.26833e-05,0.0,0.0,0.0,0.0
19619075,-0.00111087,0.00100786,-0.000619593,0.0,0.0,0.0,0.0
19651068,-0.00044961,0.00120136,-0.000965412,0.0,0.0,0.0,0.0
19683032,0.00189961,0.000223494,-0.00125599,0.0,0.0,0.0,0.0
19715119,0.000268886,0.0027332,-0.000275688,0.0,0.0,0.0,0.0
19747076,-0.000254361,0.00235867,0.00177733,0.0,0.0,0.0,0.0
19779046,-0.000603696,0.00154631,-0.001035,0.0,0.0,0.0,0.0
19811001,-0.00053462,0.00197723,-0.00189098,0.0,0.0,0.0,0.0
19839974,-6.23632e-05,0.00235905,0.000867569,0.0,0.0,0.0,0.0
19872669,0.000793757,0.00258709,-0.00172708,0.0,0.0,0.0,0.0
19904652,0.000113752,0.00199452,0.000756195,0.0,0.0,0.0,0.0
19937488,-0.00127869,0.00244846,-0.00180537,0.0,0.0,0.0,0.0
19965440,0.000382131,0.00196814,0.000535418,0.0,0.0,0.0,0.0
19997540,0.000894796,0.00161718,0.000977239,0.0,0.0,0.0,0.0
20029469,0.000394511,0.00128456,-0.0011506,0.0,0.0,0.0,0.0
20061476,0.000110896,0.000718733,-0.00182766,0.0,0.0,0.0,0.0
20093415,-0.00094501,0.00207171,0.000360262,0.0,0.0,0.0,0.0
20125436,-0.00129229,0.00369693,0.000899791,0.0,0.0,0.0,0.0
20158319,0.00095572,0.00201388,1.45254e-05,0.0,0.0,0.0,0.0
20186270,0.00190439,0.00100155,-0.0012696,0.0,0.0,0.0,0.0
20219905,-0.000659691,-0.00013227,0.000274775,0.0,0.0,0.0,0.0
20251862,-0.000107673,0.00137937,-0.001686,0.0,0.0,0.0,0.0
20283842,-0.000197908,0.000316215,0.00119582,0.0,0.0,0.0,0.0
20311861,8.66656e-05,0.00221127,0.000842533,0.0,0.0,0.0,0.0
20343844,-0.000232756,0.000977042,0.000288525,0.0,0.0,0.0,0.0
20375833,-0.000873478,0.00357152,-0.00144242,0.0,0.0,0.0,0.0
20407829,-0.000605064,0.00120829,0.000462614,0.0,0.0,0.0,0.0
20439894,0.00112006,4.93936e-05,0.000666212,0.0,0.0,0.0,0.0
20471805,-0.00208633,0.00206219,-1.4002e-05,0.0,0.0,0.0,0.0
20503824,0.000516556,0.000929171,0.00162221,0.0,0.0,0.0,0.0
20535845,-0.00211812,0.00164574,0.00304489,0.0,0.0,0.0,0.0
20563835,0.00227021,0.00288193,-0.000843753,0.0,0.0,0.0,0.0
20595926,-0.00121524,0.00274181,0.000124057,0.0,0.0,0.0,0.0
20627871,-0.000913578,0.000405894,0.00280502,0.0,0.0,0.0,0.0
20659869,-0.00128555,0.00286191,-0.00109489,0.0,0.0,0.0,0.0
20691829,0.00025874,0.00196716,-0.00135062,0.0,0.0,0.0,0.0
20723876,0.00245622,0.0032624,-0.000965335,0.0,0.0,0.0,0.0
20755865,0.00250879,0.00182435,0.000907829,0.0,0.0,0.0,0.0
20787825,-0.00044227,0.00187922,-0.00200258,0.0,0.0,0.0,0.0
20819913,0.000931422,0.00037394,-0.00315234,0.0,0.0,0.0,0.0
20847843,-0.000275921,0.000756606,0.00159276,0.0,0.0,0.0,0.0
20879909,-0.00107865,0.00205884,-0.00245901,0.0,0.0,0.0,0.0
20911870,0.000431916,0.00365081,0.00130086,0.0,0.0,0.0,0.0
20943834,-0.000168165,0.0028848,0.00106871,0.0,0.0,0.0,0.0
20975863,0.00102203,0.00127655,0.00150934,0.0,0.0,0.0,0.0
21007872,-0.000897984,0.00441148,0.00175243,0.0,0.0,0.0,0.0
21039928,0.00177779,0.00417122,0.0013194,0.0,0.0,0.0,0.0
21071943,0.00161729,0.00371029,-0.000152808,0.0,0.0,0.0,0.0
21103842,-0.00155956,0.00142495,-0.0002292,0.0,0.0,0.0,0.0
21135864,-0.000603696,0.00167951,-0.000231738,0.0,0.0,0.0,0.0
21167847,-0.001703,0.00214868,0.000408186,0.0,0.0,0.0,0.0
21199952,-0.00257449,0.00230684,-0.000422159,0.0,0.0,0.0,0.0
21231810,0.00238462,0.000866805,0.0026598,0.0,0.0,0.0,0.0
21263858,0.00123732,0.00179415,-0.000284155,0.0,0.0,0.0,0.0
21291807,0.000211765,0.00160894,0.000547945,0.0,0.0,0.0,0.0
21324686,0.000480055,0.00227095,-0.00182175,0.0,0.0,0.0,0.0
21356688,-0.0019478,0.00112362,-0.000723579,0.0,0.0,0.0,0.0
21388728,-9.06424e-05,0.00240098,0.00133831,0.0,0.0,0.0,0.0
21420636,-0.000602664,0.00134841,-5.1301e-05,0.0,0.0,0.0,0.0
21452634,-0.00190856,0.00160471,-0.00130146,0.0,0.0,0.0,0.0
21484681,-0.002501,0.00340569,-0.000138272,0.0,0.0,0.0,0.0
21512691,0.000750588,0.00110462,0.0027158,0.0,0.0,0.0,0.0
21544666,-0.00148787,0.00152771,-0.000195771,0.0,0.0,0.0,0.0
21578238,0.00130329,0.00264571,-0.00169289,0.0,0.0,0.0,0.0
21610245,-0.000183693,0.00308812,-0.0013174,0.0,0.0,0.0,0.0
21642245,-0.00103312,0.000946957,0.00172284,0.0,0.0,0.0,0.0
21670272,0.000681612,0.00100561,-7.30283e-05,0.0,0.0,0.0,0.0
21702245,-0.00241012,0.000370146,0.000315972,0.0,0.0,0.0,0.0
21734312,-0.000724918,0.00186921,0.00147213,0.0,0.0,0.0,0.0
21766279,0.000970199,0.00303163,-0.000257963,0.0,0.0,0.0,0.0
21798321,0.000300901,0.00186058,-0.000430524,0.0,0.0,0.0,0.0
21830244,0.000747389,0.000422531,-0.000795096,0.0,0.0,0.0,0.0
21862322,-0.000416934,-1.69235e-05,0.00225732,0.0,0.0,0.0,0.0
21894280,0.00146835,2.18507e-05,0.00096407,0.0,0.0,0.0,0.0
21922318,-0.000386115,0.00262162,-0.00110523,0.0,0.0,0.0,0.0
21954270,0.00053358,0.00321958,-0.0018233,0.0,0.0,0.0,0.0
21986268,0.000563695,0.000926448,0.00112161,0.0,0.0,0.0,0.0
22018228,0.00131846,0.00115643,0.00171458,0.0,0.0,0.0,0.0
22050303,0.000640901,0.000819488,-0.00202836,0.0,0.0,0.0,0.0
22082265,0.00134913,0.000981865,0.000440651,0.0,0.0,0.0,0.0
22114270,-0.000854822,0.00232142,-0.00012831,0.0,0.0,0.0,0.0
22146239,0.00142278,0.000778213,0.000496559,0.0,0.0,0.0,0.0
22174285,-0.000407593,0.00184532,-0.000234185,0.0,0.0,0.0,0.0
22206235,-0.0017501,0.00317607,0.00128744,0.0,0.0,0.0,0.0
22238323,0.00271644,0.000848524,-0.000732773,0.0,0.0,0.0,0.0
22271067,0.00091175,0.00157319,-9.59914e-05,0.0,0.0,0.0,0.0
22303036,0.00159892,0.00207896,0.000996538,0.0,0.0,0.0,0.0
22335058,-0.00178829,-0.000358312,-0.000723883,0.0,0.0,0.0,0.0
22363050,0.00144299,0.00274122,0.00137443,0.0,0.0,0.0,0.0
22395033,-0.000683465,0.00212349,-0.00047669,0.0,0.0,0.0,0.0
22427131,-3.13357e-05,0.00317019,-0.00119569,0.0,0.0,0.0,0.0
22459096,0.000398913,0.000136899,0.000458842,0.0,0.0,0.0,0.0
22491044,0.00101794,0.00161888,0.00190734,0.0,0.0,0.0,0.0
22523030,0.00116723,0.00287658,-0.000657686,0.0,0.0,0.0,0.0
22555069,0.000726588,0.00176161,-0.000596611,0.0,0.0,0.0,0.0
22587118,-0.000922995,0.0020214,0.00016185,0.0,0.0,0.0,0.0
22615123,-9.74829e-05,0.00248145,-0.00136571,0.0,0.0,0.0,0.0
22647074,0.00133937,0.00224754,-0.00288734,0.0,0.0,0.0,0.0
22679026,-0.000829656,0.00101177,-0.000489714,0.0,0.0,0.0,0.0
22711029,-0.00029747,0.000874422,0.0013463,0.0,0.0,0.0,0.0
22743077,0.00174335,-8.18251e-05,0.000172471,0.0,0.0,0.0,0.0
22775055,0.0014035,0.00237663,4.33293e-05,0.0,0.0,0.0,0.0
22807025,0.000849453,0.00133205,-0.00118745,0.0,0.0,0.0,0.0
22839075,0.00024136,0.00125354,-0.00177263,0.0,0.0,0.0,0.0
22867035,0.00114887,0.00148065,-0.00192769,0.0,0.0,0.0,0.0
22899005,0.00199309,-0.00039039,-0.00156713,0.0,0.0,0.0,0.0
22931027,0.00108986,0.00274321,-0.000395437,0.0,0.0,0.0,0.0
22963045,0.000996775,0.00216202,-0.00102768,0.0,0.0,0.0,0.0
22995005,0.00257361,0.00170927,0.000234278,0.0,0.0,0.0,0.0
23027005,-4.11491e-05,0.00115128,-0.000261136,0.0,0.0,0.0,0.0
23059089,-0.00167174,0.00245307,-0.000892876,0.0,0.0,0.0,0.0
23091113,-0.00165259,0.00172584,-0.000314298,0.0,0.0,0.0,0.0
23123033,0.00123787,0.00130761,0.000122435,0.0,0.0,0.0,0.0
23155091,0.000784275,0.00147364,-0.000704678,0.0,0.0,0.0,0.0
23187077,0.000811995,0.00111314,-0.00138632,0.0,0.0,0.0,0.0
23219113,0.000362054,0.00219193,-0.00244165,0.0,0.0,0.0,0.0
23251038,-0.00109112,0.0012771,-0.000848352,0.0,0.0,0.0,0.0
23283068,0.000734606,0.00122981,-0.000140609,0.0,0.0,0.0,0.0
23311841,0.0013937,-0.000338432,-0.00219269,0.0,0.0,0.0,0.0
23344608,-0.000271278,0.00253187,-0.00171479,0.0,0.0,0.0,0.0
23376641,-9.71146e-05,0.00177637,-0.000302106,0.0,0.0,0.0,0.0
23408629,-0.00160192,0.000105908,0.000502597,0.0,0.0,0.0,0.0
23440627,-3.6336e-05,0.00237493,-0.0016182,0.0,0.0,0.0,0.0
23472615,0.000461913,0.00400262,-0.0029992,0.0,0.0,0.0,0.0
23500632,-0.00131995,0.00165393,0.00087324,0.0,0.0,0.0,0.0
23532635,0.00110867,0.00362121,-0.000160042,0.0,0.0,0.0,0.0
23564683,0.000602814,0.00375954,-0.000575364,0.0,0.0,0.0,0.0
23596685,0.000992335,0.00088721,0.000255688,0.0,0.0,0.0,0.0
23628650,-0.000916522,0.000738702,0.00119062,0.0,0.0,0.0,0.0
23660631,-0.000344954,0.00203766,0.0016701,0.0,0.0,0.0,0.0
23692671,-0.00153813,0.00104984,-0.00107878,0.0,0.0,0.0,0.0
23721448,0.00165086,0.00124578,0.000244892,0.0,0.0,0.0,0.0
23753457,-0.00105655,0.00207258,0.000900608,0.0,0.0,0.0,0.0
23785475,0.000606052,0.00277275,-1.79755e-05,0.0,0.0,0.0,0.0
23817553,-0.000364425,0.000957503,-0.00107797,0.0,0.0,0.0,0.0
23849457,-0.000226831,0.00237373,-0.001932,0.0,0.0,0.0,0.0
23881478,-0.000366243,0.00175881,0.00364296,0.0,0.0,0.0,0.0
23909454,-0.00164755,0.000291402,-0.000207051,0.0,0.0,0.0,0.0
23941486,4.65298e-05,0.000910336,-0.000432954,0.0,0.0,0.0,0.0
23969404,-0.00139225,0.000831254,0.00064394,0.0,0.0,0.0,0.0
24001448,-0.000677498,0.00157817,-0.000613938,0.0,0.0,0.0,0.0
24033439,-0.00048178,0.00114598,-0.00154944,0.0,0.0,0.0,0.0
24065417,0.000258773,0.00229175,-0.000443493,0.0,0.0,0.0,0.0
24097446,0.000777506,0.000995025,-0.00100392,0.0,0.0,0.0,0.0
24129500,9.56105e-05,0.00200543,0.000746986,0.0,0.0,0.0,0.0
24161466,0.00191483,0.000539741,-0.000604099,0.0,0.0,0.0,0.0
24193475,-0.0012389,0.00061864,-0.00227349,0.0,0.0,0.0,0.0
24221475,0.00156697,0.00133665,-0.000398738,0.0,0.0,0.0,0.0
24253434,-0.00163407,0.0018841,0.00115578,0.0,0.0,0.0,0.0
24285464,-0.00102365,0.000416054,-0.000747276,0.0,0.0,0.0,0.0
24317543,-0.000126977,0.000143242,-0.00118976,0.0,0.0,0.0,0.0
24349478,0.000618217,0.00111523,0.000668333,0.0,0.0,0.0,0.0
24381492,-0.000836925,0.000121067,0.0013542,0.0,0.0,0.0,0.0
24413450,0.000718873,0.00285919,-0.000990646,0.0,0.0,0.0,0.0
24445525,0.000810701,0.00107895,0.000380612,0.0,0.0,0.0,0.0
24477531,-0.00032749,0.000534342,-4.66579e-05,0.0,0.0,0.0,0.0
24509475,-0.00135402,0.00181753,0.00128905,0.0,0.0,0.0,0.0
24541434,0.000479576,-0.00141284,-0.00113397,0.0,0.0,0.0,0.0
24573498,0.000626064,0.00109099,-0.00131464,0.0,0.0,0.0,0.0
24605467,0.00290029,0.00351923,0.00124903,0.0,0.0,0.0,0.0
24637508,0.00114454,0.00130744,-0.00142309,0.0,0.0,0.0,0.0
24670220,-0.00119087,0.000728869,0.000615837,0.0,0.0,0.0,0.0
24703033,-0.00135576,0.000776527,0.000230279,0.0,0.0,0.0,0.0
24735112,-0.00162496,0.00147657,-0.00178654,0.0,0.0,0.0,0.0
24767079,0.00688069,0.00221234,-0.000528147,0.0,0.0,0.0,0.0
24799037,0.00175268,0.00267687,0.00109658,0.0,0.0,0.0,0.0
24827035,-0.00195332,0.00157655,-0.000182707,0.0,0.0,0.0,0.0
24859053,0.000150635,0.00232207,-0.000529641,0.0,0.0,0.0,0.0
24891033,0.000785035,0.00165601,0.00048956,0.0,0.0,0.0,0.0
24923117,0.000747429,-0.00119728,-0.00080181,0.0,0.0,0.0,0.0
24955069,0.000663122,0.000480007,-0.000442392,0.0,0.0,0.0,0.0
24987078,0.000935443,0.00112242,0.00246248,0.0,0.0,0.0,0.0
25019025,0.000150189,0.00109052,-0.000352908,0.0,0.0,0.0,0.0
25051121,0.0017758,-0.000318729,0.000827161,0.0,0.0,0.0,0.0
25079076,-0.00089282,0.00164741,0.000522104,0.0,0.0,0.0,0.0
25111110,-0.00179952,0.00132418,0.00254378,0.0,0.0,0.0,0.0
25143033,5.17545e-05,0.00221101,-0.000246529,0.0,0.0,0.0,0.0
25175066,-0.000772042,0.000574772,-0.000712816,0.0,0.0,0.0,0.0
25207007,7.38236e-05,0.00119696,-0.00147728,0.0,0.0,0.0,0.0
25239072,0.00164135,-0.00140372,-0.000163686,0.0,0.0,0.0,0.0
25271002,-0.000189482,0.000323145,0.00167387,0.0,0.0,0.0,0.0
25303020,-0.0014721,0.000908622,-0.00118923,0.0,0.0,0.0,0.0
25335013,-0.000256411,-0.000831866,-2.96519e-05,0.0,0.0,0.0,0.0
25363064,5.15459e-05,0.002062,0.00106006,0.0,0.0,0.0,0.0
25395075,0.00194618,0.00142578,0.00101677,0.0,0.0,0.0,0.0
25427137,-0.00241192,0.00226892,-9.71993e-05,0.0,0.0,0.0,0.0
25459036,-0.00222476,-8.39797e-06,-0.000202259,0.0,0.0,0.0,0.0
25491071,0.000274292,0.00152869,-0.000739491,0.0,0.0,0.0,0.0
25523075,0.000268848,0.000691966,0.000767748,0.0,0.0,0.0,0.0
25555115,0.00289077,0.00316949,0.000576791,0.0,0.0,0.0,0.0
25583080,0.00126442,0.000488463,0.000892372,0.0,0.0,0.0,0.0
25615098,0.000417334,0.00181352,0.000890482,0.0,0.0,0.0,0.0
25647029,0.00191968,0.000278577,0.00128575,0.0,0.0,0.0,0.0
25679074,-0.000426545,0.00127433,-0.000891952,0.0,0.0,0.0,0.0
25711052,0.00124383,0.000892109,-0.000182334,0.0,0.0,0.0,0.0
25743094,-0.000587508,0.000733493,-0.000810622,0.0,0.0,0.0,0.0
25775024,-0.000904835,0.00203505,0.00186617,0.0,0.0,0.0,0.0
25807046,0.00201747,0.000759439,0.00160365,0.0,0.0,0.0,0.0
25835039,-0.00186928,0.00125367,-0.00215501,0.0,0.0,0.0,0.0
25867069,-0.000856426,-0.000439854,9.45716e-05,0.0,0.0,0.0,0.0
25899064,0.000472214,0.000567165,-1.8558e-05,0.0,0.0,0.0,0.0
25931100,0.000657067,0.000940509,-0.00026935,0.0,0.0,0.0,0.0
25963016,-0.000905306,0.00020629,4.88618e-05,0.0,0.0,0.0,0.0
25995043,-0.00290745,0.00229894,-0.000283191,0.0,0.0,0.0,0.0
26027040,0.0011666,0.000417299,0.00130028,0.0,0.0,0.0,0.0
26059102,0.000830881,-0.000780083,-0.00022991,0.0,0.0,0.0,0.0
26087051,0.000861357,0.00116875,0.000163114,0.0,0.0,0.0,0.0
26119108,0.000547879,0.00305347,-1.93617e-05,0.0,0.0,0.0,0.0
26152701,-0.00115326,0.000893452,0.0019807,0.0,0.0,0.0,0.0
26184633,-0.00116988,0.00251775,-0.000769267,0.0,0.0,0.0,0.0
26213516,0.000691541,0.00238693,-0.00108393,0.0,0.0,0.0,0.0
26245436,-0.000242856,0.00120464,0.00058024,0.0,0.0,0.0,0.0
26277509,-0.000803133,-4.82686e-05,-0.000857874,0.0,0.0,0.0,0.0
26309451,-0.00114993,0.00132131,0.000692049,0.0,0.0,0.0,0.0
26341453,0.00135042,0.00107787,-0.00157004,0.0,0.0,0.0,0.0
26373402,0.000946562,0.00318784,-0.000245748,0.0,0.0,0.0,0.0
26405409,-0.00197872,0.00216848,-0.000239448,0.0,0.0,0.0,0.0
26433441,0.000333137,0.001372,-0.00114599,0.0,0.0,0.0,0.0
26466251,0.00242281,0.00108031,-0.00330455,0.0,0.0,0.0,0.0
26498287,0.000433525,-1.43563e-06,0.00104837,0.0,0.0,0.0,0.0
26530268,0.00241863,0.000238363,0.00066556,0.0,0.0,0.0,0.0
26562289,-0.00084061,0.00232784,-0.00138552,0.0,0.0,0.0,0.0
26594242,-0.000445147,0.0018698,-0.000976633,0.0,0.0,0.0,0.0
26626310,0.001232,0.000943833,-0.00120621,0.0,0.0,0.0,0.0
26658263,0.00169534,0.00173413,0.00164124,0.0,0.0,0.0,0.0
26690278,0.00146013,0.0010139,-0.00244404,0.0,0.0,0.0,0.0
26722244,0.00180189,0.000588707,-0.00191323,0.0,0.0,0.0,0.0
26754287,-0.000124133,0.000731729,0.00205577,0.0,0.0,0.0,0.0
26786266,0.000259226,0.00105691,-0.000413675,0.0,0.0,0.0,0.0
26818367,-0.000252879,-0.00188325,0.00137834,0.0,0.0,0.0,0.0
26850248,-0.000923418,-0.000155421,-0.00184725,0.0,0.0,0.0,0.0
26882214,0.00152528,0.00272969,0.000182305,0.0,0.0,0.0,0.0
26914249,0.000707388,0.0026619,0.00145775,0.0,0.0,0.0,0.0
26946204,-0.000606108,0.00345208,0.000290142,0.0,0.0,0.0,0.0
26978205,1.54376e-05,0.000413248,0.000568226,0.0,0.0,0.0,0.0
27010253,-0.000585267,0.00148526,-0.000204641,0.0,0.0,0.0,0.0
27042271,-0.000389649,-6.29728e-05,-0.000682038,0.0,0.0,0.0,0.0
27074252,0.000347076,0.00364283,0.000524469,0.0,0.0,0.0,0.0
27102265,-0.00024834,0.000996924,-0.000679644,0.0,0.0,0.0,0.0
27134267,0.000538677,0.00102197,-0.00052374,0.0,0.0,0.0,0.0
27166229,3.93665e-05,0.00311891,0.000631532,0.0,0.0,0.0,0.0
27198257,4.31384e-05,0.00296484,0.000723934,0.0,0.0,0.0,0.0
27230260,0.000230695,0.00142842,-0.000971363,0.0,0.0,0.0,0.0
27262230,0.000192928,-7.15195e-05,0.000516595,0.0,0.0,0.0,0.0
27294228,0.00106305,0.000729642,-0.0016207,0.0,0.0,0.0,0.0
27326247,0.0011412,0.00076263,0.00107127,0.0,0.0,0.0,0.0
27355053,0.00111241,0.000752229,-3.12845e-05,0.0,0.0,0.0,0.0
27387813,0.000329292,5.80084e-05,0.00192202,0.0,0.0,0.0,0.0
27419926,0.00110964,-0.00118689,-7.87042e-05,0.0,0.0,0.0,0.0
27451851,0.00101925,0.00101453,0.00133551,0.0,0.0,0.0,0.0
27483836,0.000467971,0.000478171,-0.00271221,0.0,0.0,0.0,0.0
27515838,0.00161036,0.000761585,-0.000959059,0.0,0.0,0.0,0.0
27547874,0.000150742,0.00108201,-0.000247333,0.0,0.0,0.0,0.0
27579916,0.00169495,0.000712082,-0.000118936,0.0,0.0,0.0,0.0
27611839,-0.00119748,0.000819369,0.00187352,0.0,0.0,0.0,0.0
27643862,0.00129985,0.00124588,-0.000926901,0.0,0.0,0.0,0.0
27675864,-0.00264268,0.0027287,0.000461687,0.0,0.0,0.0,0.0
27707880,0.00238565,0.00274079,-0.000712484,0.0,0.0,0.0,0.0
27739870,-0.00025672,0.000212469,0.00271104,0.0,0.0,0.0,0.0
27771873,0.00204227,0.000973695,-0.000606361,0.0,0.0,0.0,0.0
27803860,-0.000274418,0.00158072,-0.000929092,0.0,0.0,0.0,0.0
27835911,-0.00147549,0.000973811,0.00146774,0.0,0.0,0.0,0.0
27867884,-0.00227723,0.000865301,0.00119959,0.0,0.0,0.0,0.0
27899911,-0.000648013,0.000680262,0.000688863,0.0,0.0,0.0,0.0
27931887,0.000172082,0.00258883,-0.00156497,0.0,0.0,0.0,0.0
27964634,0.0014209,0.00122395,-0.000231539,0.0,0.0,0.0,0.0
27996663,-0.000579026,0.00083071,0.00169997,0.0,0.0,0.0,0.0
28028623,0.00149292,0.000558582,0.00136145,0.0,0.0,0.0,0.0
28060658,-0.000919253,-0.000613832,-0.0024262,0.0,0.0,0.0,0.0
28092654,-0.000340098,0.000816448,0.000147713,0.0,0.0,0.0,0.0
28124730,0.00100166,0.00234749,0.000931231,0.0,0.0,0.0,0.0
28156631,0.000978348,0.0015283,-0.000639694,0.0,0.0,0.0,0.0
28188680,0.00136219,0.00148802,-0.00146949,0.0,0.0,0.0,0.0
28220685,0.000315681,0.000502015,-0.000499451,0.0,0.0,0.0,0.0
28252724,-0.00035767,0.00119928,-0.00174238,0.0,0.0,0.0,0.0
28284654,-0.00159478,0.000423213,0.00165406,0.0,0.0,0.0,0.0
28316695,0.00255484,0.00101628,0.000738688,0.0,0.0,0.0,0.0
28348694,0.000237749,0.0019516,0.00104391,0.0,0.0,0.0,0.0
28380696,0.00196933,0.00242724,-0.000389833,0.0,0.0,0.0,0.0
28414272,-0.000664971,0.00115952,0.000390811,0.0,0.0,0.0,0.0
28446211,-0.00024512,0.00288669,-0.00028072,0.0,0.0,0.0,0.0
28474307,0.00104301,0.000292126,-0.000134788,0.0,0.0,0.0,0.0
28506213,0.00181736,0.000840815,-0.00014913,0.0,0.0,0.0,0.0
28538250,-0.000346926,0.00127149,-0.000704622,0.0,0.0,0.0,0.0
28570292,0.00011571,-0.000378974,-0.00144481,0.0,0.0,0.0,0.0
28602322,-0.000137693,0.000365974,0.000136822,0.0,0.0,0.0,0.0
28634243,0.000943834,-5.50989e-05,-0.00145194,0.0,0.0,0.0,0.0
28666265,0.000326374,0.000202525,0.000671573,0.0,0.0,0.0,0.0
28698281,0.000180335,0.00128998,0.00121589,0.0,0.0,0.0,0.0
28726326,0.000242203,0.00118894,0.000979077,0.0,0.0,0.0,0.0
28758278,-0.000417843,0.000887882,-0.00203736,0.0,0.0,0.0,0.0
28790244,0.000957195,0.00160412,0.00106173,0.0,0.0,0.0,0.0
28822239,0.000299388,-0.000219621,0.000513015,0.0,0.0,0.0,0.0
28854274,-0.00112028,0.00100896,-0.00149128,0.0,0.0,0.0,0.0
28886267,-0.00317389,-0.000959392,0.000452149,0.0,0.0,0.0,0.0
28918303,-0.00040866,-0.000250418,0.000569874,0.0,0.0,0.0,0.0
28950256,0.00117161,0.00270516,-0.000617268,0.0,0.0,0.0,0.0
28978285,-0.00261731,0.00148422,-8.75862e-06,0.0,0.0,0.0,0.0
29010242,-0.00187654,0.000539186,-0.000685797,0.0,0.0,0.0,0.0
29042276,-0.000693622,0.00102264,-0.000835563,0.0,0.0,0.0,0.0
29074276,-0.00131594,0.00155658,0.000597079,0.0,0.0,0.0,0.0
29106272,0.000724022,0.00202535,0.00121048,0.0,0.0,0.0,0.0
29138230,0.00150924,0.000432936,-0.00220148,0.0,0.0,0.0,0.0
29170279,0.00126067,0.00121401,0.000862879,0.0,0.0,0.0,0.0
29202255,-0.000498704,0.000994959,0.0021278,0.0,0.0,0.0,0.0
29230301,0.00172666,0.00306669,-0.0020226,0.0,0.0,0.0,0.0
29262250,-0.00207861,-5.88673e-05,0.000210169,0.0,0.0,0.0,0.0
29294247,0.000807595,0.00105577,0.000331724,0.0,0.0,0.0,0.0
29326226,-0.000847823,0.00108181,-0.00075987,0.0,0.0,0.0,0.0
29358329,0.00348974,0.00256339,-0.000855383,0.0,0.0,0.0,0.0
29390270,-0.00103214,0.00111621,0.000255517,0.0,0.0,0.0,0.0
29422304,0.00257106,-0.000781428,-0.000540345,0.0,0.0,0.0,0.0
29454249,-0.000975614,0.000739401,-0.00147707,0.0,0.0,0.0,0.0
29486330,-0.00034397,0.00203503,-0.000795724,0.0,0.0,0.0,0.0
29518262,-0.00108491,0.0011177,-0.000986599,0.0,0.0,0.0,0.0
29550243,-0.000708747,0.00206088,-0.00170067,0.0,0.0,0.0,0.0
29582253,-0.000643238,0.00122854,0.000611481,0.0,0.0,0.0,0.0
29614250,0.00147707,0.00131801,-0.00080238,0.0,0.0,0.0,0.0
29646275,-0.000462649,0.000202351,-0.00242491,0.0,0.0,0.0,0.0
29678247,-0.000554662,0.00260803,-0.000463074,0.0,0.0,0.0,0.0
29710249,0.000661893,0.00226734,0.00127107,0.0,0.0,0.0,0.0
29743025,0.00016901,0.000182051,0.00147353,0.0,0.0,0.0,0.0
29775073,0.000597064,0.000104764,-0.000373953,0.0,0.0,0.0,0.0
29807037,-0.000655971,0.000984114,-0.000687165,0.0,0.0,0.0,0.0
29839033,0.00054324,0.00134833,0.00170141,0.0,0.0,0.0,0.0
29871009,-0.000257865,0.00163355,0.00129138,0.0,0.0,0.0,0.0
29903040,0.00136224,0.00136085,-0.000408072,0.0,0.0,0.0,0.0
29935044,-0.000846983,0.000318564,-0.00124263,0.0,0.0,0.0,0.0
29967032,0.000328791,0.000677637,0.000350511,0.0,0.0,0.0,0.0
29999032,0.00184872,0.000257262,0.00112431,0.0,0.0,0.0,0.0
30031088,0.00130948,-0.00115203,-0.000801723,0.0,0.0,0.0,0.0
30064685,0.0020021,0.00111868,-0.000263498,0.0,0.0,0.0,0.0
30096690,0.000883836,0.00130423,-0.00242416,0.0,0.0,0.0,0.0
30128682,-0.0010497,0.000922287,0.000387634,0.0,0.0,0.0,0.0
30160662,-0.00144504,0.000492028,0.00113005,0.0,0.0,0.0,0.0
30192682,-0.00120373,0.00137847,-0.000581949,0.0,0.0,0.0,0.0
30220645,-0.000136191,0.00116284,0.000248216,0.0,0.0,0.0,0.0
30252636,-0.00103548,0.00181559,-0.00110944,0.0,0.0,0.0,0.0
30284641,0.000596819,-0.00107573,0.000245165,0.0,0.0,0.0,0.0
30316617,0.00478194,0.00172233,-0.00343265,0.0,0.0,0.0,0.0
30348647,0.00161054,0.00161017,-0.000421803,0.0,0.0,0.0,0.0
30380651,0.000298208,-0.00088143,0.000152449,0.0,0.0,0.0,0.0
30412688,0.000229238,0.000770816,0.002335,0.0,0.0,0.0,0.0
30444645,-0.000616,0.00107822,0.00180286,0.0,0.0,0.0,0.0
30472637,0.000784582,0.00120718,-0.000165058,0.0,0.0,0.0,0.0
30504644,0.00123467,-0.000982402,0.00199732,0.0,0.0,0.0,0.0
30536641,-0.00958424,0.00106643,0.00314224,0.0,0.0,0.0,0.0
30568674,-0.00189661,-0.00103761,0.000894574,0.0,0.0,0.0,0.0
30600691,1.50446e-05,0.000825589,0.000235769,0.0,0.0,0.0,0.0
30632634,-0.00228709,-3.25667e-05,0.000778886,0.0,0.0,0.0,0.0
30664684,-6.45081e-06,0.00134314,-0.0010767,0.0,0.0,0.0,0.0
30693406,0.00081482,-7.43449e-05,-0.00119651,0.0,0.0,0.0,0.0
30725476,0.00123556,0.00196148,-0.00185325,0.0,0.0,0.0,0.0
30757505,0.00227116,0.000254468,0.00221228,0.0,0.0,0.0,0.0
30789521,0.000857579,0.00186188,-0.000559324,0.0,0.0,0.0,0.0
30821443,0.000676515,-0.000267128,-0.00161124,0.0,0.0,0.0,0.0
30853506,0.00143903,0.000511845,0.000610748,0.0,0.0,0.0,0.0
30885451,-0.00227401,-0.000571293,0.00120639,0.0,0.0,0.0,0.0
30913454,0.00058292,0.00280176,0.000559328,0.0,0.0,0.0,0.0
30945440,-0.000560446,0.000401754,7.71871e-05,0.0,0.0,0.0,0.0
30977518,0.000111184,-0.000536781,0.00164406,0.0,0.0,0.0,0.0
31009405,-0.00118567,0.0016677,0.00119327,0.0,0.0,0.0,0.0
31041478,0.000770994,0.00145553,-0.00159285,0.0,0.0,0.0,0.0
31073462,0.00139186,0.0032192,-0.00191185,0.0,0.0,0.0,0.0
31105519,-0.000161511,0.00142879,-0.000328922,0.0,0.0,0.0,0.0
31137461,9.46242e-05,-0.000682567,-0.000373487,0.0,0.0,0.0,0.0
31169490,0.00143712,0.00145223,-0.00222528,0.0,0.0,0.0,0.0
31197466,0.000553653,-0.00065623,-0.000225156,0.0,0.0,0.0,0.0
31229495,0.0023231,0.00161543,-0.000127247,0.0,0.0,0.0,0.0
31261474,-0.00179801,-0.000204356,0.00120195,0.0,0.0,0.0,0.0
31293521,0.000699526,0.00150908,0.000600552,0.0,0.0,0.0,0.0
31325448,-0.001355,-6.65158e-05,0.000371956,0.0,0.0,0.0,0.0
31357516,-0.000194056,0.00153206,0.00213209,0.0,0.0,0.0,0.0
31387015,2.5813e-05,0.00189827,0.00100295,0.0,0.0,0.0,0.0
31419003,-0.00118528,-0.00139898,0.00152684,0.0,0.0,0.0,0.0
31451070,0.000592645,-9.06375e-05,-0.0012811,0.0,0.0,0.0,0.0
31483062,0.000706858,0.000869098,0.00141106,0.0,0.0,0.0,0.0
31515074,0.000813365,0.000497506,0.00122081,0.0,0.0,0.0,0.0
31547050,7.45808e-05,0.00253856,-0.000714573,0.0,0.0,0.0,0.0
31579136,-0.00183803,0.00202231,-0.000981452,0.0,0.0,0.0,0.0
31611073,0.00125333,0.00111795,4.16543e-05,0.0,0.0,0.0,0.0
31643067,0.000197328,9.13658e-05,-0.000392801,0.0,0.0,0.0,0.0
31675027,0.000604948,0.000757161,-0.00171701,0.0,0.0,0.0,0.0
31707119,0.00154459,0.0011251,-0.000640586,0.0,0.0,0.0,0.0
31739917,0.00173601,-4.92893e-05,-0.000360221,0.0,0.0,0.0,0.0
31771862,0.00384019,0.00141016,0.000252251,0.0,0.0,0.0,0.0
31803865,0.000590416,-0.000541995,0.00153968,0.0,0.0,0.0,0.0
31835825,-0.00248112,0.000266568,0.000522472,0.0,0.0,0.0,0.0
31867922,0.000378543,0.000986669,-0.000876089,0.0,0.0,0.0,0.0
31899924,-1.25435e-05,-0.00016815,-0.00035505,0.0,0.0,0.0,0.0
31931850,1.12746e-05,0.00336738,0.000468033,0.0,0.0,0.0,0.0
31963853,-0.000469964,0.00136051,0.000724005,0.0,0.0,0.0,0.0
31995885,-5.39036e-05,0.000463351,0.000811628,0.0,0.0,0.0,0.0
32027850,-0.00278014,0.000678506,0.000392898,0.0,0.0,0.0,0.0
32059897,0.000159155,-0.000402827,-0.000650366,0.0,0.0,0.0,0.0
32091844,-0.00127902,-0.000255377,0.000270427,0.0,0.0,0.0,0.0
32123899,0.00260199,0.00167969,-0.000970177,0.0,0.0,0.0,0.0
32155888,-0.00106879,0.00149533,-0.00238098,0.0,0.0,0.0,0.0
32183892,-0.00055049,-0.000224435,0.000347701,0.0,0.0,0.0,0.0
32215870,0.00228902,0.000794832,-0.00108049,0.0,0.0,0.0,0.0
32247878,0.000911993,0.00175678,-0.00293496,0.0,0.0,0.0,0.0
32279889,0.00237231,0.00123472,-0.00119057,0.0,0.0,0.0,0.0
32311899,-0.000647488,0.000831633,-0.000887244,0.0,0.0,0.0,0.0
32343862,-0.00145565,0.00118301,0.000514203,0.0,0.0,0.0,0.0
32375882,0.000982653,0.0010129,0.0018566,0.0,0.0,0.0,0.0
32407834,-0.000695317,0.00042363,-0.00148488,0.0,0.0,0.0,0.0
32435869,-0.0017878,-0.000515665,-0.00239236,0.0,0.0,0.0,0.0
32467876,-0.000871229,0.00010825,6.21928e-05,0.0,0.0,0.0,0.0
32499943,-0.00187035,0.000661008,0.000655538,0.0,0.0,0.0,0.0
32531835,9.30112e-05,1.99431e-05,0.000582559,0.0,0.0,0.0,0.0
32565441,0.000386173,0.00133054,0.000144699,0.0,0.0,0.0,0.0
32593499,-0.000191807,0.00032381,-0.000865477,0.0,0.0,0.0,0.0
32625439,-0.000921384,0.000848118,0.000214275,0.0,0.0,0.0,0.0
32657519,0.00137368,0.00150488,0.0012591,0.0,0.0,0.0,0.0
32689460,0.00103249,0.000777846,0.00040228,0.0,0.0,0.0,0.0
32721506,0.000335381,0.00174802,-0.000277433,0.0,0.0,0.0,0.0
32753441,-0.00134758,0.00203382,8.55094e-05,0.0,0.0,0.0,0.0
32785490,-0.00100653,0.000176347,-0.000902224,0.0,0.0,0.0,0.0
32817476,0.000945461,0.00195523,-0.000411809,0.0,0.0,0.0,0.0
32845481,0.000519612,0.000985422,-0.000316931,0.0,0.0,0.0,0.0
32877505,-6.59083e-05,0.00196892,-0.00069457,0.0,0.0,0.0,0.0
32909509,-8.20612e-05,0.00209578,0.000936533,0.0,0.0,0.0,0.0
32942230,-0.00104252,0.000176178,0.00077376,0.0,0.0,0.0,0.0
32974235,0.000737864,0.00244759,0.000784548,0.0,0.0,0.0,0.0
33006267,0.00193505,0.00283412,0.000557342,0.0,0.0,0.0,0.0
33038249,0.0010771,0.00326821,-0.000171578,0.0,0.0,0.0,0.0
33066267,-0.00151458,-0.000350766,0.000237815,0.0,0.0,0.0,0.0
33098286,0.000997216,0.000842133,0.000775471,0.0,0.0,0.0,0.0
33130206,-4.21857e-05,0.00236698,0.00015046,0.0,0.0,0.0,0.0
33162228,-0.00197888,0.000572338,-0.00398325,0.0,0.0,0.0,0.0
33194263,-0.00104007,-0.000406106,0.000947489,0.0,0.0,0.0,0.0
33226269,-0.00165994,0.000519099,0.000382872,0.0,0.0,0.0,0.0
33258243,0.000854131,0.000740224,7.17719e-05,0.0,0.0,0.0,0.0
33290234,0.00132235,0.000332564,2.60645e-05,0.0,0.0,0.0,0.0
33318249,-0.00111355,0.000629556,-0.000149134,0.0,0.0,0.0,0.0
33350293,-0.000819463,-6.41642e-05,-0.0013475,0.0,0.0,0.0,0.0
33382285,0.00101884,0.00201507,0.000340471,0.0,0.0,0.0,0.0
33414266,0.00239912,-0.000264748,0.000399093,0.0,0.0,0.0,0.0
33446269,-0.000697216,-0.000934968,-0.000152437,0.0,0.0,0.0,0.0
33478269,-0.000714703,0.000977741,0.000718348,0.0,0.0,0.0,0.0
33514323,0.000152857,0.00190893,0.00108235,0.0,0.0,0.0,0.0
33542273,-0.000526536,0.00064407,0.00115399,0.0,0.0,0.0,0.0
33574249,-0.0016177,0.00159665,3.32794e-05,0.0,0.0,0.0,0.0
33606236,0.00103726,0.00145049,0.00196965,0.0,0.0,0.0,0.0
33638272,-0.0011341,0.000509263,-0.000193492,0.0,0.0,0.0,0.0
33670278,-0.000338585,0.000543954,-0.000938666,0.0,0.0,0.0,0.0
33702274,-0.00163932,0.000205189,0.000346906,0.0,0.0,0.0,0.0
33734241,0.00197058,0.000141791,0.00224585,0.0,0.0,0.0,0.0
33766314,-0.000672982,-0.000706087,0.00131696,0.0,0.0,0.0,0.0
33794214,-0.000826767,-0.00110168,-0.000722812,0.0,0.0,0.0,0.0
33827847,-1.6178e-05,0.000376251,-0.00139155,0.0,0.0,0.0,0.0
33859947,0.00201979,-0.000251069,0.000316183,0.0,0.0,0.0,0.0
33891869,-3.79309e-05,0.000518336,-0.000594547,0.0,0.0,0.0,0.0
33919911,-0.000359993,-0.000758689,-0.000528159,0.0,0.0,0.0,0.0
33951843,1.62236e-06,0.00108977,-0.00268819,0.0,0.0,0.0,0.0
33983839,-0.000454705,0.00162149,-0.000753356,0.0,0.0,0.0,0.0
34015827,0.00185486,0.00336474,-3.80478e-05,0.0,0.0,0.0,0.0
34047844,0.00343178,0.000435779,0.000207731,0.0,0.0,0.0,0.0
34079935,0.000131233,-0.000621406,0.00095352,0.0,0.0,0.0,0.0
34111835,-0.000220726,0.00173474,0.00102547,0.0,0.0,0.0,0.0
34143836,-0.0010048,0.000263402,-0.000960301,0.0,0.0,0.0,0.0
34171834,0.00016232,0.000619641,-0.000308156,0.0,0.0,0.0,0.0
34203857,-0.000949234,-0.000755431,0.000315232,0.0,0.0,0.0,0.0
34235842,-0.00141336,0.00144723,-0.00259398,0.0,0.0,0.0,0.0
34268670,0.000388525,0.00178663,-0.00101452,0.0,0.0,0.0,0.0
34300666,0.000264748,-0.000247865,-0.000771597,0.0,0.0,0.0,0.0
34332636,0.000380215,0.000706861,0.00067259,0.0,0.0,0.0,0.0
34364721,0.00135361,0.00118371,0.000372028,0.0,0.0,0.0,0.0
34392646,0.000870156,-0.00140038,-0.00371834,0.0,0.0,0.0,0.0
34424709,-0.000169907,0.00149901,0.00102157,0.0,0.0,0.0,0.0
34456688,0.000345815,0.000258756,0.000715229,0.0,0.0,0.0,0.0
34488675,0.000600646,0.00170888,-6.68815e-05,0.0,0.0,0.0,0.0
34520647,0.000307269,0.000902739,-0.000385358,0.0,0.0,0.0,0.0
34552713,-0.00276614,-0.00133751,-0.000242301,0.0,0.0,0.0,0.0
34584691,-0.000510545,0.00189421,0.00268404,0.0,0.0,0.0,0.0
34616683,-0.00073798,0.000431258,0.00225162,0.0,0.0,0.0,0.0
34644657,0.000414388,0.000395852,-0.0007181,0.0,0.0,0.0,0.0
34676672,-0.00153673,-0.00053082,0.00143204,0.0,0.0,0.0,0.0
34708675,0.000191994,0.00154297,0.00145202,0.0,0.0,0.0,0.0
34740704,0.000280245,0.00128558,0.000262962,0.0,0.0,0.0,0.0
34772633,0.00236307,0.00286956,-0.000313981,0.0,0.0,0.0,0.0
34804680,0.000801955,0.00276848,0.000718078,0.0,0.0,0.0,0.0
34836629,0.0015151,0.000538978,0.00415716,0.0,0.0,0.0,0.0
34868686,0.00017237,0.000255415,0.000739351,0.0,0.0,0.0,0.0
34898249,-0.00109508,0.000318824,-0.000223303,0.0,0.0,0.0,0.0
34930280,0.00119086,0.00144277,-0.000143728,0.0,0.0,0.0,0.0
34962313,-6.53807e-05,0.00079265,-0.00159078,0.0,0.0,0.0,0.0
34994237,-0.00012056,0.00196198,-0.000938101,0.0,0.0,0.0,0.0
35026297,0.00015053,0.000549272,-0.00101497,0.0,0.0,0.0,0.0
35058272,0.00069971,0.0012301,-0.00166934,0.0,0.0,0.0,0.0
35090308,0.00240636,0.00129342,0.000700332,0.0,0.0,0.0,0.0
35122237,0.00111053,0.00233232,-0.00201415,0.0,0.0,0.0,0.0
35154271,-0.000448277,0.00145494,-0.000124021,0.0,0.0,0.0,0.0
35186237,-0.000904073,0.000163036,-0.000895182,0.0,0.0,0.0,0.0
35218296,0.000400946,0.000614311,0.000361303,0.0,0.0,0.0,0.0
35250240,-2.50014e-06,0.000637039,-0.000459055,0.0,0.0,0.0,0.0
35278286,0.000461028,0.000441748,0.000803039,0.0,0.0,0.0,0.0
35310204,-0.00076276,0.000825927,0.000353283,0.0,0.0,0.0,0.0
35342249,0.000807524,0.000863572,-6.57854e-05,0.0,0.0,0.0,0.0
35374250,-0.00134809,0.00176655,0.000869571,0.0,0.0,0.0,0.0
35406295,0.00271644,-0.000239526,-0.000453951,0.0,0.0,0.0,0.0
35438238,-0.000675208,0.000423531,-0.000736145,0.0,0.0,0.0,0.0
35470257,0.000936829,4.93459e-05,-0.000384175,0.0,0.0,0.0,0.0
35502288,-0.00073373,-0.000540412,-0.00133265,0.0,0.0,0.0,0.0
35530289,0.00100752,0.000630059,-0.000444051,0.0,0.0,0.0,0.0
35562272,-0.000500317,0.00160775,0.00104732,0.0,0.0,0.0,0.0
35594330,-0.00170168,-0.00100679,-0.000594151,0.0,0.0,0.0,0.0
35627025,0.000738647,0.00122526,0.000267151,0.0,0.0,0.0,0.0
35655854,0.000728701,5.03159e-05,-0.000318982,0.0,0.0,0.0,0.0
35687904,0.000195769,0.000256322,0.000202682,0.0,0.0,0.0,0.0
35719872,-0.000472994,3.64732e-05,0.00247738,0.0,0.0,0.0,0.0
35751860,-0.00151598,0.000558416,-0.000134024,0.0,0.0,0.0,0.0
35783830,-0.000141011,0.00249094,0.0016475,0.0,0.0,0.0,0.0
35815847,-0.000177151,0.00142334,0.000391707,0.0,0.0,0.0,0.0
