timestamp,baro_alt_meter,baro_temp_celcius,baro_pressure_pa,rho
2913447,282.887,39.05,97973.0,1.16408
2935435,282.63,39.06,97976.0,1.16412
2946567,282.718,39.06,97975.0,1.16411
2957456,282.374,39.06,97979.0,1.16415
2979474,282.802,39.06,97974.0,1.16409
2990542,282.63,39.06,97976.0,1.16412
3001439,282.802,39.06,97974.0,1.16409
3023446,282.802,39.07,97974.0,1.16409
3034435,282.887,39.07,97973.0,1.16408
3045447,282.459,39.07,97978.0,1.16414
3067437,282.374,39.08,97979.0,1.16415
3078439,282.718,39.08,97975.0,1.16411
3089448,283.058,39.08,97971.0,1.16406
3110447,282.802,39.08,97974.0,1.16409
3121447,282.887,39.08,97973.0,1.16408
3132583,282.718,39.08,97975.0,1.16411
3154448,282.546,39.09,97977.0,1.16413
3165448,282.459,39.09,97978.0,1.16414
3176566,282.459,39.09,97978.0,1.16414
3198534,282.546,39.1,97977.0,1.16413
3209447,282.374,39.1,97979.0,1.16415
3220610,282.459,39.1,97978.0,1.16414
3242447,282.29,39.11,97980.0,1.16416
3253448,282.887,39.11,97973.0,1.16408
3263446,282.802,39.11,97974.0,1.16409
3285439,282.033,39.11,97983.0,1.1642
3297054,282.374,39.11,97979.0,1.16415
3307469,282.63,39.11,97976.0,1.16412
3329437,282.459,39.12,97978.0,1.16414
3341070,282.546,39.12,97977.0,1.16413
3351435,283.058,39.12,97971.0,1.16406
3373486,282.887,39.12,97973.0,1.16408
3383446,282.887,39.12,97973.0,1.16408
3394446,282.546,39.12,97977.0,1.16413
3417121,282.459,39.13,97978.0,1.16414
3427463,282.459,39.13,97978.0,1.16414
3438435,282.63,39.13,97976.0,1.16412
3461130,282.202,39.14,97981.0,1.16418
3471712,282.459,39.14,97978.0,1.16414
3482206,282.459,39.14,97978.0,1.16414
3503435,282.459,39.14,97978.0,1.16414
3514131,282.718,39.14,97975.0,1.16411
3525147,282.718,39.14,97975.0,1.16411
3545751,282.63,39.14,97976.0,1.16412
3557134,282.63,39.14,97976.0,1.16412
3567436,282.374,39.14,97979.0,1.16415
3589142,282.374,39.15,97979.0,1.16415
3599444,282.718,39.15,97975.0,1.16411
3609792,282.374,39.15,97979.0,1.16415
3631435,282.459,39.16,97978.0,1.16414
3641951,282.118,39.16,97982.0,1.16419
3652996,282.459,39.16,97978.0,1.16414
3673492,282.202,39.16,97981.0,1.16418
3685098,282.374,39.16,97979.0,1.16415
3695447,282.546,39.16,97977.0,1.16413
3717062,282.374,39.17,97979.0,1.16415
3727463,281.946,39.17,97984.0,1.16421
3737563,282.63,39.17,97976.0,1.16412
3759448,282.63,39.17,97976.0,1.16412
3770159,282.29,39.17,97980.0,1.16416
3781052,282.63,39.17,97976.0,1.16412
3801795,282.459,39.18,97978.0,1.16414
3813100,282.202,39.18,97981.0,1.16418
3823435,282.546,39.18,97977.0,1.16413
3845130,281.946,39.18,97984.0,1.16421
3855447,282.033,39.18,97983.0,1.1642
3865577,282.718,39.18,97975.0,1.16411
3887448,281.946,39.19,97984.0,1.16421
3898146,282.802,39.19,97974.0,1.16409
3909069,282.374,39.19,97979.0,1.16415
3930468,282.374,39.19,97979.0,1.16415
3941437,282.718,39.19,97975.0,1.16411
3951435,282.459,39.19,97978.0,1.16414
3973050,282.459,39.19,97978.0,1.16414
3983436,282.202,39.19,97981.0,1.16418
3993493,282.718,39.19,97975.0,1.16411
4015448,282.118,39.19,97982.0,1.16419
4026448,282.118,39.19,97982.0,1.16419
4037480,282.546,39.19,97977.0,1.16413
4058471,282.29,39.2,97980.0,1.16416
4069115,282.29,39.2,97980.0,1.16416
4079444,282.29,39.2,97980.0,1.16416
4101130,282.033,39.2,97983.0,1.1642
4111436,282.29,39.2,97980.0,1.16416
4121576,282.459,39.2,97978.0,1.16414
4143742,281.946,39.2,97984.0,1.16421
4154283,282.546,39.2,97977.0,1.16413
4165296,282.374,39.2,97979.0,1.16415
4186455,282.459,39.21,97978.0,1.16414
4197131,282.374,39.21,97979.0,1.16415
4207435,282.202,39.21,97981.0,1.16418
4229137,282.63,39.21,97976.0,1.16412
4239482,282.63,39.21,97976.0,1.16412
4249653,282.374,39.21,97979.0,1.16415
4271448,282.118,39.22,97982.0,1.16419
4282350,282.202,39.22,97981.0,1.16418
4293106,282.118,39.22,97982.0,1.16419
4313478,282.63,39.22,97976.0,1.16412
4325167,282.459,39.22,97978.0,1.16414
4335447,282.202,39.22,97981.0,1.16418
4357130,282.033,39.22,97983.0,1.1642
4367449,282.63,39.22,97976.0,1.16412
4377578,282.546,39.22,97977.0,1.16413
4399446,282.546,39.23,97977.0,1.16413
4410374,281.518,39.23,97989.0,1.16427
4421158,282.202,39.23,97981.0,1.16418
4441536,282.459,39.23,97978.0,1.16414
4453031,281.862,39.23,97985.0,1.16422
4463438,282.718,39.23,97975.0,1.16411
4485439,281.946,39.23,97984.0,1.16421
4496470,282.374,39.23,97979.0,1.16415
4507461,282.459,39.23,97978.0,1.16414
4529474,282.118,39.23,97982.0,1.16419
4539819,282.118,39.23,97982.0,1.16419
4550711,281.862,39.23,97985.0,1.16422
4572469,282.546,39.23,97977.0,1.16413
4582712,282.374,39.23,97979.0,1.16415
4593447,282.374,39.23,97979.0,1.16415
4614452,282.118,39.24,97982.0,1.16419
4625482,281.946,39.24,97984.0,1.16421
4636501,282.546,39.24,97977.0,1.16413
4658439,282.118,39.24,97982.0,1.16419
4669018,282.374,39.24,97979.0,1.16415
4679523,282.459,39.24,97978.0,1.16414
4701437,281.946,39.24,97984.0,1.16421
4711534,282.63,39.24,97976.0,1.16412
4722435,282.29,39.24,97980.0,1.16416
4743536,281.946,39.25,97984.0,1.16421
4754442,281.862,39.25,97985.0,1.16422
4765447,282.718,39.25,97975.0,1.16411
4786447,282.033,39.24,97983.0,1.1642
4796701,282.29,39.24,97980.0,1.16416
4807722,282.29,39.24,97980.0,1.16416
4829455,282.118,39.25,97982.0,1.16419
4840535,282.118,39.25,97982.0,1.16419
4851933,282.118,39.25,97982.0,1.16419
4873443,282.202,39.25,97981.0,1.16418
4884498,282.374,39.25,97979.0,1.16415
4895509,282.29,39.25,97980.0,1.16416
4917448,282.29,39.25,97980.0,1.16416
4928493,282.29,39.25,97980.0,1.16416
4940798,282.202,39.25,97981.0,1.16418
4962478,282.118,39.25,97982.0,1.16419
4973435,282.459,39.25,97978.0,1.16414
4984582,282.459,39.25,97978.0,1.16414
5005471,281.69,39.26,97987.0,1.16425
5015547,282.118,39.26,97982.0,1.16419
5026477,282.202,39.26,97981.0,1.16418
5048497,282.202,39.26,97981.0,1.16418
5058437,282.118,39.26,97982.0,1.16419
5069483,282.374,39.26,97979.0,1.16415
5090447,281.946,39.26,97984.0,1.16421
5100615,281.946,39.26,97984.0,1.16421
5111533,281.946,39.26,97984.0,1.16421
5132662,282.374,39.26,97979.0,1.16415
5143734,282.718,39.26,97975.0,1.16411
5154550,281.946,39.26,97984.0,1.16421
5175544,282.29,39.27,97980.0,1.16416
5186447,282.033,39.27,97983.0,1.1642
5197478,282.033,39.27,97983.0,1.1642
5218444,282.033,39.27,97983.0,1.1642
5228577,282.033,39.27,97983.0,1.1642
5239488,282.118,39.27,97982.0,1.16419
5261447,281.862,39.27,97985.0,1.16422
5272866,282.459,39.27,97978.0,1.16414
5284134,281.774,39.27,97986.0,1.16424
5305436,282.374,39.27,97979.0,1.16415
5316469,282.202,39.27,97981.0,1.16418
5327532,282.033,39.27,97983.0,1.1642
5349436,282.546,39.27,97977.0,1.16413
5359545,282.29,39.27,97980.0,1.16416
5370478,282.63,39.27,97976.0,1.16412
5392499,282.374,39.28,97979.0,1.16415
5402439,281.946,39.28,97984.0,1.16421
5413438,281.946,39.28,97984.0,1.16421
5434461,282.718,39.29,97975.0,1.16411
5445494,282.118,39.29,97982.0,1.16419
5456533,282.718,39.29,97975.0,1.16411
5478493,282.202,39.28,97981.0,1.16418
5489436,282.374,39.28,97979.0,1.16415
5500517,282.459,39.28,97978.0,1.16414
5522450,282.459,39.29,97978.0,1.16414
5533449,282.202,39.29,97981.0,1.16418
5543540,281.946,39.29,97984.0,1.16421
5565447,281.946,39.29,97984.0,1.16421
5576573,282.29,39.29,97980.0,1.16416
5588557,281.946,39.29,97984.0,1.16421
5610449,282.374,39.29,97979.0,1.16415
5621467,282.374,39.29,97979.0,1.16415
5632539,282.802,39.29,97974.0,1.16409
5654449,282.202,39.29,97981.0,1.16418
5665449,282.374,39.29,97979.0,1.16415
5676594,281.862,39.29,97985.0,1.16422
5698450,282.374,39.29,97979.0,1.16415
5709450,282.033,39.29,97983.0,1.1642
5720544,282.29,39.29,97980.0,1.16416
5742517,281.862,39.29,97985.0,1.16422
5753435,282.374,39.29,97979.0,1.16415
5764786,281.946,39.29,97984.0,1.16421
5788542,281.862,39.29,97985.0,1.16422
5799795,282.374,39.29,97979.0,1.16415
5810450,282.033,39.29,97983.0,1.1642
5832582,282.29,39.3,97980.0,1.16416
5842445,281.946,39.3,97984.0,1.16421
5853437,282.63,39.3,97976.0,1.16412
5876519,281.774,39.3,97986.0,1.16424
5887579,282.202,39.3,97981.0,1.16418
5898450,282.29,39.3,97980.0,1.16416
5920536,281.774,39.3,97986.0,1.16424
5930437,282.374,39.3,97979.0,1.16415
5940554,282.118,39.3,97982.0,1.16419
5962435,282.202,39.3,97981.0,1.16418
5973481,282.29,39.3,97980.0,1.16416
5984521,282.202,39.3,97981.0,1.16418
6005448,282.459,39.31,97978.0,1.16414
6016589,282.29,39.31,97980.0,1.16416
6027439,282.033,39.31,97983.0,1.1642
6049073,282.374,39.31,97979.0,1.16415
6059439,282.29,39.31,97980.0,1.16416
6069493,282.374,39.31,97979.0,1.16415
6091448,282.374,39.31,97979.0,1.16415
6102386,282.033,39.31,97983.0,1.1642
6113065,282.118,39.31,97982.0,1.16419
6133735,281.946,39.32,97984.0,1.16421
6145069,282.374,39.32,97979.0,1.16415
6155446,281.946,39.32,97984.0,1.16421
6177046,282.033,39.32,97983.0,1.1642
6187446,282.202,39.32,97981.0,1.16418
6197508,282.29,39.32,97980.0,1.16416
6219450,282.033,39.32,97983.0,1.1642
6230416,282.202,39.32,97981.0,1.16418
6241067,282.546,39.32,97977.0,1.16413
6261538,282.033,39.32,97983.0,1.1642
6273130,282.202,39.32,97981.0,1.16418
6283436,282.29,39.32,97980.0,1.16416
6305134,282.118,39.32,97982.0,1.16419
6315435,282.459,39.32,97978.0,1.16414
6325730,282.459,39.32,97978.0,1.16414
6347498,281.862,39.33,97985.0,1.16422
6358351,282.118,39.33,97982.0,1.16419
6369405,282.374,39.33,97979.0,1.16415
6393141,282.202,39.33,97981.0,1.16418
6403435,282.29,39.33,97980.0,1.16416
6413489,281.946,39.33,97984.0,1.16421
6435435,281.862,39.33,97985.0,1.16422
6445521,282.29,39.33,97980.0,1.16416
6457124,282.374,39.33,97979.0,1.16415
6478578,281.774,39.33,97986.0,1.16424
6489099,282.546,39.33,97977.0,1.16413
6499545,281.774,39.33,97986.0,1.16424
6521381,281.69,39.33,97987.0,1.16425
6531436,282.546,39.33,97977.0,1.16413
6541715,282.118,39.33,97982.0,1.16419
6563447,281.946,39.34,97984.0,1.16421
6573956,281.349,39.34,97991.0,1.1643
6585146,282.202,39.34,97981.0,1.16418
6606439,282.374,39.34,97979.0,1.16415
6617102,282.033,39.34,97983.0,1.1642
6627476,282.459,39.34,97978.0,1.16414
6649137,282.29,39.34,97980.0,1.16416
6659481,282.033,39.34,97983.0,1.1642
6669536,281.946,39.34,97984.0,1.16421
6691435,281.69,39.34,97987.0,1.16425
6702268,282.118,39.34,97982.0,1.16419
6713115,281.69,39.34,97987.0,1.16425
6733514,281.946,39.34,97984.0,1.16421
6745091,282.202,39.34,97981.0,1.16418
6755436,282.546,39.34,97977.0,1.16413
6777113,282.29,39.34,97980.0,1.16416
6787474,282.202,39.34,97981.0,1.16418
6797742,282.718,39.34,97975.0,1.16411
6821527,282.118,39.35,97982.0,1.16419
6833114,282.29,39.35,97980.0,1.16416
6843446,282.202,39.35,97981.0,1.16418
6865055,281.946,39.34,97984.0,1.16421
6875435,282.459,39.34,97978.0,1.16414
6885486,282.718,39.34,97975.0,1.16411
6907436,282.033,39.35,97983.0,1.1642
6918472,281.862,39.35,97985.0,1.16422
6929051,282.033,39.35,97983.0,1.1642
6950483,281.946,39.35,97984.0,1.16421
6961093,282.202,39.35,97981.0,1.16418
6971469,282.118,39.35,97982.0,1.16419
6993101,281.862,39.35,97985.0,1.16422
7003545,282.459,39.35,97978.0,1.16414
7013632,282.459,39.35,97978.0,1.16414
7035435,281.946,39.36,97984.0,1.16421
7046146,282.374,39.36,97979.0,1.16415
7057060,282.033,39.36,97983.0,1.1642
7078463,282.118,39.35,97982.0,1.16419
7089348,281.69,39.35,97987.0,1.16425
7099435,282.29,39.35,97980.0,1.16416
7121099,282.033,39.36,97983.0,1.1642
7131435,281.774,39.36,97986.0,1.16424
7141624,282.033,39.36,97983.0,1.1642
7163435,281.946,39.36,97984.0,1.16421
7174309,282.202,39.36,97981.0,1.16418
7185091,282.118,39.36,97982.0,1.16419
7206435,282.29,39.36,97980.0,1.16416
7217131,282.118,39.36,97982.0,1.16419
7227456,282.63,39.36,97976.0,1.16412
7247464,281.946,39.36,97984.0,1.16421
7258435,282.202,39.36,97981.0,1.16418
7269570,282.718,39.36,97975.0,1.16411
7291447,282.033,39.37,97983.0,1.1642
7302315,282.033,39.37,97983.0,1.1642
7313109,282.033,39.37,97983.0,1.1642
7334437,282.033,39.37,97983.0,1.1642
7345112,282.29,39.37,97980.0,1.16416
7355446,282.29,39.37,97980.0,1.16416
7377099,282.546,39.37,97977.0,1.16413
7387510,281.862,39.37,97985.0,1.16422
7397761,282.202,39.37,97981.0,1.16418
7419487,281.946,39.38,97984.0,1.16421
7429875,281.774,39.38,97986.0,1.16424
7441146,282.033,39.38,97983.0,1.1642
7462101,281.774,39.38,97986.0,1.16424
7473109,281.862,39.38,97985.0,1.16422
7483436,282.118,39.38,97982.0,1.16419
7505115,282.118,39.37,97982.0,1.16419
7515493,282.118,39.37,97982.0,1.16419
7525715,282.374,39.37,97979.0,1.16415
7547436,282.033,39.38,97983.0,1.1642
7557906,282.202,39.38,97981.0,1.16418
7569270,282.202,39.38,97981.0,1.16418
7589491,282.202,39.38,97981.0,1.16418
7601144,281.774,39.38,97986.0,1.16424
7611447,282.29,39.38,97980.0,1.16416
7633123,282.374,39.38,97979.0,1.16415
7643486,282.202,39.38,97981.0,1.16418
7654508,282.033,39.38,97983.0,1.1642
7675505,281.862,39.38,97985.0,1.16422
7685859,282.118,39.38,97982.0,1.16419
7696589,281.69,39.38,97987.0,1.16425
7717503,282.118,39.39,97982.0,1.16419
7727990,282.374,39.39,97979.0,1.16415
7738975,282.718,39.39,97975.0,1.16411
7760493,282.29,39.38,97980.0,1.16416
7771460,282.118,39.38,97982.0,1.16419
7781469,282.033,39.38,97983.0,1.1642
7803484,282.374,39.39,97979.0,1.16415
7815548,282.459,39.39,97978.0,1.16414
7826672,281.946,39.39,97984.0,1.16421
7848535,282.033,39.39,97983.0,1.1642
7859489,282.033,39.39,97983.0,1.1642
7871896,282.718,39.39,97975.0,1.16411
7893446,281.774,39.39,97986.0,1.16424
7904622,282.29,39.39,97980.0,1.16416
7915445,281.774,39.39,97986.0,1.16424
7936517,282.202,39.39,97981.0,1.16418
7946656,281.946,39.39,97984.0,1.16421
7957480,282.374,39.39,97979.0,1.16415
7979444,281.946,39.39,97984.0,1.16421
7989469,282.374,39.39,97979.0,1.16415
8000524,282.118,39.39,97982.0,1.16419
8021447,281.774,39.4,97986.0,1.16424
8032194,282.118,39.4,97982.0,1.16419
8042710,282.202,39.4,97981.0,1.16418
8064516,282.374,39.4,97979.0,1.16415
8074921,282.118,39.4,97982.0,1.16419
8085436,282.033,39.4,97983.0,1.1642
8106719,281.862,39.4,97985.0,1.16422
8117435,282.202,39.4,97981.0,1.16418
8128536,282.546,39.4,97977.0,1.16413
8151134,282.033,39.4,97983.0,1.1642
8161437,281.69,39.4,97987.0,1.16425
8172577,281.69,39.4,97987.0,1.16425
8194734,282.202,39.4,97981.0,1.16418
8205453,282.374,39.4,97979.0,1.16415
8215824,282.374,39.4,97979.0,1.16415
8237513,282.118,39.4,97982.0,1.16419
8248559,282.033,39.4,97983.0,1.1642
8259541,281.69,39.4,97987.0,1.16425
8280579,281.605,39.41,97988.0,1.16426
8291096,282.202,39.41,97981.0,1.16418
8301483,281.946,39.41,97984.0,1.16421
8323031,282.459,39.41,97978.0,1.16414
8333448,282.033,39.41,97983.0,1.1642
8344493,282.033,39.41,97983.0,1.1642
8365435,282.118,39.41,97982.0,1.16419
8376027,282.29,39.41,97980.0,1.16416
8387082,282.118,39.41,97982.0,1.16419
8407570,282.033,39.41,97983.0,1.1642
8419024,282.033,39.41,97983.0,1.1642
8429435,282.374,39.41,97979.0,1.16415
8451017,282.29,39.41,97980.0,1.16416
8461441,282.202,39.41,97981.0,1.16418
8472469,282.202,39.41,97981.0,1.16418
8493438,281.349,39.42,97991.0,1.1643
8503890,282.118,39.42,97982.0,1.16419
8514980,282.63,39.42,97976.0,1.16412
8535455,282.29,39.41,97980.0,1.16416
8546980,282.202,39.41,97981.0,1.16418
8557455,282.118,39.41,97982.0,1.16419
8579930,281.946,39.42,97984.0,1.16421
8590482,281.69,39.42,97987.0,1.16425
8601440,282.033,39.42,97983.0,1.1642
8623449,281.862,39.42,97985.0,1.16422
8634467,282.63,39.42,97976.0,1.16412
8645436,281.774,39.42,97986.0,1.16424
8666435,282.202,39.42,97981.0,1.16418
8676577,282.202,39.42,97981.0,1.16418
8687466,282.29,39.42,97980.0,1.16416
8708576,281.862,39.42,97985.0,1.16422
8719450,281.862,39.42,97985.0,1.16422
8730436,282.118,39.42,97982.0,1.16419
8752813,282.033,39.42,97983.0,1.1642
8763476,282.118,39.42,97982.0,1.16419
8774446,282.374,39.42,97979.0,1.16415
8796585,282.118,39.43,97982.0,1.16419
8807446,281.774,39.43,97986.0,1.16424
8818482,282.033,39.43,97983.0,1.1642
8839479,282.718,39.42,97975.0,1.16411
8850436,282.29,39.42,97980.0,1.16416
8860715,281.946,39.42,97984.0,1.16421
8882701,281.862,39.43,97985.0,1.16422
8894236,282.202,39.43,97981.0,1.16418
8904529,282.459,39.43,97978.0,1.16414
8926201,281.774,39.43,97986.0,1.16424
8936529,281.946,39.43,97984.0,1.16421
8946451,282.202,39.43,97981.0,1.16418
8968581,282.459,39.43,97978.0,1.16414
8979053,282.374,39.43,97979.0,1.16415
8990324,282.459,39.43,97978.0,1.16414
9011437,282.202,39.43,97981.0,1.16418
9022204,282.118,39.43,97982.0,1.16419
9032529,282.033,39.43,97983.0,1.1642
9054225,282.202,39.44,97981.0,1.16418
9064543,281.862,39.44,97985.0,1.16422
9074544,282.118,39.44,97982.0,1.16419
9096552,282.033,39.44,97983.0,1.1642
9107257,282.202,39.44,97981.0,1.16418
9118283,281.862,39.44,97985.0,1.16422
9139437,281.946,39.44,97984.0,1.16421
9150295,282.202,39.44,97981.0,1.16418
9160544,281.946,39.44,97984.0,1.16421
9182326,281.774,39.44,97986.0,1.16424
9192585,282.459,39.44,97978.0,1.16414
9202474,281.862,39.44,97985.0,1.16422
9224575,281.605,39.45,97988.0,1.16426
9235307,282.118,39.45,97982.0,1.16419
9246243,281.946,39.45,97984.0,1.16421
9266582,282.118,39.44,97982.0,1.16419
9278314,282.459,39.44,97978.0,1.16414
9288572,282.118,39.44,97982.0,1.16419
9310445,282.118,39.45,97982.0,1.16419
9320502,282.033,39.45,97983.0,1.1642
9331157,282.29,39.45,97980.0,1.16416
9352492,282.29,39.45,97980.0,1.16416
9363138,281.862,39.45,97985.0,1.16422
9374277,282.033,39.45,97983.0,1.1642
9395435,282.374,39.44,97979.0,1.16415
9406438,282.202,39.44,97981.0,1.16418
9416541,282.459,39.44,97978.0,1.16414
9438241,282.033,39.45,97983.0,1.1642
9448522,282.033,39.45,97983.0,1.1642
9458974,282.29,39.45,97980.0,1.16416
9479435,282.374,39.45,97979.0,1.16415
9491160,282.202,39.45,97981.0,1.16418
9502183,281.862,39.45,97985.0,1.16422
9523452,282.033,39.46,97983.0,1.1642
9534450,281.774,39.46,97986.0,1.16424
9544530,282.29,39.46,97980.0,1.16416
9566486,281.946,39.46,97984.0,1.16421
9576536,281.862,39.46,97985.0,1.16422
9586493,282.459,39.46,97978.0,1.16414
9608517,281.774,39.46,97986.0,1.16424
9619031,281.946,39.46,97984.0,1.16421
9630257,282.202,39.46,97981.0,1.16418
9651440,282.374,39.46,97979.0,1.16415
9662290,282.29,39.46,97980.0,1.16416
9671448,281.774,39.46,97986.0,1.16424
9694217,281.862,39.46,97985.0,1.16422
9704536,282.118,39.46,97982.0,1.16419
9715198,282.29,39.46,97980.0,1.16416
9736538,282.29,39.46,97980.0,1.16416
9747042,282.118,39.46,97982.0,1.16419
9758218,282.459,39.46,97978.0,1.16414
9779435,282.459,39.46,97978.0,1.16414
9790269,282.118,39.46,97982.0,1.16419
9800523,282.459,39.46,97978.0,1.16414
9823435,282.718,39.46,97975.0,1.16411
9835236,282.118,39.46,97982.0,1.16419
9846170,282.033,39.46,97983.0,1.1642
9866454,282.033,39.47,97983.0,1.1642
9878295,281.862,39.47,97985.0,1.16422
9888527,281.946,39.47,97984.0,1.16421
9910262,282.202,39.47,97981.0,1.16418
9920545,282.718,39.47,97975.0,1.16411
9931253,282.202,39.47,97981.0,1.16418
9952530,282.118,39.47,97982.0,1.16419
9963437,281.774,39.47,97986.0,1.16424
9974222,281.946,39.47,97984.0,1.16421
9995435,282.118,39.47,97982.0,1.16419
10006202,282.374,39.47,97979.0,1.16415
10016533,281.946,39.47,97984.0,1.16421
10038257,281.946,39.47,97984.0,1.16421
10048496,282.546,39.47,97977.0,1.16413
10058541,282.033,39.47,97983.0,1.1642
10080492,282.033,39.48,97983.0,1.1642
10091435,281.69,39.48,97987.0,1.16425
10102259,282.29,39.48,97980.0,1.16416
10122665,282.118,39.47,97982.0,1.16419
10134301,281.605,39.47,97988.0,1.16426
10144493,282.459,39.47,97978.0,1.16414
10166301,282.118,39.47,97982.0,1.16419
10176496,282.118,39.47,97982.0,1.16419
10186483,282.118,39.47,97982.0,1.16419
10208548,282.202,39.48,97981.0,1.16418
10219285,282.033,39.48,97983.0,1.1642
10230275,282.118,39.48,97982.0,1.16419
10250599,282.29,39.48,97980.0,1.16416
10261446,282.033,39.48,97983.0,1.1642
10272564,282.033,39.48,97983.0,1.1642
10294978,282.118,39.49,97982.0,1.16419
10305435,282.202,39.49,97981.0,1.16418
10317460,281.862,39.49,97985.0,1.16422
10339447,282.374,39.49,97979.0,1.16415
10349955,282.118,39.49,97982.0,1.16419
10360735,282.033,39.49,97983.0,1.1642
10382435,282.546,39.48,97977.0,1.16413
10392731,282.459,39.48,97978.0,1.16414
10403437,281.69,39.48,97987.0,1.16425
10424627,281.946,39.49,97984.0,1.16421
10435447,282.29,39.49,97980.0,1.16416
10446435,282.374,39.49,97979.0,1.16415
10467447,282.459,39.49,97978.0,1.16414
10477661,281.605,39.49,97988.0,1.16426
10488696,282.118,39.49,97982.0,1.16419
10510438,281.69,39.49,97987.0,1.16425
10520684,282.118,39.49,97982.0,1.16419
10531447,281.774,39.49,97986.0,1.16424
10552585,282.033,39.49,97983.0,1.1642
10563448,282.202,39.49,97981.0,1.16418
10574450,282.374,39.49,97979.0,1.16415
10595435,282.374,39.49,97979.0,1.16415
10605459,282.718,39.49,97975.0,1.16411
10616635,282.202,39.49,97981.0,1.16418
10638435,282.546,39.49,97977.0,1.16413
10648656,281.946,39.49,97984.0,1.16421
10659435,282.459,39.49,97978.0,1.16414
10680659,282.033,39.5,97983.0,1.1642
10691521,281.774,39.5,97986.0,1.16424
10702439,282.459,39.5,97978.0,1.16414
10723448,281.774,39.5,97986.0,1.16424
10733750,281.605,39.5,97988.0,1.16426
10744643,281.862,39.5,97985.0,1.16422
10766435,282.374,39.5,97979.0,1.16415
10776736,281.946,39.5,97984.0,1.16421
10787446,282.374,39.5,97979.0,1.16415
10808595,282.374,39.5,97979.0,1.16415
10819447,282.374,39.5,97979.0,1.16415
10830435,282.202,39.5,97981.0,1.16418
10852858,282.118,39.5,97982.0,1.16419
10863464,282.546,39.5,97977.0,1.16413
10874435,281.946,39.5,97984.0,1.16421
10896560,282.546,39.5,97977.0,1.16413
10907469,282.033,39.5,97983.0,1.1642
10918479,282.202,39.5,97981.0,1.16418
10939491,282.118,39.5,97982.0,1.16419
10950435,282.546,39.5,97977.0,1.16413
10961444,281.774,39.5,97986.0,1.16424
10982435,281.862,39.5,97985.0,1.16422
10993436,282.29,39.5,97980.0,1.16416
11004816,282.29,39.5,97980.0,1.16416
11026446,282.546,39.5,97977.0,1.16413
11037437,282.202,39.5,97981.0,1.16418
11048622,282.118,39.5,97982.0,1.16419
11070456,281.69,39.51,97987.0,1.16425
11080682,281.946,39.51,97984.0,1.16421
11091449,282.118,39.51,97982.0,1.16419
11113435,282.459,39.51,97978.0,1.16414
11123437,282.202,39.51,97981.0,1.16418
11134435,282.202,39.51,97981.0,1.16418
11155435,281.946,39.51,97984.0,1.16421
11165658,282.29,39.51,97980.0,1.16416
11176647,281.946,39.51,97984.0,1.16421
11198467,282.202,39.51,97981.0,1.16418
11209443,281.862,39.51,97985.0,1.16422
11220985,282.29,39.51,97980.0,1.16416
11242435,281.518,39.51,97989.0,1.16427
11253437,282.202,39.51,97981.0,1.16418
11264663,282.29,39.51,97980.0,1.16416
11286435,282.033,39.52,97983.0,1.1642
11297437,281.946,39.52,97984.0,1.16421
11309828,282.033,39.52,97983.0,1.1642
11331448,281.69,39.52,97987.0,1.16425
11342435,281.862,39.52,97985.0,1.16422
11353484,282.202,39.52,97981.0,1.16418
11374479,282.29,39.51,97980.0,1.16416
11384653,281.862,39.51,97985.0,1.16422
11395491,282.033,39.51,97983.0,1.1642
11417435,282.033,39.52,97983.0,1.1642
11427455,282.63,39.52,97976.0,1.16412
11438435,282.29,39.52,97980.0,1.16416
11459449,282.29,39.52,97980.0,1.16416
11469698,282.033,39.52,97983.0,1.1642
11480669,282.29,39.52,97980.0,1.16416
11502435,281.774,39.52,97986.0,1.16424
11513437,282.202,39.52,97981.0,1.16418
11524871,282.118,39.52,97982.0,1.16419
11546441,281.774,39.52,97986.0,1.16424
11557679,281.774,39.52,97986.0,1.16424
11569358,282.374,39.52,97979.0,1.16415
11589853,282.546,39.52,97977.0,1.16413
11601380,282.29,39.52,97980.0,1.16416
11611444,282.118,39.52,97982.0,1.16419
11634268,282.033,39.53,97983.0,1.1642
11644512,281.946,39.53,97984.0,1.16421
11654442,282.118,39.53,97982.0,1.16419
11676483,281.774,39.53,97986.0,1.16424
11688118,282.459,39.53,97978.0,1.16414
11699033,282.29,39.53,97980.0,1.16416
11720584,282.118,39.53,97982.0,1.16419
11731130,282.033,39.53,97983.0,1.1642
11741448,281.862,39.53,97985.0,1.16422
11762981,282.033,39.53,97983.0,1.1642
11773453,282.202,39.53,97981.0,1.16418
11783472,282.374,39.53,97979.0,1.16415
11805477,282.033,39.53,97983.0,1.1642
11816494,282.374,39.53,97979.0,1.16415
11828264,282.033,39.53,97983.0,1.1642
11848544,282.29,39.53,97980.0,1.16416
11858999,282.29,39.53,97980.0,1.16416
11869436,282.459,39.53,97978.0,1.16414
11890449,282.118,39.53,97982.0,1.16419
11901453,282.118,39.53,97982.0,1.16419
11912559,281.946,39.53,97984.0,1.16421
11934533,281.946,39.54,97984.0,1.16421
11945452,281.946,39.54,97984.0,1.16421
11955874,281.69,39.54,97987.0,1.16425
11976866,282.118,39.54,97982.0,1.16419
11987907,282.033,39.54,97983.0,1.1642
11998435,281.605,39.54,97988.0,1.16426
12020495,281.946,39.54,97984.0,1.16421
12030435,281.946,39.54,97984.0,1.16421
12041440,282.033,39.54,97983.0,1.1642
12062450,282.202,39.54,97981.0,1.16418
12073325,282.202,39.54,97981.0,1.16418
12083822,282.118,39.54,97982.0,1.16419
12105447,282.29,39.54,97980.0,1.16416
12115915,282.459,39.54,97978.0,1.16414
12126437,282.118,39.54,97982.0,1.16419
12148498,282.033,39.55,97983.0,1.1642
12160249,281.946,39.55,97984.0,1.16421
12170435,282.202,39.55,97981.0,1.16418
12192655,281.862,39.55,97985.0,1.16422
12203936,281.69,39.55,97987.0,1.16425
12214468,282.033,39.55,97983.0,1.1642
12235931,282.63,39.54,97976.0,1.16412
12246449,282.459,39.54,97978.0,1.16414
12257466,282.29,39.54,97980.0,1.16416
12280776,282.29,39.54,97980.0,1.16416
12290444,281.946,39.54,97984.0,1.16421
12301437,282.118,39.54,97982.0,1.16419
12323882,281.946,39.55,97984.0,1.16421
12334435,281.774,39.55,97986.0,1.16424
12345435,282.29,39.55,97980.0,1.16416
12369386,282.29,39.55,97980.0,1.16416
12379918,282.033,39.55,97983.0,1.1642
12390435,282.202,39.55,97981.0,1.16418
12411893,282.29,39.55,97980.0,1.16416
12422446,281.946,39.55,97984.0,1.16421
12433446,282.374,39.55,97979.0,1.16415
12454435,281.862,39.55,97985.0,1.16422
12465443,282.033,39.55,97983.0,1.1642
12476528,282.459,39.55,97978.0,1.16414
12497469,282.033,39.56,97983.0,1.1642
12507917,282.29,39.56,97980.0,1.16416
12518448,282.033,39.56,97983.0,1.1642
12540543,281.862,39.56,97985.0,1.16422
12551436,282.033,39.56,97983.0,1.1642
12562493,281.946,39.56,97984.0,1.16421
12584558,282.374,39.56,97979.0,1.16415
12595490,282.202,39.56,97981.0,1.16418
12606203,282.033,39.56,97983.0,1.1642
12627437,281.946,39.55,97984.0,1.16421
12638349,282.202,39.55,97981.0,1.16418
12648595,282.033,39.55,97983.0,1.1642
12670351,281.518,39.56,97989.0,1.16427
12680573,282.202,39.56,97981.0,1.16418
12691445,282.202,39.56,97981.0,1.16418
12712554,281.774,39.56,97986.0,1.16424
12723318,281.946,39.56,97984.0,1.16421
12734287,281.774,39.56,97986.0,1.16424
12754612,282.202,39.56,97981.0,1.16418
12766253,282.29,39.56,97980.0,1.16416
12776648,282.118,39.56,97982.0,1.16419
12798476,281.946,39.56,97984.0,1.16421
12808556,281.946,39.56,97984.0,1.16421
12819047,282.118,39.56,97982.0,1.16419
12840538,281.946,39.57,97984.0,1.16421
12851362,282.374,39.57,97979.0,1.16415
12862326,282.033,39.57,97983.0,1.1642
12882512,282.118,39.57,97982.0,1.16419
12894232,282.202,39.57,97981.0,1.16418
12904602,282.118,39.57,97982.0,1.16419
12926286,281.518,39.57,97989.0,1.16427
12936560,282.202,39.57,97981.0,1.16418
12947011,281.605,39.57,97988.0,1.16426
12968557,281.946,39.57,97984.0,1.16421
12979075,281.862,39.57,97985.0,1.16422
12990308,282.202,39.57,97981.0,1.16418
13010530,281.518,39.57,97989.0,1.16427
13022220,282.033,39.57,97983.0,1.1642
13032583,282.202,39.57,97981.0,1.16418
13054239,282.118,39.57,97982.0,1.16419
13064595,282.118,39.57,97982.0,1.16419
13075542,282.118,39.57,97982.0,1.16419
13097511,281.946,39.57,97984.0,1.16421
13107895,281.946,39.57,97984.0,1.16421
13119041,282.118,39.57,97982.0,1.16419
13140580,282.63,39.58,97976.0,1.16412
13151150,281.946,39.58,97984.0,1.16421
13161464,282.033,39.58,97983.0,1.1642
13183490,282.202,39.58,97981.0,1.16418
13196096,282.202,39.58,97981.0,1.16418
13206474,282.546,39.58,97977.0,1.16413
13227469,281.774,39.58,97986.0,1.16424
13237470,281.946,39.58,97984.0,1.16421
13248692,282.033,39.58,97983.0,1.1642
13270469,282.459,39.57,97978.0,1.16414
13280840,282.202,39.57,97981.0,1.16418
13291464,282.546,39.57,97977.0,1.16413
13312716,281.774,39.58,97986.0,1.16424
13323485,282.374,39.58,97979.0,1.16415
13334468,282.118,39.58,97982.0,1.16419
13355485,281.433,39.58,97990.0,1.16428
13366469,282.202,39.58,97981.0,1.16418
13377468,282.118,39.58,97982.0,1.16419
13400730,281.862,39.58,97985.0,1.16422
13411481,281.862,39.58,97985.0,1.16422
13422465,281.946,39.58,97984.0,1.16421
13443485,281.862,39.58,97985.0,1.16422
13454469,282.118,39.58,97982.0,1.16419
13464655,282.202,39.58,97981.0,1.16418
13486525,281.433,39.58,97990.0,1.16428
13496642,282.202,39.58,97981.0,1.16418
13507535,281.69,39.58,97987.0,1.16425
13529486,281.862,39.59,97985.0,1.16422
13541559,281.774,39.59,97986.0,1.16424
13552635,282.202,39.59,97981.0,1.16418
13574469,281.518,39.59,97989.0,1.16427
13584660,281.946,39.59,97984.0,1.16421
13595468,281.862,39.59,97985.0,1.16422
13617474,282.033,39.58,97983.0,1.1642
13627470,282.033,39.58,97983.0,1.1642
13638464,282.374,39.58,97979.0,1.16415
13659512,282.802,39.59,97974.0,1.16409
13670469,282.29,39.59,97980.0,1.16416
13681529,282.202,39.59,97981.0,1.16418
13702469,281.946,39.59,97984.0,1.16421
13712655,282.033,39.59,97983.0,1.1642
13723466,282.202,39.59,97981.0,1.16418
13744795,282.118,39.59,97982.0,1.16419
13755526,281.946,39.59,97984.0,1.16421
13765774,282.118,39.59,97982.0,1.16419
13789761,282.459,39.59,97978.0,1.16414
13801499,281.946,39.59,97984.0,1.16421
13814291,282.202,39.59,97981.0,1.16418
13839860,281.774,39.59,97986.0,1.16424
13849519,281.774,39.59,97986.0,1.16424
13862295,282.118,39.59,97982.0,1.16419
13883469,281.862,39.59,97985.0,1.16422
13893778,282.29,39.59,97980.0,1.16416
13905452,282.118,39.59,97982.0,1.16419
13929419,282.118,39.59,97982.0,1.16419
13939481,282.29,39.59,97980.0,1.16416
13950534,281.862,39.59,97985.0,1.16422
13971521,282.202,39.59,97981.0,1.16418
13981859,281.946,39.59,97984.0,1.16421
13993528,282.374,39.59,97979.0,1.16415
14013698,281.946,39.59,97984.0,1.16421
14025468,282.374,39.59,97979.0,1.16415
14038465,282.374,39.59,97979.0,1.16415
14059470,282.118,39.59,97982.0,1.16419
14069817,282.459,39.59,97978.0,1.16414
14081513,282.118,39.59,97982.0,1.16419
14105409,281.946,39.6,97984.0,1.16421
14115469,282.118,39.6,97982.0,1.16419
14126436,282.459,39.6,97978.0,1.16414
14147470,281.862,39.6,97985.0,1.16422
14158471,281.862,39.6,97985.0,1.16422
14169468,282.202,39.6,97981.0,1.16418
14193474,282.202,39.6,97981.0,1.16418
14203509,282.202,39.6,97981.0,1.16418
14214261,282.374,39.6,97979.0,1.16415
14235480,281.862,39.6,97985.0,1.16422
14245718,281.862,39.6,97985.0,1.16422
14257533,282.033,39.6,97983.0,1.1642
14281466,282.033,39.6,97983.0,1.1642
14293707,281.862,39.6,97985.0,1.16422
14305504,281.69,39.6,97987.0,1.16425
14326575,281.862,39.6,97985.0,1.16422
14337579,281.69,39.6,97987.0,1.16425
14350334,281.946,39.6,97984.0,1.16421
14374285,282.033,39.6,97983.0,1.1642
14385506,281.69,39.6,97987.0,1.16425
14398193,282.374,39.6,97979.0,1.16415
14422220,281.946,39.6,97984.0,1.16421
14433500,281.946,39.6,97984.0,1.16421
14445915,282.118,39.6,97982.0,1.16419
14470247,282.118,39.6,97982.0,1.16419
14481472,282.29,39.6,97980.0,1.16416
14493699,282.29,39.6,97980.0,1.16416
14517795,282.374,39.6,97979.0,1.16415
14529435,282.374,39.6,97979.0,1.16415
14541849,282.033,39.6,97983.0,1.1642
14565785,282.459,39.6,97978.0,1.16414
14577454,282.63,39.6,97976.0,1.16412
14589786,281.946,39.6,97984.0,1.16421
14613695,281.862,39.6,97985.0,1.16422
14625502,282.459,39.6,97978.0,1.16414
14637738,282.459,39.6,97978.0,1.16414
14659494,282.118,39.6,97982.0,1.16419
14670123,282.118,39.6,97982.0,1.16419
14681430,281.946,39.6,97984.0,1.16421
14702212,281.862,39.61,97985.0,1.16422
14713434,282.033,39.61,97983.0,1.1642
14723475,282.63,39.61,97976.0,1.16412
14745414,282.202,39.61,97981.0,1.16418
14755480,281.69,39.61,97987.0,1.16425
14765649,282.202,39.61,97981.0,1.16418
14787481,282.29,39.62,97980.0,1.16416
14798520,282.63,39.62,97976.0,1.16412
14809443,282.033,39.62,97983.0,1.1642
14833398,281.946,39.61,97984.0,1.16421
14843469,282.033,39.61,97983.0,1.1642
14853899,282.29,39.61,97980.0,1.16416
14877716,281.946,39.62,97984.0,1.16421
14889478,282.29,39.62,97980.0,1.16416
14902300,282.202,39.62,97981.0,1.16418
14923469,282.118,39.61,97982.0,1.16419
14934133,281.605,39.61,97988.0,1.16426
14945433,282.459,39.61,97978.0,1.16414
14969429,281.518,39.62,97989.0,1.16427
14979510,281.946,39.62,97984.0,1.16421
14990365,282.202,39.62,97981.0,1.16418
15011469,282.374,39.62,97979.0,1.16415
15022561,282.118,39.62,97982.0,1.16419
15033393,282.63,39.62,97976.0,1.16412
15053860,281.862,39.62,97985.0,1.16422
15065453,282.033,39.62,97983.0,1.1642
15078300,282.033,39.62,97983.0,1.1642
15102264,282.033,39.62,97983.0,1.1642
15113501,281.862,39.62,97985.0,1.16422
15126286,282.29,39.62,97980.0,1.16416
15147510,281.69,39.62,97987.0,1.16425
15157470,282.459,39.62,97978.0,1.16414
15167883,282.118,39.62,97982.0,1.16419
15189527,282.118,39.62,97982.0,1.16419
15200597,281.774,39.62,97986.0,1.16424
15211099,282.29,39.62,97980.0,1.16416
15232619,282.033,39.63,97983.0,1.1642
15243470,281.605,39.63,97988.0,1.16426
15253476,282.118,39.63,97982.0,1.16419
15275032,282.118,39.63,97982.0,1.16419
15285488,282.202,39.63,97981.0,1.16418
15295509,282.202,39.63,97981.0,1.16418
15317478,282.374,39.63,97979.0,1.16415
15328746,281.862,39.63,97985.0,1.16422
15339952,282.29,39.63,97980.0,1.16416
15361482,282.118,39.63,97982.0,1.16419
15371905,282.546,39.63,97977.0,1.16413
15382477,282.033,39.63,97983.0,1.1642
15403836,282.202,39.63,97981.0,1.16418
15414469,281.862,39.63,97985.0,1.16422
15425465,281.774,39.63,97986.0,1.16424
15446473,281.69,39.64,97987.0,1.16425
15456655,282.459,39.64,97978.0,1.16414
15467954,282.459,39.64,97978.0,1.16414
15488635,282.202,39.63,97981.0,1.16418
15499481,282.202,39.63,97981.0,1.16418
15510468,282.546,39.63,97977.0,1.16413
15532593,282.033,39.64,97983.0,1.1642
15543524,282.118,39.64,97982.0,1.16419
15554465,282.118,39.64,97982.0,1.16419
15576956,281.946,39.64,97984.0,1.16421
15587494,281.433,39.64,97990.0,1.16428
15598475,282.033,39.64,97983.0,1.1642
15620732,282.459,39.64,97978.0,1.16414
15631545,282.29,39.64,97980.0,1.16416
15642468,282.202,39.64,97981.0,1.16418
15663482,282.29,39.64,97980.0,1.16416
15674470,281.946,39.64,97984.0,1.16421
15685472,282.033,39.64,97983.0,1.1642
15706469,281.862,39.64,97985.0,1.16422
15717469,281.774,39.64,97986.0,1.16424
15728862,282.118,39.64,97982.0,1.16419
15750323,281.862,39.64,97985.0,1.16422
15760542,282.118,39.64,97982.0,1.16419
15771483,282.033,39.64,97983.0,1.1642
15792542,282.202,39.65,97981.0,1.16418
15803141,281.946,39.65,97984.0,1.16421
15814296,282.374,39.65,97979.0,1.16415
15834750,282.118,39.65,97982.0,1.16419
15846332,281.605,39.65,97988.0,1.16426
15856545,282.29,39.65,97980.0,1.16416
15878420,282.459,39.64,97978.0,1.16414
15888559,282.118,39.64,97982.0,1.16419
15898566,282.118,39.64,97982.0,1.16419
15920527,282.033,39.65,97983.0,1.1642
15931472,282.202,39.65,97981.0,1.16418
15942244,282.033,39.65,97983.0,1.1642
15962753,282.118,39.65,97982.0,1.16419
15974273,282.29,39.65,97980.0,1.16416
15984557,282.118,39.65,97982.0,1.16419
16006285,282.29,39.65,97980.0,1.16416
16016564,282.033,39.65,97983.0,1.1642
16027509,282.374,39.65,97979.0,1.16415
16050606,282.118,39.65,97982.0,1.16419
16062301,282.033,39.65,97983.0,1.1642
16072648,282.118,39.65,97982.0,1.16419
16094269,281.862,39.66,97985.0,1.16422
16104565,282.202,39.66,97981.0,1.16418
16114729,281.774,39.66,97986.0,1.16424
16136653,282.29,39.65,97980.0,1.16416
16147032,282.118,39.65,97982.0,1.16419
16158324,282.118,39.65,97982.0,1.16419
16178560,282.202,39.66,97981.0,1.16418
16190307,281.774,39.66,97986.0,1.16424
16200521,282.459,39.66,97978.0,1.16414
16222248,282.033,39.66,97983.0,1.1642
16232557,282.202,39.66,97981.0,1.16418
16243560,282.202,39.66,97981.0,1.16418
16264550,282.033,39.66,97983.0,1.1642
16275018,282.374,39.66,97979.0,1.16415
16286270,282.202,39.66,97981.0,1.16418
16306945,281.946,39.66,97984.0,1.16421
16318261,282.118,39.66,97982.0,1.16419
16328601,282.202,39.66,97981.0,1.16418
16350436,281.946,39.66,97984.0,1.16421
16360548,282.459,39.66,97978.0,1.16414
16371495,282.29,39.66,97980.0,1.16416
16392532,281.518,39.66,97989.0,1.16427
16403079,282.202,39.66,97981.0,1.16418
16414300,281.862,39.66,97985.0,1.16422
16434955,282.118,39.66,97982.0,1.16419
16446254,281.946,39.66,97984.0,1.16421
16456521,281.774,39.66,97986.0,1.16424
16478308,281.946,39.66,97984.0,1.16421
16488540,282.118,39.66,97982.0,1.16419
16499480,281.946,39.66,97984.0,1.16421
16520530,282.118,39.67,97982.0,1.16419
16531567,281.862,39.67,97985.0,1.16422
16542259,282.118,39.67,97982.0,1.16419
16562675,281.774,39.67,97986.0,1.16424
16574277,281.518,39.67,97989.0,1.16427
16584598,282.118,39.67,97982.0,1.16419
16606281,281.946,39.67,97984.0,1.16421
16616599,281.862,39.67,97985.0,1.16422
16626578,281.946,39.67,97984.0,1.16421
16648565,281.946,39.67,97984.0,1.16421
16659520,281.69,39.67,97987.0,1.16425
16670274,281.69,39.67,97987.0,1.16425
16690562,282.033,39.67,97983.0,1.1642
16702278,282.033,39.67,97983.0,1.1642
16712608,282.033,39.67,97983.0,1.1642
16734302,282.202,39.68,97981.0,1.16418
16744589,281.946,39.68,97984.0,1.16421
16754477,282.374,39.68,97979.0,1.16415
16776567,281.946,39.67,97984.0,1.16421
16787506,282.29,39.67,97980.0,1.16416
16798279,282.29,39.67,97980.0,1.16416
16818496,282.033,39.67,97983.0,1.1642
16830327,282.033,39.67,97983.0,1.1642
16840607,282.118,39.67,97982.0,1.16419
16862263,282.29,39.67,97980.0,1.16416
16872550,282.63,39.67,97976.0,1.16412
16882617,282.033,39.67,97983.0,1.1642
16904561,281.518,39.68,97989.0,1.16427
16915489,281.862,39.68,97985.0,1.16422
16926519,282.033,39.68,97983.0,1.1642
16950390,282.202,39.68,97981.0,1.16418
16960576,282.033,39.68,97983.0,1.1642
16971477,282.546,39.68,97977.0,1.16413
16992581,281.862,39.68,97985.0,1.16422
17003038,282.459,39.68,97978.0,1.16414
17014190,282.202,39.68,97981.0,1.16418
17034721,282.546,39.68,97977.0,1.16413
17046206,281.946,39.68,97984.0,1.16421
17056604,282.033,39.68,97983.0,1.1642
17078476,282.033,39.68,97983.0,1.1642
17089483,282.118,39.68,97982.0,1.16419
17100604,281.69,39.68,97987.0,1.16425
17121562,282.118,39.68,97982.0,1.16419
17132120,281.946,39.68,97984.0,1.16421
17143068,282.29,39.68,97980.0,1.16416
17164591,281.946,39.68,97984.0,1.16421
17175513,282.202,39.68,97981.0,1.16418
17186468,281.862,39.68,97985.0,1.16422
17208779,282.202,39.68,97981.0,1.16418
17219515,282.29,39.68,97980.0,1.16416
17230464,282.033,39.68,97983.0,1.1642
17251469,282.374,39.68,97979.0,1.16415
17261784,281.69,39.68,97987.0,1.16425
17272686,282.459,39.68,97978.0,1.16414
17294469,282.63,39.68,97976.0,1.16412
17305470,282.033,39.68,97983.0,1.1642
17317143,281.946,39.68,97984.0,1.16421
17338469,282.033,39.68,97983.0,1.1642
17349471,282.374,39.68,97979.0,1.16415
17362344,282.202,39.68,97981.0,1.16418
17382558,282.374,39.68,97979.0,1.16415
17392701,282.374,39.68,97979.0,1.16415
17403538,281.946,39.68,97984.0,1.16421
17425500,281.946,39.69,97984.0,1.16421
17435495,281.946,39.69,97984.0,1.16421
17446464,282.033,39.69,97983.0,1.1642
17467469,282.374,39.69,97979.0,1.16415
17477519,282.29,39.69,97980.0,1.16416
17488686,282.374,39.69,97979.0,1.16415
17510495,282.202,39.69,97981.0,1.16418
17521478,282.29,39.69,97980.0,1.16416
17533682,282.033,39.69,97983.0,1.1642
17555499,282.459,39.69,97978.0,1.16414
17566523,282.202,39.69,97981.0,1.16418
17577484,282.033,39.69,97983.0,1.1642
17598252,281.69,39.69,97987.0,1.16425
17609505,282.202,39.69,97981.0,1.16418
17622203,282.374,39.69,97979.0,1.16415
17643512,281.946,39.69,97984.0,1.16421
17653766,281.862,39.69,97985.0,1.16422
17665474,282.29,39.69,97980.0,1.16416
17689521,281.862,39.69,97985.0,1.16422
17701704,282.118,39.69,97982.0,1.16419
17713410,282.29,39.69,97980.0,1.16416
17734544,281.69,39.69,97987.0,1.16425
17745459,282.546,39.69,97977.0,1.16413
17755507,281.946,39.69,97984.0,1.16421
17776613,281.946,39.7,97984.0,1.16421
17787490,282.118,39.7,97982.0,1.16419
17799070,281.862,39.7,97985.0,1.16422
17819937,282.033,39.7,97983.0,1.1642
17830473,281.69,39.7,97987.0,1.16425
17840550,281.862,39.7,97985.0,1.16422
17862482,282.118,39.7,97982.0,1.16419
17872738,282.033,39.7,97983.0,1.1642
17883896,281.946,39.7,97984.0,1.16421
17905471,282.29,39.7,97980.0,1.16416
17915872,282.202,39.7,97981.0,1.16418
17926466,281.774,39.7,97986.0,1.16424
17947881,282.033,39.7,97983.0,1.1642
17958484,282.29,39.7,97980.0,1.16416
17969523,281.69,39.7,97987.0,1.16425
17991484,282.546,39.7,97977.0,1.16413
18002552,281.774,39.7,97986.0,1.16424
18013464,282.202,39.7,97981.0,1.16418
18034469,281.605,39.7,97988.0,1.16426
18044706,282.374,39.7,97979.0,1.16415
18055465,282.802,39.7,97974.0,1.16409
18076616,281.862,39.71,97985.0,1.16422
18087550,281.69,39.71,97987.0,1.16425
18098466,281.774,39.71,97986.0,1.16424
18119481,281.774,39.71,97986.0,1.16424
18130321,282.459,39.71,97978.0,1.16414
18141494,282.202,39.71,97981.0,1.16418
18165415,282.29,39.71,97980.0,1.16416
18175469,282.033,39.71,97983.0,1.1642
18185649,281.946,39.71,97984.0,1.16421
18207470,281.862,39.71,97985.0,1.16422
18217921,282.202,39.71,97981.0,1.16418
18229482,281.518,39.71,97989.0,1.16427
18253499,282.374,39.71,97979.0,1.16415
18265668,282.459,39.71,97978.0,1.16414
18277472,281.946,39.71,97984.0,1.16421
18300183,282.29,39.71,97980.0,1.16416
18311072,282.29,39.71,97980.0,1.16416
18321476,281.774,39.71,97986.0,1.16424
18343496,282.118,39.7,97982.0,1.16419
18353498,281.862,39.7,97985.0,1.16422
18364573,282.29,39.7,97980.0,1.16416
18385480,282.374,39.71,97979.0,1.16415
18395517,282.29,39.71,97980.0,1.16416
18407014,281.946,39.71,97984.0,1.16421
18428590,282.202,39.71,97981.0,1.16418
18439024,282.29,39.71,97980.0,1.16416
18449464,282.033,39.71,97983.0,1.1642
18471078,282.033,39.71,97983.0,1.1642
18481482,282.459,39.71,97978.0,1.16414
18492557,282.374,39.71,97979.0,1.16415
18513469,282.033,39.71,97983.0,1.1642
18523922,282.033,39.71,97983.0,1.1642
18535061,282.459,39.71,97978.0,1.16414
18555500,282.374,39.71,97979.0,1.16415
18567148,282.202,39.71,97981.0,1.16418
18577487,282.29,39.71,97980.0,1.16416
18599065,282.033,39.72,97983.0,1.1642
18609506,281.946,39.72,97984.0,1.16421
18620544,282.118,39.72,97982.0,1.16419
18643276,281.862,39.72,97985.0,1.16422
18652587,282.374,39.72,97979.0,1.16415
18663475,281.774,39.72,97986.0,1.16424
18687125,282.033,39.72,97983.0,1.1642
18697487,282.29,39.72,97980.0,1.16416
18708498,282.118,39.72,97982.0,1.16419
18729470,282.202,39.71,97981.0,1.16418
18740504,282.374,39.71,97979.0,1.16415
18751126,281.946,39.71,97984.0,1.16421
18772573,282.29,39.72,97980.0,1.16416
18783127,282.118,39.72,97982.0,1.16419
18793522,282.033,39.72,97983.0,1.1642
18815074,281.518,39.72,97989.0,1.16427
18825487,281.774,39.72,97986.0,1.16424
18836521,282.033,39.72,97983.0,1.1642
18857513,282.29,39.72,97980.0,1.16416
18868184,281.862,39.72,97985.0,1.16422
18879101,282.118,39.72,97982.0,1.16419
18900564,282.29,39.72,97980.0,1.16416
18911033,282.459,39.72,97978.0,1.16414
18921464,282.374,39.72,97979.0,1.16415
18943016,282.033,39.72,97983.0,1.1642
18953470,282.118,39.72,97982.0,1.16419
18964521,281.774,39.72,97986.0,1.16424
18985510,282.033,39.72,97983.0,1.1642
18995878,281.774,39.72,97986.0,1.16424
19007057,282.202,39.72,97981.0,1.16418
19028598,282.202,39.73,97981.0,1.16418
19039003,281.69,39.73,97987.0,1.16425
19049475,282.29,39.73,97980.0,1.16416
19071109,282.033,39.73,97983.0,1.1642
19081487,282.374,39.73,97979.0,1.16415
19092541,282.033,39.73,97983.0,1.1642
19113512,282.033,39.73,97983.0,1.1642
19123874,282.546,39.73,97977.0,1.16413
19135038,282.033,39.73,97983.0,1.1642
19156579,281.946,39.73,97984.0,1.16421
19167132,282.202,39.73,97981.0,1.16418
19177474,281.69,39.73,97987.0,1.16425
19199015,281.774,39.73,97986.0,1.16424
19209481,281.946,39.73,97984.0,1.16421
19220564,282.033,39.73,97983.0,1.1642
19241527,281.946,39.73,97984.0,1.16421
19252109,281.946,39.73,97984.0,1.16421
19263134,282.718,39.73,97975.0,1.16411
19284636,281.862,39.73,97985.0,1.16422
19295470,281.69,39.73,97987.0,1.16425
19307342,282.202,39.73,97981.0,1.16418
19328617,282.118,39.73,97982.0,1.16419
19340941,282.459,39.73,97978.0,1.16414
19352007,282.202,39.73,97981.0,1.16418
19373469,281.862,39.73,97985.0,1.16422
19383826,282.118,39.73,97982.0,1.16419
19394540,281.862,39.73,97985.0,1.16422
19416555,281.774,39.74,97986.0,1.16424
19426470,282.374,39.74,97979.0,1.16415
19437469,281.946,39.74,97984.0,1.16421
19458475,281.946,39.73,97984.0,1.16421
19468936,282.374,39.73,97979.0,1.16415
19479970,281.605,39.73,97988.0,1.16426
19501481,282.718,39.73,97975.0,1.16411
19511858,281.605,39.73,97988.0,1.16426
19522522,282.29,39.73,97980.0,1.16416
19543766,282.202,39.74,97981.0,1.16418
19554470,281.862,39.74,97985.0,1.16422
19565464,281.862,39.74,97985.0,1.16422
19586469,281.946,39.74,97984.0,1.16421
19597102,282.033,39.74,97983.0,1.1642
19607915,282.374,39.74,97979.0,1.16415
19629469,282.459,39.74,97978.0,1.16414
19639896,281.862,39.74,97985.0,1.16422
19650486,282.033,39.74,97983.0,1.1642
19671839,282.118,39.74,97982.0,1.16419
19682473,281.862,39.74,97985.0,1.16422
19693464,282.118,39.74,97982.0,1.16419
19714482,281.774,39.74,97986.0,1.16424
19724839,282.118,39.74,97982.0,1.16419
19735824,281.946,39.74,97984.0,1.16421
19757485,282.202,39.74,97981.0,1.16418
19767911,281.69,39.74,97987.0,1.16425
19778484,282.546,39.74,97977.0,1.16413
19799832,282.202,39.74,97981.0,1.16418
19810534,282.374,39.74,97979.0,1.16415
19821477,282.118,39.74,97982.0,1.16419
19842469,282.118,39.74,97982.0,1.16419
19854316,282.033,39.74,97983.0,1.1642
19865457,281.946,39.74,97984.0,1.16421
19889644,282.033,39.75,97983.0,1.1642
19901944,281.69,39.75,97987.0,1.16425
19911555,282.033,39.75,97983.0,1.1642
19932615,282.202,39.74,97981.0,1.16418
19942478,282.374,39.74,97979.0,1.16415
19954256,281.946,39.74,97984.0,1.16421
19974889,281.946,39.74,97984.0,1.16421
19986234,282.29,39.74,97980.0,1.16416
19996601,282.118,39.74,97982.0,1.16419
20018277,281.518,39.75,97989.0,1.16427
20028569,281.946,39.75,97984.0,1.16421
20038545,282.29,39.75,97980.0,1.16416
20060592,281.69,39.75,97987.0,1.16425
20071325,282.202,39.75,97981.0,1.16418
20082202,281.69,39.75,97987.0,1.16425
20103512,282.118,39.75,97982.0,1.16419
20114213,282.459,39.75,97978.0,1.16414
20124633,282.459,39.75,97978.0,1.16414
20145521,282.29,39.75,97980.0,1.16416
20156561,282.63,39.75,97976.0,1.16412
20167511,282.718,39.75,97975.0,1.16411
20189481,282.202,39.75,97981.0,1.16418
20200169,282.118,39.75,97982.0,1.16419
20211048,282.202,39.75,97981.0,1.16418
20232890,281.774,39.75,97986.0,1.16424
20243469,282.202,39.75,97981.0,1.16418
20254464,281.862,39.75,97985.0,1.16422
20276636,282.202,39.75,97981.0,1.16418
20287521,282.374,39.75,97979.0,1.16415
20298464,281.946,39.75,97984.0,1.16421
20319474,282.374,39.75,97979.0,1.16415
20330469,282.118,39.75,97982.0,1.16419
20340707,282.202,39.75,97981.0,1.16418
20361531,282.29,39.75,97980.0,1.16416
20372723,281.774,39.75,97986.0,1.16424
20383465,281.862,39.75,97985.0,1.16422
20405529,282.118,39.76,97982.0,1.16419
20416934,281.862,39.76,97985.0,1.16422
20427522,281.946,39.76,97984.0,1.16421
20449343,282.033,39.75,97983.0,1.1642
20459470,282.202,39.75,97981.0,1.16418
20470464,282.374,39.75,97979.0,1.16415
20492665,282.033,39.76,97983.0,1.1642
20503543,281.862,39.76,97985.0,1.16422
20514464,281.605,39.76,97988.0,1.16426
20535479,282.118,39.75,97982.0,1.16419
20546469,282.374,39.75,97979.0,1.16415
20557464,282.118,39.75,97982.0,1.16419
20579469,282.374,39.76,97979.0,1.16415
20590470,282.033,39.76,97983.0,1.1642
20601560,282.546,39.76,97977.0,1.16413
20623483,282.546,39.76,97977.0,1.16413
20634489,281.862,39.76,97985.0,1.16422
20645480,281.862,39.76,97985.0,1.16422
20666530,282.374,39.76,97979.0,1.16415
20676705,282.033,39.76,97983.0,1.1642
20687477,282.033,39.76,97983.0,1.1642
20709472,282.033,39.76,97983.0,1.1642
20719471,281.862,39.76,97985.0,1.16422
20730465,282.202,39.76,97981.0,1.16418
20751481,282.29,39.76,97980.0,1.16416
20761556,282.202,39.76,97981.0,1.16418
20772635,281.605,39.76,97988.0,1.16426
20794491,282.202,39.76,97981.0,1.16418
20805469,282.033,39.76,97983.0,1.1642
20817149,282.459,39.76,97978.0,1.16414
20838510,281.862,39.76,97985.0,1.16422
20849514,282.374,39.76,97979.0,1.16415
20860677,281.69,39.76,97987.0,1.16425
20882469,281.946,39.77,97984.0,1.16421
20892682,281.946,39.77,97984.0,1.16421
20903476,282.118,39.77,97982.0,1.16419
20925478,282.033,39.77,97983.0,1.1642
20935470,282.033,39.77,97983.0,1.1642
20946475,281.518,39.77,97989.0,1.16427
20969154,282.033,39.76,97983.0,1.1642
20979470,282.374,39.76,97979.0,1.16415
20990464,282.118,39.76,97982.0,1.16419
21012675,282.118,39.77,97982.0,1.16419
21023481,281.862,39.77,97985.0,1.16422
21034477,281.862,39.77,97985.0,1.16422
21055486,282.202,39.77,97981.0,1.16418
21066469,282.033,39.77,97983.0,1.1642
21077516,282.033,39.77,97983.0,1.1642
21098470,282.033,39.77,97983.0,1.1642
21108645,281.946,39.77,97984.0,1.16421
21119477,281.774,39.77,97986.0,1.16424
21140782,281.946,39.77,97984.0,1.16421
21151484,281.862,39.77,97985.0,1.16422
21162465,282.033,39.77,97983.0,1.1642
21184888,281.946,39.77,97984.0,1.16421
21195511,282.546,39.77,97977.0,1.16413
21206464,282.546,39.77,97977.0,1.16413
21228683,282.202,39.77,97981.0,1.16418
21239480,282.202,39.77,97981.0,1.16418
21250474,281.946,39.77,97984.0,1.16421
21271487,281.862,39.77,97985.0,1.16422
21282469,282.202,39.77,97981.0,1.16418
21293465,281.605,39.77,97988.0,1.16426
21314471,282.546,39.77,97977.0,1.16413
21325446,282.118,39.77,97982.0,1.16419
21338330,281.946,39.77,97984.0,1.16421
21363123,282.546,39.77,97977.0,1.16413
21373411,282.29,39.77,97980.0,1.16416
21383465,281.862,39.77,97985.0,1.16422
21405567,282.374,39.77,97979.0,1.16415
21417959,282.29,39.77,97980.0,1.16416
21429668,282.718,39.77,97975.0,1.16411
21453548,281.862,39.77,97985.0,1.16422
21463480,282.033,39.77,97983.0,1.1642
21474509,282.118,39.77,97982.0,1.16419
21498271,282.29,39.77,97980.0,1.16416
21509472,282.202,39.77,97981.0,1.16418
21519505,282.29,39.77,97980.0,1.16416
21541420,282.033,39.77,97983.0,1.1642
21551481,281.433,39.77,97990.0,1.16428
21564171,282.118,39.77,97982.0,1.16419
21585469,281.862,39.78,97985.0,1.16422
21596617,282.374,39.78,97979.0,1.16415
21607469,282.033,39.78,97983.0,1.1642
21628558,282.033,39.77,97983.0,1.1642
21639152,281.946,39.77,97984.0,1.16421
21649475,282.033,39.77,97983.0,1.1642
21671120,281.69,39.77,97987.0,1.16425
21681525,282.887,39.77,97973.0,1.16408
21692549,282.202,39.77,97981.0,1.16418
21713485,281.774,39.78,97986.0,1.16424
21724161,281.946,39.78,97984.0,1.16421
21735075,281.946,39.78,97984.0,1.16421
21755734,282.118,39.78,97982.0,1.16419
21767094,282.29,39.78,97980.0,1.16416
21777468,281.862,39.78,97985.0,1.16422
21799482,281.946,39.78,97984.0,1.16421
21809481,282.29,39.78,97980.0,1.16416
21820580,281.946,39.78,97984.0,1.16421
21841470,281.518,39.78,97989.0,1.16427
21852134,281.946,39.78,97984.0,1.16421
21863132,282.118,39.78,97982.0,1.16419
21884555,282.29,39.79,97980.0,1.16416
21895473,281.774,39.79,97986.0,1.16424
21905465,282.033,39.79,97983.0,1.1642
21927485,281.605,39.79,97988.0,1.16426
21940213,282.29,39.79,97980.0,1.16416
21951101,282.202,39.79,97981.0,1.16418
21972564,281.69,39.79,97987.0,1.16425
21983114,282.459,39.79,97978.0,1.16414
21993564,282.29,39.79,97980.0,1.16416
22015091,282.033,39.79,97983.0,1.1642
22025495,281.946,39.79,97984.0,1.16421
22035803,281.774,39.79,97986.0,1.16424
22057479,282.202,39.79,97981.0,1.16418
22067873,282.459,39.79,97978.0,1.16414
22079042,282.29,39.79,97980.0,1.16416
22100589,282.118,39.79,97982.0,1.16419
22111043,281.69,39.79,97987.0,1.16425
22121531,281.774,39.79,97986.0,1.16424
22143060,282.118,39.79,97982.0,1.16419
22153485,281.774,39.79,97986.0,1.16424
22164543,281.774,39.79,97986.0,1.16424
22185481,282.202,39.79,97981.0,1.16418
22195879,282.118,39.79,97982.0,1.16419
22206997,282.202,39.79,97981.0,1.16418
22228544,282.033,39.79,97983.0,1.1642
22239065,281.946,39.79,97984.0,1.16421
22249511,282.118,39.79,97982.0,1.16419
22271905,282.459,39.79,97978.0,1.16414
22282481,281.605,39.79,97988.0,1.16426
22293476,281.862,39.79,97985.0,1.16422
22314482,281.946,39.79,97984.0,1.16421
22324900,281.862,39.79,97985.0,1.16422
22335861,282.802,39.79,97974.0,1.16409
22357497,282.374,39.8,97979.0,1.16415
22368551,281.862,39.8,97985.0,1.16422
22380587,281.862,39.8,97985.0,1.16422
22402513,282.118,39.79,97982.0,1.16419
22413522,282.118,39.79,97982.0,1.16419
22424575,282.202,39.79,97981.0,1.16418
22445524,281.946,39.79,97984.0,1.16421
22455925,281.862,39.79,97985.0,1.16422
22466511,282.118,39.79,97982.0,1.16419
22488527,281.862,39.8,97985.0,1.16422
22498470,281.69,39.8,97987.0,1.16425
22508547,282.033,39.8,97983.0,1.1642
22530511,282.459,39.8,97978.0,1.16414
22540912,281.946,39.8,97984.0,1.16421
22551850,282.118,39.8,97982.0,1.16419
22573483,282.118,39.8,97982.0,1.16419
22583917,282.033,39.8,97983.0,1.1642
22594475,282.033,39.8,97983.0,1.1642
22615876,281.946,39.8,97984.0,1.16421
22626482,282.118,39.8,97982.0,1.16419
22637476,281.946,39.8,97984.0,1.16421
22658506,282.202,39.8,97981.0,1.16418
22668699,282.118,39.8,97982.0,1.16419
22679952,282.546,39.8,97977.0,1.16413
22701469,282.033,39.81,97983.0,1.1642
22711812,281.69,39.81,97987.0,1.16425
22722464,281.69,39.81,97987.0,1.16425
22743835,281.605,39.8,97988.0,1.16426
22754483,282.033,39.8,97983.0,1.1642
22765477,282.459,39.8,97978.0,1.16414
22786496,282.202,39.8,97981.0,1.16418
22796841,282.459,39.8,97978.0,1.16414
22807786,282.033,39.8,97983.0,1.1642
22829469,282.118,39.8,97982.0,1.16419
22839917,282.202,39.8,97981.0,1.16418
22850464,281.605,39.8,97988.0,1.16426
22871880,281.605,39.81,97988.0,1.16426
22882525,282.202,39.81,97981.0,1.16418
22893476,281.946,39.81,97984.0,1.16421
22914490,281.946,39.81,97984.0,1.16421
22924940,281.946,39.81,97984.0,1.16421
22935886,281.862,39.81,97985.0,1.16422
22957514,281.946,39.81,97984.0,1.16421
22967817,281.946,39.81,97984.0,1.16421
22978465,282.202,39.81,97981.0,1.16418
22999948,282.374,39.81,97979.0,1.16415
23010480,282.29,39.81,97980.0,1.16416
23020643,282.202,39.81,97981.0,1.16418
23042502,281.774,39.81,97986.0,1.16424
23053494,281.946,39.81,97984.0,1.16421
23064692,282.202,39.81,97981.0,1.16418
23085513,281.946,39.81,97984.0,1.16421
23095841,282.118,39.81,97982.0,1.16419
23106524,282.459,39.81,97978.0,1.16414
23127873,281.946,39.81,97984.0,1.16421
23138481,281.946,39.81,97984.0,1.16421
23149478,282.202,39.81,97981.0,1.16418
23172346,281.946,39.81,97984.0,1.16421
23182469,281.774,39.81,97986.0,1.16424
23193479,281.862,39.81,97985.0,1.16422
23215821,282.033,39.81,97983.0,1.1642
23226480,282.202,39.81,97981.0,1.16418
23237474,282.033,39.81,97983.0,1.1642
23258485,282.118,39.81,97982.0,1.16419
23269484,281.774,39.81,97986.0,1.16424
23280595,282.033,39.81,97983.0,1.1642
23301471,282.202,39.81,97981.0,1.16418
23311475,282.118,39.81,97982.0,1.16419
23321458,282.459,39.81,97978.0,1.16414
23345412,281.862,39.81,97985.0,1.16422
23355470,281.862,39.81,97985.0,1.16422
23365697,282.033,39.81,97983.0,1.1642
23389770,281.946,39.81,97984.0,1.16421
23401587,282.033,39.81,97983.0,1.1642
23414310,282.29,39.81,97980.0,1.16416
23435470,281.862,39.81,97985.0,1.16422
23445953,282.459,39.81,97978.0,1.16414
23457472,282.118,39.81,97982.0,1.16419
23481448,281.774,39.81,97986.0,1.16424
23493926,282.546,39.81,97977.0,1.16413
23505507,281.605,39.81,97988.0,1.16426
23529650,281.862,39.81,97985.0,1.16422
23541692,282.033,39.81,97983.0,1.1642
23553444,282.033,39.81,97983.0,1.1642
23577559,282.033,39.81,97983.0,1.1642
23590367,282.29,39.81,97980.0,1.16416
23601420,281.862,39.81,97985.0,1.16422
23622194,282.118,39.81,97982.0,1.16419
23633400,282.118,39.81,97982.0,1.16419
23643464,281.69,39.81,97987.0,1.16425
23665580,281.862,39.81,97985.0,1.16422
23675469,282.459,39.81,97978.0,1.16414
23686518,282.118,39.81,97982.0,1.16419
23708540,282.202,39.81,97981.0,1.16418
23719511,281.946,39.81,97984.0,1.16421
23730355,282.033,39.81,97983.0,1.1642
23750572,281.946,39.81,97984.0,1.16421
23762254,282.374,39.81,97979.0,1.16415
23772648,282.118,39.81,97982.0,1.16419
23794349,282.202,39.82,97981.0,1.16418
23804560,282.202,39.82,97981.0,1.16418
23814621,282.033,39.82,97983.0,1.1642
23836576,281.862,39.82,97985.0,1.16422
23847258,281.862,39.82,97985.0,1.16422
23858419,282.29,39.82,97980.0,1.16416
23879474,281.69,39.82,97987.0,1.16425
23890259,282.202,39.82,97981.0,1.16418
23900578,282.202,39.82,97981.0,1.16418
23923446,281.946,39.83,97984.0,1.16421
23935048,282.033,39.83,97983.0,1.1642
23946242,282.29,39.83,97980.0,1.16416
23967447,282.118,39.82,97982.0,1.16419
23978448,281.862,39.82,97985.0,1.16422
23991331,282.033,39.82,97983.0,1.1642
24012516,281.946,39.82,97984.0,1.16421
24022891,281.774,39.82,97986.0,1.16424
24034190,282.033,39.82,97983.0,1.1642
24054500,281.946,39.82,97984.0,1.16421
24066138,282.033,39.82,97983.0,1.1642
24076543,282.29,39.82,97980.0,1.16416
24098290,281.69,39.83,97987.0,1.16425
24108546,282.29,39.83,97980.0,1.16416
24119455,281.69,39.83,97987.0,1.16425
24140493,282.118,39.83,97982.0,1.16419
24151440,282.033,39.83,97983.0,1.1642
24162219,281.862,39.83,97985.0,1.16422
24183439,282.118,39.83,97982.0,1.16419
24194442,281.946,39.83,97984.0,1.16421
24204503,281.946,39.83,97984.0,1.16421
24226170,282.033,39.83,97983.0,1.1642
24236531,282.033,39.83,97983.0,1.1642
24247443,282.202,39.83,97981.0,1.16418
24268534,282.29,39.83,97980.0,1.16416
24279447,282.63,39.83,97976.0,1.16412
24290307,282.033,39.83,97983.0,1.1642
24311443,282.118,39.83,97982.0,1.16419
24322438,281.862,39.83,97985.0,1.16422
24332527,281.862,39.83,97985.0,1.16422
24354215,281.862,39.83,97985.0,1.16422
24364604,282.118,39.83,97982.0,1.16419
24375489,282.546,39.83,97977.0,1.16413
24396584,282.29,39.83,97980.0,1.16416
24407763,282.374,39.83,97979.0,1.16415
24418336,282.459,39.83,97978.0,1.16414
24438969,282.118,39.83,97982.0,1.16419
24450396,282.033,39.83,97983.0,1.1642
24460557,282.374,39.83,97979.0,1.16415
24482248,282.459,39.84,97978.0,1.16414
24492630,281.69,39.84,97987.0,1.16425
24503464,281.518,39.84,97989.0,1.16427
24524602,282.374,39.83,97979.0,1.16415
24535237,282.29,39.83,97980.0,1.16416
24546226,282.118,39.83,97982.0,1.16419
24566551,281.946,39.83,97984.0,1.16421
24578280,282.459,39.83,97978.0,1.16414
24588533,282.29,39.83,97980.0,1.16416
24610240,282.033,39.84,97983.0,1.1642
24620633,282.202,39.84,97981.0,1.16418
24631468,281.862,39.84,97985.0,1.16422
24652604,282.202,39.84,97981.0,1.16418
24663513,282.459,39.84,97978.0,1.16414
24675052,281.946,39.84,97984.0,1.16421
24696550,281.774,39.84,97986.0,1.16424
24707897,282.374,39.84,97979.0,1.16415
24718464,282.033,39.84,97983.0,1.1642
24739960,282.374,39.84,97979.0,1.16415
24750547,281.774,39.84,97986.0,1.16424
24761477,282.118,39.84,97982.0,1.16419
24782481,282.202,39.84,97981.0,1.16418
24792966,282.374,39.84,97979.0,1.16415
24803819,282.202,39.84,97981.0,1.16418
24825484,281.774,39.84,97986.0,1.16424
24835895,282.118,39.84,97982.0,1.16419
24846479,282.459,39.84,97978.0,1.16414
24867916,282.118,39.84,97982.0,1.16419
24878532,282.033,39.84,97983.0,1.1642
24889476,282.374,39.84,97979.0,1.16415
24910470,282.374,39.84,97979.0,1.16415
24920937,281.433,39.84,97990.0,1.16428
24931862,282.033,39.84,97983.0,1.1642
24953483,281.862,39.84,97985.0,1.16422
24964588,282.118,39.84,97982.0,1.16419
24976304,282.033,39.84,97983.0,1.1642
24997473,281.946,39.84,97984.0,1.16421
25008531,282.374,39.84,97979.0,1.16415
25019891,282.118,39.84,97982.0,1.16419
25041572,281.774,39.84,97986.0,1.16424
25051951,282.546,39.84,97977.0,1.16413
25062525,282.033,39.84,97983.0,1.1642
25084588,281.774,39.85,97986.0,1.16424
25094526,281.774,39.85,97986.0,1.16424
25105476,281.774,39.85,97986.0,1.16424
25126479,282.118,39.85,97982.0,1.16419
25136684,281.946,39.85,97984.0,1.16421
25147843,282.374,39.85,97979.0,1.16415
25169482,281.774,39.85,97986.0,1.16424
25179933,281.946,39.85,97984.0,1.16421
25190464,281.862,39.85,97985.0,1.16422
25211863,282.202,39.85,97981.0,1.16418
25222498,282.118,39.85,97982.0,1.16419
25233464,282.29,39.85,97980.0,1.16416
25254469,282.546,39.84,97977.0,1.16413
25264748,282.202,39.84,97981.0,1.16418
25275869,281.774,39.84,97986.0,1.16424
25297484,281.862,39.84,97985.0,1.16422
25307898,282.459,39.84,97978.0,1.16414
25318476,281.774,39.84,97986.0,1.16424
25340014,282.202,39.85,97981.0,1.16418
25350474,282.374,39.85,97979.0,1.16415
25361464,282.033,39.85,97983.0,1.1642
25382469,282.033,39.85,97983.0,1.1642
25392944,281.862,39.85,97985.0,1.16422
25403915,281.946,39.85,97984.0,1.16421
25425540,282.118,39.85,97982.0,1.16419
25435942,282.118,39.85,97982.0,1.16419
25446468,282.374,39.85,97979.0,1.16415
