timestamp,magnetometer_ga[0],magnetometer_ga[1],magnetometer_ga[2]
2927661,0.349328,0.429964,0.054848
2936453,0.349328,0.429964,0.054848
2956453,0.349328,0.429964,0.054848
2976463,0.349328,0.429964,0.054848
2995652,0.345592,0.429964,0.0549225
3005284,0.351346,0.417498,0.0623098
3015652,0.356849,0.409022,0.0570498
3025284,0.35844,0.421747,0.0431194
3035653,0.356982,0.415699,0.0637261
3045297,0.351288,0.424566,0.0593948
3055653,0.351224,0.424696,0.0561977
3065309,0.347598,0.403624,0.06182
3075652,0.34945,0.422766,0.0609601
3086076,0.343878,0.424436,0.0627408
3095688,0.341786,0.423156,0.0515177
3106889,0.349384,0.419428,0.0576219
3115666,0.334495,0.41236,0.0608347
3126903,0.340078,0.424566,0.0596182
3135653,0.344136,0.427384,0.0756702
3145284,0.336663,0.427384,0.0758192
3155676,0.351355,0.427904,0.062733
3166853,0.334518,0.44011,0.0619632
3175676,0.34007,0.41416,0.059195
3186853,0.341908,0.415959,0.0576298
3195689,0.340272,0.427644,0.0693505
3205284,0.340275,0.431113,0.0694916
3215676,0.342116,0.436381,0.0680674
3226852,0.353187,0.422766,0.0608856
3236476,0.341838,0.409152,0.0541506
3246865,0.353187,0.422766,0.0608856
3255676,0.355147,0.417368,0.0654324
3266863,0.345777,0.422636,0.0642316
3275684,0.336397,0.41403,0.0624666
3286852,0.355088,0.424436,0.0625174
3295700,0.34382,0.431503,0.0598259
3306852,0.336466,0.420837,0.0659458
3315723,0.340142,0.424436,0.0628153
3325292,0.358825,0.424436,0.062443
3335691,0.330825,0.415699,0.0642473
3346884,0.343748,0.421227,0.0562056
3355703,0.332735,0.427774,0.0663024
3366883,0.345725,0.436641,0.0615988
3375687,0.344133,0.423915,0.0755292
3395677,0.344133,0.423915,0.0755292
3415678,0.344133,0.423915,0.0755292
3434926,0.330692,0.409022,0.057571
3444476,0.349312,0.409152,0.0540016
3454883,0.349511,0.419168,0.0640161
3464477,0.340142,0.424436,0.0628153
3474883,0.345777,0.422636,0.0642316
3484476,0.336336,0.417628,0.0594105
3494876,0.34224,0.432652,0.0743205
3504481,0.336463,0.417368,0.0658047
3514876,0.345714,0.422766,0.0610345
3524501,0.343867,0.410561,0.0621766
3534876,0.338559,0.422116,0.0771689
3544521,0.349636,0.415439,0.0702692
3554876,0.345916,0.436251,0.07119
3564489,0.351285,0.421097,0.0592537
3574876,0.358889,0.424306,0.0656401
3584503,0.353057,0.419558,0.0543504
3594876,0.343951,0.434711,0.0663611
3604452,0.348965,0.445962,-0.338543
3605294,0.35712,0.429313,0.0706845
3614876,0.358689,0.41429,0.0556256
3624476,0.356921,0.419298,0.0606701
3634876,0.343939,0.420837,0.0657969
3644453,0.336394,0.410561,0.0623255
3654882,0.33875,0.421726,0.0867602
3664452,0.363299,0.397251,0.474519
3665309,0.355144,0.4139,0.0652913
3674882,0.33842,0.408502,0.0702105
3684453,0.332871,0.43792,0.0731197
3694882,0.345708,0.415829,0.0607524
3704453,0.351323,0.427969,0.0611344
3705283,0.351227,0.428164,0.0563388
3714883,0.336527,0.417238,0.0690018
3724452,0.338397,0.418973,0.0690351
3725283,0.338492,0.418777,0.0738307
3734876,0.353311,0.419038,0.0671387
3744452,0.332756,0.413835,0.0673367
3745283,0.332469,0.41442,0.0529498
3754876,0.330831,0.422636,0.0645295
3764453,0.347641,0.417433,0.0639828
3765297,0.347801,0.417108,0.0719755
3774876,0.356915,0.41236,0.0603879
3784501,0.337813,0.438895,-0.335405
3785283,0.345968,0.422246,0.0738229
3794877,0.343878,0.424436,0.0627408
3804501,0.338307,0.426105,0.0645216
3814876,0.369838,0.417889,0.0523462
3824483,0.34556,0.430029,0.0533239
3825285,0.345655,0.429834,0.0581196
3844484,0.345655,0.429834,0.0581196
3854926,0.345655,0.429834,0.0581196
3864483,0.345655,0.429834,0.0581196
3874922,0.345655,0.429834,0.0581196
3884483,0.345655,0.429834,0.0581196
3894885,0.345655,0.429834,0.0581196
3903653,0.356796,0.423026,0.0544169
3914084,0.347546,0.417628,0.0591872
3923653,0.347745,0.427644,0.0692016
3934084,0.342096,0.4121,0.06708
3943652,0.345791,0.439979,0.0649369
3954084,0.345711,0.419298,0.0608935
3963691,0.345447,0.409412,0.0476819
3974084,0.351338,0.407092,0.0618866
3983682,0.342171,0.425845,0.0708413
3994090,0.353065,0.429964,0.0547735
4003676,0.338434,0.425845,0.0709158
4014084,0.351416,0.424306,0.065789
4023676,0.341977,0.422766,0.061109
4034084,0.355216,0.424175,0.0689116
4043677,0.358825,0.424436,0.062443
4054077,0.343878,0.424436,0.0627408
4063684,0.353314,0.422506,0.0672798
4074076,0.33444,0.422896,0.0580608
4083684,0.349705,0.422246,0.0737484
4094076,0.338559,0.422116,0.0771689
4103727,0.336394,0.410561,0.0623255
4114084,0.358695,0.421227,0.0559077
4123729,0.338695,0.432262,0.0839863
4134052,0.349832,0.421986,0.0801426
4143707,0.353372,0.415439,0.0701947
4154065,0.349705,0.422246,0.0737484
4163730,0.35312,0.419428,0.0575474
4174055,0.342104,0.422506,0.0675032
4183699,0.347748,0.431113,0.0693427
4194053,0.342174,0.429313,0.0709824
4203719,0.332796,0.424175,0.0693584
4214052,0.357109,0.415439,0.0701203
4223723,0.343881,0.427904,0.0628819
4234052,0.356793,0.419558,0.0542759
4243694,0.334758,0.422246,0.0740463
4254052,0.358947,0.417238,0.068555
4263684,0.339942,0.41442,0.0528008
4274052,0.343757,0.431633,0.0566288
4283684,0.355091,0.427904,0.0626585
4294077,0.355091,0.427904,0.0626585
4304520,0.355091,0.427904,0.0626585
4314077,0.355091,0.427904,0.0626585
4324477,0.355091,0.427904,0.0626585
4334077,0.355091,0.427904,0.0626585
4344477,0.355091,0.427904,0.0626585
4354076,0.338434,0.425845,0.0709158
4362876,0.34761,0.417498,0.0623842
4374076,0.353245,0.415699,0.0638006
4382877,0.343873,0.417498,0.0624587
4394076,0.345838,0.419038,0.0672876
4402877,0.362432,0.421227,0.0558333
4414076,0.349575,0.419038,0.0672132
4422885,0.349262,0.426625,0.0515098
4434076,0.345589,0.426495,0.0547814
4442886,0.336535,0.427644,0.069425
4454081,0.347673,0.417368,0.0655813
4462877,0.339878,0.41455,0.0496037
4473329,0.342243,0.436121,0.0744616
4482877,0.347673,0.417368,0.0655813
4493328,0.351161,0.424826,0.0530006
4502878,0.344197,0.423785,0.0787263
4513315,0.351479,0.424175,0.0689861
4522877,0.351609,0.427384,0.0755213
4533315,0.336591,0.417108,0.0721989
4542877,0.338235,0.415829,0.0609013
4553276,0.344067,0.420577,0.072191
4562877,0.357057,0.429443,0.0674874
4573276,0.345583,0.419558,0.0544993
4582876,0.330845,0.439979,0.0652348
4593276,0.347745,0.427644,0.0692016
4602877,0.343878,0.424436,0.0627408
4613276,0.32356,0.436121,0.0748339
4622877,0.345783,0.429574,0.0645137
4633276,0.331207,0.414919,0.0834299
4642891,0.332533,0.41429,0.0561468
4653276,0.34761,0.417498,0.0623842
4662884,0.35141,0.417368,0.0655069
4673276,0.34596,0.41184,0.0733997
4682884,0.343818,0.428034,0.0596848
4693276,0.332854,0.417108,0.0722734
4702884,0.325389,0.427514,0.0728455
4713276,0.351343,0.41403,0.0621687
4722884,0.342246,0.439589,0.0746027
4733276,0.344322,0.420056,0.0849794
4742884,0.347743,0.424175,0.0690605
4753277,0.347743,0.424175,0.0690605
4762875,0.347743,0.424175,0.0690605
4773277,0.347743,0.424175,0.0690605
4782913,0.347743,0.424175,0.0690605
4783653,0.347743,0.424175,0.0690605
4793288,0.347743,0.424175,0.0690605
4802898,0.347743,0.424175,0.0690605
4813290,0.348055,0.416588,0.0847639
4822079,0.344,0.417238,0.0688529
4831678,0.347737,0.417238,0.0687784
4842085,0.343812,0.421097,0.0594027
4853283,0.349447,0.419298,0.060819
4862086,0.340463,0.427254,0.0789418
4873283,0.351482,0.427644,0.0691271
4882085,0.349497,0.401824,0.0633108
4893296,0.359019,0.427514,0.0721753
4902084,0.343812,0.421097,0.0594027
4913307,0.356923,0.422766,0.0608111
4922085,0.355277,0.420577,0.0719676
4933276,0.360785,0.419038,0.0669898
4942053,0.351471,0.41377,0.0685629
4953293,0.344075,0.430983,0.0726142
4962053,0.349453,0.426235,0.0611011
4971719,0.34198,0.426235,0.06125
4982053,0.349378,0.41249,0.0573398
4993306,0.357178,0.422246,0.0735995
5002053,0.358886,0.420837,0.065499
5013276,0.362637,0.43818,0.0661299
5022052,0.346024,0.41171,0.0765968
5033286,0.330958,0.422376,0.0709236
5042053,0.345783,0.429574,0.0645137
5053298,0.347745,0.427644,0.0692016
5062053,0.343948,0.431243,0.06622
5073278,0.364516,0.4121,0.0666332
5082053,0.353253,0.426105,0.0642238
5093288,0.344003,0.420707,0.0689939
5102083,0.349514,0.422636,0.0641572
5113316,0.325242,0.403494,0.0654639
5122083,0.336469,0.424306,0.0660869
5133275,0.345777,0.422636,0.0642316
5142088,0.353192,0.429704,0.0611677
5153260,0.358947,0.417238,0.068555
5162095,0.345841,0.422506,0.0674287
5173255,0.345777,0.422636,0.0642316
5182086,0.355216,0.424175,0.0689116
5202077,0.355216,0.424175,0.0689116
5222077,0.355216,0.424175,0.0689116
5242077,0.355216,0.424175,0.0689116
5250884,0.344017,0.43805,0.0696993
5261252,0.342099,0.415569,0.067221
5270884,0.330886,0.4121,0.0673034
5281307,0.340147,0.431373,0.0630974
5290877,0.332668,0.424436,0.0629642
5301307,0.345907,0.425845,0.0707669
5310877,0.342174,0.429313,0.0709824
5311698,0.34211,0.429443,0.0677853
5321320,0.343818,0.428034,0.0596848
5330885,0.332613,0.434972,0.0601903
5332453,0.332868,0.434451,0.0729787
5341307,0.336987,0.433671,0.0920868
5350877,0.346316,0.418062,0.0912658
5352453,0.345966,0.418777,0.0736818
5361298,0.347615,0.424436,0.0626664
5372453,0.347745,0.427644,0.0692016
5381302,0.329123,0.424045,0.07263
5390876,0.353404,0.415374,0.0717933
5392453,0.353245,0.415699,0.0638006
5401276,0.338176,0.422896,0.0579864
5410877,0.354987,0.417693,0.0574397
5412484,0.355338,0.416978,0.0750237
5421283,0.347549,0.421097,0.0593282
5430889,0.338208,0.422831,0.0595849
5432477,0.338495,0.422246,0.0739718
5441283,0.340275,0.431113,0.0694916
5450886,0.360828,0.432847,0.0691526
5452476,0.360923,0.432652,0.0739482
5461284,0.344203,0.430723,0.0790084
5470877,0.336729,0.430723,0.0791573
5472476,0.336339,0.421097,0.0595516
5481301,0.356987,0.422636,0.0640082
5490877,0.345777,0.422636,0.0642316
5492490,0.345705,0.41236,0.0606113
5501326,0.345847,0.429443,0.0677108
5510877,0.34211,0.429443,0.0677853
5512476,0.342107,0.425975,0.0676442
5521289,0.336654,0.416978,0.075396
5530877,0.345996,0.416978,0.0752098
5532476,0.345968,0.422246,0.0738229
5541305,0.355141,0.410431,0.0651503
5550877,0.347668,0.410431,0.0652992
5552476,0.347482,0.417758,0.0559901
5561287,0.332935,0.43779,0.0763168
5572476,0.349514,0.422636,0.0641572
5581284,0.331027,0.429183,0.0744029
5592476,0.341847,0.419558,0.0545737
5601284,0.343876,0.420967,0.0625998
5621284,0.343876,0.420967,0.0625998
5641284,0.343876,0.420967,0.0625998
5661279,0.343876,0.420967,0.0625998
5670084,0.341974,0.419298,0.0609679
5680476,0.343876,0.420967,0.0625998
5690084,0.347679,0.424306,0.0658635
5700478,0.343743,0.41429,0.0559235
5710076,0.338428,0.418907,0.0706337
5720476,0.342174,0.429313,0.0709824
5730053,0.349508,0.415699,0.063875
5740476,0.36053,0.419558,0.0542014
5750065,0.347809,0.427514,0.0723987
5760477,0.340012,0.421227,0.05628
5770063,0.345783,0.429574,0.0645137
5780477,0.338182,0.429834,0.0582685
5790877,0.340261,0.41377,0.0687863
5800486,0.341974,0.419298,0.0609679
5810876,0.353323,0.432912,0.067703
5820496,0.338235,0.415829,0.0609013
5830053,0.343884,0.431373,0.063023
5840488,0.336336,0.417628,0.0594105
5850053,0.341968,0.41236,0.0606858
5860477,0.351352,0.424436,0.0625919
5870891,0.34033,0.420577,0.0722655
5880477,0.34761,0.417498,0.0623842
5890877,0.357045,0.415569,0.0669232
5900477,0.344017,0.43805,0.0696993
5910076,0.34774,0.420707,0.0689195
5920476,0.341847,0.419558,0.0545737
5930077,0.351355,0.427904,0.062733
5940486,0.344,0.417238,0.0688529
5950076,0.358955,0.427644,0.0689782
5960505,0.342162,0.415439,0.0704181
5970076,0.349772,0.425585,0.0770866
5980487,0.338298,0.415699,0.0640984
5990076,0.334567,0.422636,0.064455
6000507,0.349384,0.419428,0.0576219
6011690,0.345844,0.425975,0.0675698
6020515,0.353198,0.436641,0.0614498
6031690,0.358761,0.424566,0.0592459
6040477,0.353447,0.429183,0.0739561
6051690,0.344003,0.420707,0.0689939
6060453,0.342046,0.429574,0.0645882
6071690,0.347798,0.413639,0.0718345
6080453,0.347798,0.413639,0.0718345
6090077,0.347798,0.413639,0.0718345
6100453,0.347798,0.413639,0.0718345
6110078,0.347798,0.413639,0.0718345
6120453,0.347798,0.413639,0.0718345
6129279,0.336405,0.424436,0.0628898
6139750,0.349578,0.422506,0.0673542
6149277,0.338428,0.418907,0.0706337
6159697,0.354958,0.421227,0.0559822
6169292,0.343806,0.41416,0.0591206
6179720,0.34945,0.422766,0.0609601
6189304,0.340405,0.434321,0.0760268
6199720,0.35136,0.434842,0.0630151
6209307,0.332599,0.417628,0.059485
6219720,0.345766,0.408762,0.0636674
6229318,0.358628,0.417889,0.0525696
6239721,0.34787,0.423915,0.0754547
6249327,0.334501,0.419298,0.0611169
6259741,0.349575,0.419038,0.0672132
6269284,0.344011,0.431113,0.0694171
6279697,0.330897,0.425975,0.0678676
6289283,0.344,0.417238,0.0688529
6299697,0.34046,0.423785,0.0788008
6309283,0.345907,0.425845,0.0707669
6319696,0.349644,0.425845,0.0706924
6329283,0.34573,0.443578,0.0618809
6339697,0.345655,0.429834,0.0581196
6349283,0.362631,0.431243,0.0658477
6359697,0.354889,0.41442,0.052503
6369293,0.342107,0.425975,0.0676442
6379727,0.342113,0.432912,0.0679264
6389277,0.341977,0.422766,0.061109
6399747,0.349195,0.423287,0.0481717
6409277,0.33488,0.415049,0.0801583
6419727,0.336275,0.421227,0.0563545
6429277,0.330764,0.419298,0.0611913
6439727,0.332984,0.420317,0.0788086
6449277,0.35895,0.420707,0.0686961
6459720,0.340266,0.420707,0.0690684
6469277,0.340142,0.424436,0.0628153
6479720,0.343997,0.41377,0.0687118
6489302,0.336649,0.410041,0.0751139
6499729,0.338113,0.423026,0.0547893
6509290,0.349317,0.416089,0.0542838
6519721,0.349317,0.416089,0.0542838
6530085,0.349317,0.416089,0.0542838
6539779,0.349317,0.416089,0.0542838
6550054,0.349317,0.416089,0.0542838
6559732,0.349317,0.416089,0.0542838
6570053,0.349317,0.416089,0.0542838
6579723,0.349317,0.416089,0.0542838
6588477,0.329051,0.41377,0.0690097
6599720,0.342107,0.425975,0.0676442
6608477,0.347551,0.424566,0.0594693
6619740,0.34198,0.426235,0.06125
6628477,0.35128,0.41416,0.0589716
6639747,0.343798,0.403754,0.0586974
6648477,0.353248,0.419168,0.0639416
6658883,0.339826,0.428555,0.0469709
6668477,0.349256,0.419688,0.0512277
6678884,0.357054,0.425975,0.0673464
6688477,0.35141,0.417368,0.0655069
6699720,0.340275,0.431113,0.0694916
6708477,0.344133,0.423915,0.0755292
6719720,0.354892,0.417889,0.052644
6728477,0.34224,0.432652,0.0743205
6738884,0.336535,0.427644,0.069425
6748477,0.364333,0.422896,0.0574651
6759720,0.336862,0.4374,0.0858336
6768477,0.336408,0.427904,0.0630308
6778852,0.34578,0.426105,0.0643727
6788496,0.349569,0.4121,0.0669311
6798876,0.360782,0.415569,0.0668487
6808545,0.334756,0.418777,0.0739052
6818876,0.34736,0.424956,0.049878
6828513,0.340463,0.427254,0.0789418
6838876,0.341902,0.409022,0.0573476
6848484,0.345702,0.408892,0.0604703
6858889,0.34374,0.410821,0.0557824
6868479,0.34387,0.41403,0.0623176
6878893,0.344128,0.416978,0.0752471
6888453,0.364278,0.433432,0.0546912
6898876,0.347745,0.427644,0.0692016
6908453,0.359086,0.430853,0.0755135
6918878,0.343937,0.417368,0.0656558
6928452,0.349392,0.429834,0.0580451
6938876,0.356738,0.430094,0.051502
6948453,0.347554,0.428034,0.0596103
6958877,0.349439,0.408892,0.0603958
6968452,0.347745,0.427644,0.0692016
6978876,0.351468,0.410301,0.0684218
6988452,0.338301,0.419168,0.0642395
6998877,0.338301,0.419168,0.0642395
7008453,0.338301,0.419168,0.0642395
7018877,0.338301,0.419168,0.0642395
7028477,0.338301,0.419168,0.0642395
7029254,0.338301,0.419168,0.0642395
7038877,0.338301,0.419168,0.0642395
7048477,0.338301,0.419168,0.0642395
7058877,0.338301,0.419168,0.0642395
7067653,0.353129,0.429834,0.0579706
7078884,0.33653,0.420707,0.0691429
7087653,0.360727,0.426105,0.0640748
7098884,0.338487,0.41184,0.0735486
7107657,0.342043,0.426105,0.0644471
7118884,0.332862,0.427514,0.0726966
7127698,0.355161,0.434711,0.0661377
7138884,0.336341,0.424566,0.0596927
7147667,0.360918,0.425715,0.0736661
7158884,0.343878,0.424436,0.0627408
7167653,0.326903,0.423026,0.0550127
7178910,0.341794,0.433562,0.0519409
7187676,0.352865,0.419948,0.0447591
7198913,0.347673,0.417368,0.0655813
7207676,0.349583,0.429443,0.0676364
7218854,0.347864,0.416978,0.0751726
7227676,0.34558,0.416089,0.0543582
7238865,0.355155,0.427774,0.0658556
7247676,0.347355,0.418019,0.0495959
7258883,0.343745,0.417758,0.0560645
7267685,0.344136,0.427384,0.0756702
7278939,0.344006,0.424175,0.069135
7287676,0.356993,0.429574,0.0642904
7298902,0.343959,0.445117,0.0667843
7307676,0.338043,0.416219,0.0513101
7318865,0.368264,0.425975,0.067123
7327676,0.34211,0.429443,0.0677853
7338876,0.345844,0.425975,0.0675698
7347677,0.342049,0.433042,0.0647293
7358882,0.338312,0.433042,0.0648037
7367676,0.345644,0.415959,0.0575553
7378882,0.353262,0.436511,0.0646469
7387676,0.341968,0.41236,0.0606858
7398882,0.340139,0.420967,0.0626742
7407678,0.327415,0.425455,0.0807305
7418882,0.35521,0.417238,0.0686295
7427686,0.343812,0.421097,0.0594027
7447728,0.343812,0.421097,0.0594027
7467697,0.343812,0.421097,0.0594027
7478053,0.343812,0.421097,0.0594027
7487714,0.343812,0.421097,0.0594027
7496477,0.343806,0.41416,0.0591206
7497309,0.343997,0.41377,0.0687118
7506884,0.349267,0.433562,0.051792
7516477,0.341789,0.426625,0.0516588
7518091,0.34198,0.426235,0.06125
7526883,0.368136,0.426235,0.0607288
7536483,0.336368,0.417563,0.0610091
7538083,0.336272,0.417758,0.0562134
7546883,0.360391,0.405943,0.047243
7556483,0.352929,0.419818,0.0479562
7558084,0.353375,0.418907,0.0703358
7566883,0.345658,0.433302,0.0582606
7576477,0.358732,0.428099,0.0577884
7578083,0.358701,0.428164,0.0561899
7586883,0.351285,0.421097,0.0592537
7596484,0.34754,0.410691,0.058905
7598091,0.347476,0.410821,0.0557079
7606853,0.345719,0.429704,0.0613166
7616484,0.349456,0.429704,0.0612422
7626876,0.347607,0.41403,0.0622432
7636484,0.336397,0.41403,0.0624666
7638076,0.336344,0.428034,0.0598337
7646877,0.325328,0.431113,0.0697895
7656492,0.355221,0.431113,0.0691938
7658092,0.355216,0.424175,0.0689116
7666877,0.34002,0.431633,0.0567032
7676528,0.345621,0.42643,0.0563799
7678084,0.345907,0.425845,0.0707669
7686877,0.343748,0.421227,0.0562056
7698084,0.34224,0.432652,0.0743205
7706884,0.349511,0.419168,0.0640161
7718084,0.342104,0.422506,0.0675032
7726877,0.34598,0.436121,0.0743871
7738084,0.340275,0.431113,0.0694916
7746877,0.343815,0.424566,0.0595437
7758084,0.34736,0.424956,0.049878
7766877,0.34028,0.43805,0.0697737
7778084,0.357178,0.422246,0.0735995
7786886,0.349583,0.429443,0.0676364
7798084,0.349195,0.423287,0.0481717
7806853,0.347493,0.431633,0.0565543
7818095,0.342046,0.429574,0.0645882
7826885,0.340336,0.427514,0.0725476
7838107,0.347546,0.417628,0.0591872
7846877,0.340211,0.431243,0.0662945
7858122,0.349702,0.418777,0.0736074
7866890,0.342035,0.415699,0.064024
7878091,0.358567,0.421487,0.0495135
7886887,0.340211,0.431243,0.0662945
7898110,0.351543,0.424045,0.0721832
7906877,0.351543,0.424045,0.0721832
7926877,0.351543,0.424045,0.0721832
7946884,0.351543,0.424045,0.0721832
7966081,0.321522,0.424306,0.0663847
7975684,0.345977,0.432652,0.0742461
7986100,0.336275,0.421227,0.0563545
7995685,0.347554,0.428034,0.0596103
8006120,0.336203,0.410951,0.0527342
8015676,0.349508,0.415699,0.063875
8026089,0.355016,0.41416,0.0588972
8035676,0.36073,0.429574,0.0642159
8046103,0.347601,0.407092,0.0619611
8055677,0.349323,0.423026,0.0545659
8066076,0.349256,0.419688,0.0512277
8075677,0.356854,0.415959,0.0573319
8086076,0.353137,0.44024,0.0583938
8095677,0.352929,0.419818,0.0479562
8106076,0.355022,0.421097,0.0591793
8115676,0.33261,0.431503,0.0600493
8126076,0.347549,0.421097,0.0593282
8135721,0.349433,0.401955,0.0601137
8146052,0.347745,0.427644,0.0692016
8157284,0.338246,0.429704,0.0614656
8166053,0.336408,0.427904,0.0630308
8177284,0.364336,0.426365,0.0576062
8186065,0.341786,0.423156,0.0515177
8195677,0.356724,0.412751,0.0507967
8206067,0.351294,0.431503,0.0596769
8217284,0.353068,0.433432,0.0549146
8226052,0.356727,0.416219,0.0509377
8237287,0.330631,0.412621,0.054515
8246052,0.345531,0.433562,0.0518664
8257284,0.345714,0.422766,0.0610345
8266052,0.323293,0.422766,0.0614813
8277284,0.349334,0.436901,0.0551301
8286053,0.353386,0.432782,0.0709001
8297253,0.349447,0.419298,0.060819
8306076,0.345708,0.415829,0.0607524
8317253,0.343696,0.435232,0.0535727
8326076,0.32514,0.434972,0.0603392
8337257,0.343745,0.417758,0.0560645
8346076,0.340203,0.420837,0.0658713
8357254,0.351091,0.418019,0.0495214
8366076,0.336466,0.420837,0.0659458
8375678,0.336466,0.420837,0.0659458
8386077,0.336466,0.420837,0.0659458
8395678,0.336466,0.420837,0.0659458
8406077,0.336466,0.420837,0.0659458
8415681,0.336466,0.420837,0.0659458
8426077,0.336466,0.420837,0.0659458
8434884,0.338043,0.416219,0.0513101
8445252,0.340336,0.427514,0.0725476
8454932,0.354836,0.428425,0.0498701
8465276,0.347363,0.428425,0.0500191
8474894,0.340006,0.41429,0.0559979
8485276,0.3402,0.417368,0.0657303
8494884,0.347621,0.431373,0.0629485
8505289,0.34945,0.422766,0.0609601
8514877,0.347734,0.41377,0.0686374
8525303,0.345583,0.419558,0.0544993
8534877,0.353386,0.432782,0.0709001
8545307,0.345769,0.41223,0.0638084
8554877,0.347468,0.400415,0.0552847
8565282,0.347551,0.424566,0.0594693
8574877,0.347302,0.432023,0.046963
8585287,0.351302,0.441909,0.0601001
8594876,0.330828,0.419168,0.0643884
8605292,0.343953,0.43818,0.0665022
8614877,0.351285,0.421097,0.0592537
8625317,0.351282,0.417628,0.0591127
8634876,0.343948,0.431243,0.06622
8645314,0.345968,0.422246,0.0738229
8654883,0.340031,0.445508,0.0572675
8665325,0.340012,0.421227,0.05628
8674876,0.366168,0.421227,0.0557588
8685338,0.349716,0.436121,0.0743127
8695655,0.343815,0.424566,0.0595437
8705292,0.334506,0.426235,0.061399
8714877,0.345728,0.44011,0.0617398
8725290,0.351288,0.424566,0.0593948
8734876,0.334495,0.41236,0.0608347
8745284,0.340208,0.427774,0.0661534
8754877,0.343737,0.407353,0.0556413
8765284,0.34002,0.431633,0.0567032
8775677,0.360408,0.426755,0.0480894
8785284,0.337974,0.409412,0.0478308
8795683,0.332466,0.410951,0.0528087
8805283,0.347291,0.418149,0.0463988
8815688,0.351282,0.417628,0.0591127
8825285,0.347551,0.424566,0.0594693
8834853,0.332602,0.421097,0.0596261
8845295,0.332602,0.421097,0.0596261
8855677,0.332602,0.421097,0.0596261
8865285,0.332602,0.421097,0.0596261
8874862,0.332602,0.421097,0.0596261
8885285,0.332602,0.421097,0.0596261
8894882,0.332602,0.421097,0.0596261
8905285,0.332602,0.421097,0.0596261
8914123,0.353569,0.421986,0.0800681
8924476,0.354773,0.428555,0.046673
8934055,0.353054,0.416089,0.0542093
8944476,0.345644,0.415959,0.0575553
8954053,0.351288,0.424566,0.0593948
8964477,0.34191,0.419428,0.0577708
8974053,0.349392,0.429834,0.0580451
8984476,0.360591,0.415959,0.0572575
8994053,0.364405,0.433172,0.0610854
9004476,0.342041,0.422636,0.0643061
9014053,0.336399,0.417498,0.0626076
9024476,0.351169,0.435232,0.0534238
9034053,0.342171,0.425845,0.0708413
9044476,0.351219,0.417758,0.0559156
9054053,0.3402,0.417368,0.0657303
9064476,0.347485,0.421227,0.0561311
9074053,0.343754,0.428164,0.0564877
9084476,0.354825,0.41455,0.0493059
9094053,0.334437,0.419428,0.0579198
9104476,0.351216,0.41429,0.0557745
9114076,0.34198,0.426235,0.06125
9124476,0.351485,0.431113,0.0692682
9134076,0.336666,0.430853,0.0759602
9144476,0.357117,0.425845,0.0705435
9154077,0.355019,0.417628,0.0590382
9164486,0.341905,0.41249,0.0574887
9174076,0.35895,0.420707,0.0686961
9184477,0.334567,0.422636,0.064455
9194085,0.353057,0.419558,0.0543504
9204476,0.336159,0.435362,0.0505246
9214091,0.334637,0.429443,0.0679342
9224480,0.347546,0.417628,0.0591872
9234077,0.347418,0.417889,0.052793
9244494,0.349578,0.422506,0.0673542
9254077,0.345517,0.416219,0.0511611
9264517,0.368136,0.426235,0.0607288
9274084,0.345841,0.422506,0.0674287
9284465,0.334628,0.419038,0.067511
9294084,0.351607,0.423915,0.0753803
9304485,0.33622,0.431763,0.0535806
9314084,0.345774,0.419168,0.0640905
9324452,0.354961,0.424696,0.0561233
9334084,0.345982,0.439589,0.0745282
9344453,0.345982,0.439589,0.0745282
9354853,0.345982,0.439589,0.0745282
9364453,0.345982,0.439589,0.0745282
9374877,0.345982,0.439589,0.0745282
9384453,0.345982,0.439589,0.0745282
9394877,0.345982,0.439589,0.0745282
9404484,0.345982,0.439589,0.0745282
9413286,0.338052,0.426625,0.0517332
9424476,0.364596,0.432782,0.0706767
9433284,0.362434,0.424696,0.0559743
9444476,0.340397,0.423915,0.0756037
9453279,0.338179,0.426365,0.0581274
9464476,0.353262,0.436511,0.0646469
9473280,0.356849,0.409022,0.0570498
9484476,0.343873,0.417498,0.0624587
9493280,0.34413,0.420447,0.0753881
9504476,0.351476,0.420707,0.068845
9513319,0.346101,0.428923,0.0804992
9524476,0.34565,0.422896,0.0578374
9533304,0.342043,0.426105,0.0644471
9543676,0.355346,0.427384,0.0754469
9553257,0.358764,0.428034,0.0593869
9563702,0.346113,0.442798,0.0810634
9573276,0.351479,0.424175,0.0689861
9583679,0.345977,0.432652,0.0742461
9593277,0.355083,0.417498,0.0622353
9603700,0.347491,0.428164,0.0564132
9613276,0.35136,0.434842,0.0630151
9623683,0.33824,0.422766,0.0611834
9633277,0.348006,0.434061,0.0822721
9643683,0.334758,0.422246,0.0740463
9653307,0.332727,0.417368,0.0658792
9663683,0.342101,0.419038,0.0673621
9673276,0.349514,0.422636,0.0641572
9683683,0.358565,0.418019,0.0493725
9693276,0.368075,0.429834,0.0576728
9703706,0.340278,0.434581,0.0696327
9713276,0.360591,0.415959,0.0572575
9723683,0.34198,0.426235,0.06125
9733276,0.332538,0.421227,0.056429
9743684,0.336657,0.420447,0.0755371
9753277,0.351338,0.407092,0.0618866
9763684,0.362426,0.41429,0.0555511
9773277,0.332674,0.431373,0.0632463
9783690,0.345966,0.418777,0.0736818
9793276,0.359147,0.427254,0.0785695
9803682,0.342176,0.432782,0.0711234
9813276,0.349459,0.433172,0.0613832
9823683,0.349459,0.433172,0.0613832
9833277,0.349459,0.433172,0.0613832
9834053,0.349459,0.433172,0.0613832
9843732,0.349459,0.433172,0.0613832
9853277,0.349459,0.433172,0.0613832
9854054,0.349459,0.433172,0.0613832
9863723,0.349459,0.433172,0.0613832
9873277,0.349459,0.433172,0.0613832
9874053,0.349459,0.433172,0.0613832
9883679,0.330952,0.415439,0.0706415
9892490,0.343887,0.434842,0.063164
9903691,0.345658,0.433302,0.0582606
9912490,0.338362,0.415569,0.0672955
9923715,0.351474,0.417238,0.068704
9932490,0.343745,0.417758,0.0560645
9943719,0.34576,0.401824,0.0633852
9952484,0.349572,0.415569,0.0670721
9963676,0.334639,0.432912,0.0680753
9972484,0.341913,0.422896,0.0579119
9983724,0.34407,0.424045,0.0723321
9992477,0.351213,0.410821,0.0556335
10003712,0.35679,0.416089,0.0541348
10012477,0.345786,0.433042,0.0646548
10023676,0.34598,0.436121,0.0743871
10032484,0.347551,0.424566,0.0594693
10043676,0.357364,0.414919,0.0829086
10052453,0.353048,0.409152,0.0539272
10063677,0.342174,0.429313,0.0709824
10072458,0.349633,0.41197,0.0701281
10083676,0.340139,0.420967,0.0626742
10092480,0.364466,0.429574,0.0641414
10103676,0.351485,0.431113,0.0692682
10112499,0.334689,0.415439,0.0705671
10123684,0.343942,0.424306,0.0659379
10132468,0.353575,0.428923,0.0803503
10143676,0.35312,0.419428,0.0575474
10152495,0.330775,0.433172,0.0617556
10163676,0.340067,0.410691,0.059054
10172492,0.344006,0.424175,0.069135
10183676,0.345517,0.416219,0.0511611
10192453,0.35141,0.417368,0.0655069
10203659,0.349375,0.409022,0.0571987
10212476,0.330825,0.415699,0.0642473
10223653,0.356741,0.433562,0.051643
10232476,0.3402,0.417368,0.0657303
10243652,0.343818,0.428034,0.0596848
10252485,0.347615,0.424436,0.0626664
10263663,0.349334,0.436901,0.0551301
10272491,0.336599,0.427514,0.0726221
10283658,0.34958,0.425975,0.0674953
10292477,0.343818,0.428034,0.0596848
10302892,0.35875,0.410691,0.0586816
10312476,0.345772,0.415699,0.0639495
10322894,0.345772,0.415699,0.0639495
10332477,0.345772,0.415699,0.0639495
10342885,0.345772,0.415699,0.0639495
10352477,0.345772,0.415699,0.0639495
10362853,0.345772,0.415699,0.0639495
10372477,0.345772,0.415699,0.0639495
10391676,0.347543,0.41416,0.0590461
10402853,0.355224,0.434581,0.0693348
10411676,0.338556,0.418647,0.0770278
10422122,0.349713,0.432652,0.0741716
10431684,0.351604,0.420447,0.0752392
10442852,0.353048,0.409152,0.0539272
10451703,0.349583,0.429443,0.0676364
10462136,0.340399,0.427384,0.0757447
10471676,0.349644,0.425845,0.0706924
10482856,0.351352,0.424436,0.0625919
10491676,0.340391,0.416978,0.0753215
10502877,0.342046,0.429574,0.0645882
10511676,0.340266,0.420707,0.0690684
10522920,0.35319,0.426235,0.0610267
10531676,0.347546,0.417628,0.0591872
10542889,0.345902,0.418907,0.0704847
10551677,0.340336,0.427514,0.0725476
10562919,0.35123,0.431633,0.0564798
10571710,0.353195,0.433172,0.0613088
10582876,0.347491,0.428164,0.0564132
10591677,0.347809,0.427514,0.0723987
10602876,0.351537,0.417108,0.0719011
10611687,0.356865,0.429834,0.0578962
10622876,0.354897,0.424826,0.0529262
10631676,0.33431,0.419688,0.0515256
10642876,0.34952,0.429574,0.0644393
10651677,0.340264,0.417238,0.0689274
10662876,0.34,0.407353,0.0557158
10671676,0.349711,0.429183,0.0740305
10682893,0.340269,0.424175,0.0692095
10691677,0.332923,0.423915,0.0757526
10702883,0.347812,0.430983,0.0725398
10711696,0.358894,0.431243,0.0659222
10722892,0.338622,0.421986,0.080366
10731701,0.345916,0.436251,0.07119
10742894,0.345716,0.426235,0.0611756
10751721,0.336261,0.403884,0.0556492
10762884,0.358955,0.427644,0.0689782
10771689,0.338243,0.426235,0.0613245
10782876,0.334628,0.419038,0.067511
10791723,0.328998,0.427774,0.0663768
10802876,0.351161,0.424826,0.0530006
10811684,0.362947,0.427124,0.0816921
10822877,0.332868,0.434451,0.0729787
10831677,0.340139,0.420967,0.0626742
10851685,0.340139,0.420967,0.0626742
10871677,0.340139,0.420967,0.0626742
10891677,0.340139,0.420967,0.0626742
10910886,0.331027,0.429183,0.0744029
10921276,0.351465,0.406832,0.0682808
10930876,0.353251,0.422636,0.0640827
10941306,0.357048,0.419038,0.0670642
10950876,0.353503,0.418647,0.07673
10961315,0.349445,0.415829,0.0606779
10970876,0.358883,0.417368,0.0653579
10981324,0.357103,0.408502,0.0698382
10990877,0.345966,0.418777,0.0736818
11001288,0.332666,0.420967,0.0628232
11010883,0.35699,0.426105,0.0641493
11021307,0.351418,0.427774,0.0659301
11030883,0.341977,0.422766,0.061109
11042142,0.353256,0.429574,0.0643648
11050883,0.345789,0.436511,0.0647959
11062059,0.342154,0.405033,0.0699949
11070883,0.334564,0.419168,0.0643139
11082079,0.345655,0.429834,0.0581196
11090884,0.343693,0.431763,0.0534317
11102084,0.34374,0.410821,0.0557824
11110885,0.345639,0.409022,0.0572732
11122105,0.332799,0.427644,0.0694995
11130884,0.357314,0.432392,0.0804169
11142114,0.345789,0.436511,0.0647959
11150853,0.360918,0.425715,0.0736661
11162097,0.344014,0.434581,0.0695582
11170852,0.358684,0.407353,0.0553435
11182144,0.358759,0.421097,0.0591048
11190853,0.336208,0.417889,0.0530164
11202116,0.342049,0.433042,0.0647293
11210853,0.334634,0.425975,0.0677932
11222078,0.342096,0.4121,0.06708
11230852,0.349505,0.41223,0.063734
11242088,0.342165,0.418907,0.0705592
11250861,0.349638,0.418907,0.0704103
11262077,0.345777,0.422636,0.0642316
11270853,0.336339,0.421097,0.0595516
11282076,0.347479,0.41429,0.055849
11290853,0.344081,0.43792,0.0728964
11302082,0.345639,0.409022,0.0572732
11310887,0.341919,0.429834,0.058194
11330926,0.341919,0.429834,0.058194
11350915,0.341919,0.429834,0.058194
11370923,0.341919,0.429834,0.058194
11379729,0.360849,0.418907,0.0701869
11390052,0.343881,0.427904,0.0628819
11399728,0.343989,0.403364,0.0682886
11410052,0.351734,0.423655,0.0817745
11419729,0.338301,0.419168,0.0642395
11430052,0.35174,0.430592,0.0820566
11439752,0.353323,0.432912,0.067703
11450052,0.344,0.417238,0.0688529
11459729,0.343873,0.417498,0.0624587
11470077,0.340139,0.420967,0.0626742
11479728,0.33653,0.420707,0.0691429
11490076,0.345907,0.425845,0.0707669
11499736,0.343989,0.403364,0.0682886
11510086,0.347745,0.427644,0.0692016
11519729,0.3402,0.417368,0.0657303
11530076,0.344006,0.424175,0.069135
11540476,0.356987,0.422636,0.0640082
11550076,0.347806,0.424045,0.0722576
11559747,0.338312,0.433042,0.0648037
11570076,0.33653,0.420707,0.0691429
11579764,0.356929,0.429704,0.0610933
11590076,0.336976,0.419796,0.0915225
11599739,0.343806,0.41416,0.0591206
11610076,0.338428,0.418907,0.0706337
11619755,0.338365,0.419038,0.0674366
11630089,0.342301,0.429053,0.0773766
11639795,0.342229,0.418777,0.0737563
11650077,0.334445,0.429834,0.0583429
11659791,0.338235,0.415829,0.0609013
11670077,0.338498,0.425715,0.0741129
11679721,0.323487,0.425845,0.0712136
11690077,0.341971,0.415829,0.0608269
11699722,0.356912,0.408892,0.0602469
11710077,0.33855,0.41171,0.0767457
11719717,0.336779,0.413249,0.0816491
11730077,0.344078,0.434451,0.0727553
11739721,0.353436,0.415309,0.0733918
11750076,0.355343,0.423915,0.0753058
11761280,0.343939,0.420837,0.0657969
11781317,0.344136,0.427384,0.0756702
11790084,0.353192,0.429704,0.0611677
11799722,0.353192,0.429704,0.0611677
11810085,0.353192,0.429704,0.0611677
11819698,0.353192,0.429704,0.0611677
11830085,0.353192,0.429704,0.0611677
11839698,0.353192,0.429704,0.0611677
11850085,0.353192,0.429704,0.0611677
11858879,0.342301,0.429053,0.0773766
11870084,0.338434,0.425845,0.0709158
11878877,0.342041,0.422636,0.0643061
11889282,0.353062,0.426495,0.0546325
11898889,0.345786,0.433042,0.0646548
11909300,0.356973,0.405293,0.0633029
11918887,0.327088,0.415699,0.0643218
11929285,0.342043,0.426105,0.0644471
11938853,0.355207,0.41377,0.0684884
11949316,0.35167,0.423785,0.0785774
11958852,0.347751,0.434581,0.0694837
11969340,0.333056,0.430592,0.0824289
11978852,0.340203,0.420837,0.0658713
11989279,0.338434,0.425845,0.0709158
11998853,0.346096,0.421986,0.0802171
12009310,0.327025,0.415829,0.0611247
12018853,0.349436,0.405423,0.0602547
12029276,0.355025,0.424566,0.0593203
12038853,0.34578,0.426105,0.0643727
12049277,0.34761,0.417498,0.0623842
12058853,0.34558,0.416089,0.0543582
12069276,0.340081,0.428034,0.0597593
12078853,0.345971,0.425715,0.0739639
12089276,0.327349,0.422116,0.0773923
12098876,0.353508,0.425585,0.0770121
12109276,0.338373,0.429443,0.0678598
12118876,0.344,0.417238,0.0688529
12129299,0.342101,0.419038,0.0673621
12138876,0.338567,0.432522,0.0775921
12149282,0.345835,0.415569,0.0671466
12158876,0.342179,0.436251,0.0712645
12169277,0.340203,0.420837,0.0658713
12178876,0.338104,0.412621,0.0543661
12189276,0.34565,0.422896,0.0578374
12198881,0.329056,0.420707,0.0692918
12209276,0.340405,0.434321,0.0760268
12218906,0.336397,0.41403,0.0624666
12229276,0.361042,0.421986,0.0799192
12238927,0.340147,0.431373,0.0630974
12249276,0.341971,0.415829,0.0608269
12258895,0.344006,0.424175,0.069135
12269269,0.343873,0.417498,0.0624587
12278922,0.343873,0.417498,0.0624587
12279747,0.343873,0.417498,0.0624587
12289253,0.343873,0.417498,0.0624587
12298884,0.343873,0.417498,0.0624587
12299741,0.343873,0.417498,0.0624587
12309253,0.343873,0.417498,0.0624587
12318890,0.343873,0.417498,0.0624587
12319721,0.343873,0.417498,0.0624587
12329255,0.343873,0.417498,0.0624587
12338082,0.34191,0.419428,0.0577708
12348490,0.325201,0.431373,0.0633953
12358082,0.340133,0.41403,0.0623921
12369268,0.355282,0.427514,0.0722498
12378082,0.341922,0.433302,0.0583351
12389268,0.33299,0.427254,0.0790907
12398082,0.355216,0.424175,0.0689116
12408484,0.328995,0.424306,0.0662358
12418076,0.334567,0.422636,0.064455
12428453,0.355083,0.417498,0.0622353
12438090,0.347679,0.424306,0.0658635
12449308,0.340402,0.430853,0.0758858
12458084,0.338622,0.421986,0.080366
12469306,0.333167,0.40952,0.0879767
12478084,0.343939,0.420837,0.0657969
12488462,0.362553,0.41403,0.0619453
12498084,0.360663,0.426235,0.0608777
12509276,0.340402,0.430853,0.0758858
12518084,0.343867,0.410561,0.0621766
12528471,0.362371,0.424826,0.0527772
12538084,0.345769,0.41223,0.0638084
12548491,0.347812,0.430983,0.0725398
12558084,0.345705,0.41236,0.0606113
12568483,0.359077,0.420447,0.0750903
12578084,0.347549,0.421097,0.0593282
12588502,0.351418,0.427774,0.0659301
12598086,0.345653,0.426365,0.0579785
12608476,0.344009,0.427644,0.0692761
12618084,0.338176,0.422896,0.0579864
12628476,0.342043,0.426105,0.0644471
12638137,0.342101,0.419038,0.0673621
12648476,0.347621,0.431373,0.0629485
12658094,0.355152,0.424306,0.0657145
12668476,0.351416,0.424306,0.065789
12678086,0.343948,0.431243,0.06622
12688489,0.334562,0.415699,0.0641729
12698084,0.338501,0.429183,0.0742539
12708486,0.355086,0.420967,0.0623764
12718084,0.343881,0.427904,0.0628819
12728476,0.347743,0.424175,0.0690605
12738862,0.347743,0.424175,0.0690605
12748477,0.347743,0.424175,0.0690605
12758863,0.347743,0.424175,0.0690605
12768477,0.347743,0.424175,0.0690605
12778853,0.347743,0.424175,0.0690605
12788477,0.347743,0.424175,0.0690605
12797284,0.351407,0.4139,0.0653658
12808476,0.340139,0.420967,0.0626742
12817303,0.327169,0.436381,0.0683653
12828476,0.374027,0.423915,0.0749335
12837276,0.366423,0.420707,0.0685472
12848476,0.345974,0.429183,0.074105
12857276,0.340145,0.427904,0.0629564
12868476,0.340211,0.431243,0.0662945
12877276,0.342107,0.425975,0.0676442
12888476,0.33292,0.420447,0.0756115
12897277,0.355205,0.410301,0.0683474
12908476,0.330903,0.432912,0.0681497
12917276,0.343878,0.424436,0.0627408
12928476,0.353311,0.419038,0.0671387
12937276,0.330897,0.425975,0.0678676
12948476,0.344017,0.43805,0.0696993
12957291,0.342107,0.425975,0.0676442
12968476,0.349641,0.422376,0.0705513
12977293,0.347751,0.434581,0.0694837
12988476,0.344009,0.427644,0.0692761
12997277,0.347734,0.41377,0.0686374
13008476,0.358831,0.431373,0.0627251
13017276,0.351532,0.410171,0.0716189
13028477,0.355415,0.434191,0.0789261
13037276,0.33842,0.408502,0.0702105
13048476,0.360721,0.419168,0.0637927
13057253,0.347665,0.406962,0.0651581
13068476,0.366351,0.410431,0.0649269
13077266,0.357051,0.422506,0.0672053
13088476,0.349267,0.433562,0.051792
13097252,0.351407,0.4139,0.0653658
13108507,0.355072,0.403624,0.0616711
13117253,0.34002,0.431633,0.0567032
13128495,0.347612,0.420967,0.0625253
13137252,0.332732,0.424306,0.0661613
13148500,0.342101,0.419038,0.0673621
13157253,0.351551,0.434451,0.0726064
13167730,0.353184,0.419298,0.0607445
13177276,0.345716,0.426235,0.0611756
13187700,0.345719,0.429704,0.0613166
13197252,0.353054,0.416089,0.0542093
13207714,0.336472,0.427774,0.0662279
13217277,0.360655,0.415829,0.0604545
13227724,0.360655,0.415829,0.0604545
13237277,0.360655,0.415829,0.0604545
13247684,0.360655,0.415829,0.0604545
13257277,0.360655,0.415829,0.0604545
13267684,0.360655,0.415829,0.0604545
13277277,0.360655,0.415829,0.0604545
13287692,0.3644,0.426235,0.0608033
13296485,0.345789,0.436511,0.0647959
13307654,0.347798,0.413639,0.0718345
13316453,0.353453,0.436121,0.0742382
13327677,0.362559,0.420967,0.0622275
13336453,0.342093,0.408632,0.0669389
13347676,0.343815,0.424566,0.0595437
13356454,0.362759,0.430983,0.0722419
13367652,0.358692,0.417758,0.0557667
13376497,0.323357,0.422636,0.0646784
13387688,0.351488,0.434581,0.0694093
13396521,0.357381,0.43573,0.083755
13407652,0.338295,0.41223,0.0639574
13416487,0.357045,0.415569,0.0669232
13427666,0.349378,0.41249,0.0573398
13436513,0.342035,0.415699,0.064024
13447662,0.357112,0.418907,0.0702613
13456522,0.34743,0.431763,0.0533572
13467653,0.340142,0.424436,0.0628153
13476483,0.356724,0.412751,0.0507967
13487652,0.336533,0.424175,0.0692839
13496489,0.343826,0.43844,0.060108
13507654,0.355285,0.430983,0.0723908
13516484,0.34211,0.429443,0.0677853
13527678,0.349838,0.428923,0.0804247
13536477,0.33299,0.427254,0.0790907
13547676,0.349647,0.429313,0.0708335
13556477,0.353248,0.419168,0.0639416
13567684,0.344011,0.431113,0.0694171
13576481,0.345503,0.398876,0.0504558
13587676,0.342099,0.415569,0.067221
13596477,0.353248,0.419168,0.0639416
13607676,0.345592,0.429964,0.0549225
13616477,0.341982,0.429704,0.0613911
13627675,0.347355,0.418019,0.0495959
13636523,0.343754,0.428164,0.0564877
13647676,0.323177,0.436901,0.0556514
13656477,0.342168,0.422376,0.0707003
13667676,0.351285,0.421097,0.0592537
13676477,0.342041,0.422636,0.0643061
13687683,0.36249,0.41416,0.0587482
13696490,0.353256,0.429574,0.0643648
13707692,0.341974,0.419298,0.0609679
13716477,0.36097,0.41171,0.0762989
13736492,0.36097,0.41171,0.0762989
13756477,0.36097,0.41171,0.0762989
13776477,0.36097,0.41171,0.0762989
13786876,0.334637,0.429443,0.0679342
13795684,0.35717,0.41184,0.0731763
13806916,0.349389,0.426365,0.057904
13815684,0.35121,0.407353,0.0554924
13825322,0.34952,0.429574,0.0644393
13835676,0.347673,0.417368,0.0655813
13846924,0.353389,0.436251,0.0710411
13855676,0.332477,0.424826,0.0533729
13866876,0.349699,0.415309,0.0734663
13875687,0.347684,0.431243,0.0661456
13886881,0.351416,0.424306,0.065789
13895676,0.345583,0.419558,0.0544993
13906876,0.340086,0.434972,0.0600414
13915677,0.334891,0.428923,0.0807226
13926877,0.336593,0.420577,0.07234
13935676,0.346038,0.429053,0.0773021
13946876,0.344064,0.417108,0.07205
13955653,0.351158,0.421357,0.0528596
13966876,0.34952,0.429574,0.0644393
13975677,0.334448,0.433302,0.058484
13986877,0.351222,0.421227,0.0560567
13995677,0.34389,0.43831,0.0633051
14006878,0.35508,0.41403,0.0620943
14015682,0.336535,0.427644,0.069425
14026877,0.349702,0.418777,0.0736074
14035718,0.33628,0.428164,0.0566366
14046876,0.34565,0.422896,0.0578374
14055684,0.35136,0.434842,0.0630151
14066876,0.362307,0.424956,0.0495801
14075703,0.341916,0.426365,0.058053
14086877,0.334506,0.426235,0.061399
14095677,0.334434,0.415959,0.0577787
14106876,0.360602,0.429834,0.0578217
14115676,0.358828,0.427904,0.062584
14126877,0.355152,0.424306,0.0657145
14135676,0.353314,0.422506,0.0672798
14146876,0.341786,0.423156,0.0515177
14155661,0.340208,0.427774,0.0661534
14166889,0.356998,0.436511,0.0645725
14175652,0.336469,0.424306,0.0660869
14195653,0.336469,0.424306,0.0660869
14215653,0.336469,0.424306,0.0660869
14235653,0.336469,0.424306,0.0660869
14244495,0.345852,0.436381,0.067993
14254877,0.340327,0.417108,0.0721244
14264515,0.349456,0.429704,0.0612422
14274876,0.332785,0.410301,0.0687942
14284511,0.347618,0.427904,0.0628074
14294876,0.32894,0.434842,0.0634619
14304517,0.336399,0.417498,0.0626076
14314852,0.347363,0.428425,0.0500191
14324477,0.343327,0.444293,-0.340101
14325293,0.351482,0.427644,0.0691271
14334861,0.325325,0.427644,0.0696484
14344477,0.358955,0.427644,0.0689782
14354857,0.351233,0.435102,0.0566209
14364477,0.345281,0.431958,-0.335836
14365293,0.353436,0.415309,0.0733918
14374882,0.33837,0.425975,0.0677187
14384477,0.346456,0.402519,0.473467
14385325,0.338301,0.419168,0.0642395
14394852,0.345783,0.429574,0.0645137
14404476,0.328378,0.440825,-0.339944
14405306,0.336533,0.424175,0.0692839
14414859,0.345838,0.419038,0.0672876
14424477,0.352103,0.414594,0.475448
14425277,0.343948,0.431243,0.06622
14434852,0.332674,0.431373,0.0632463
14444477,0.343876,0.420967,0.0625998
14446105,0.343939,0.420837,0.0657969
14454853,0.34015,0.434842,0.0632385
14464476,0.332663,0.417498,0.0626821
14466114,0.332727,0.417368,0.0658792
14474883,0.334559,0.41223,0.0640318
14484477,0.327091,0.419168,0.0644629
14486100,0.3269,0.419558,0.0548716
14494884,0.334695,0.422376,0.0708492
14504477,0.357115,0.422376,0.0704024
14506064,0.356605,0.423417,0.0448257
14514884,0.349456,0.429704,0.0612422
14524476,0.356921,0.419298,0.0606701
14526053,0.35673,0.419688,0.0510788
14534884,0.366348,0.406962,0.0647858
14544477,0.351407,0.4139,0.0653658
14546053,0.351152,0.41442,0.0525774
14554890,0.347801,0.417108,0.0719755
14564483,0.345937,0.422311,0.0722243
14566052,0.34565,0.422896,0.0578374
14574892,0.341855,0.429964,0.0549969
14586053,0.341919,0.429834,0.058194
14594890,0.360716,0.41223,0.0635106
14604483,0.353242,0.41223,0.0636595
14606053,0.353378,0.422376,0.0704769
14614896,0.338298,0.415699,0.0640984
14624483,0.360718,0.415699,0.0636516
14626083,0.360727,0.426105,0.0640748
14634940,0.360724,0.422636,0.0639338
14644478,0.360724,0.422636,0.0639338
14654890,0.360724,0.422636,0.0639338
14664477,0.360724,0.422636,0.0639338
14674898,0.360724,0.422636,0.0639338
14684477,0.360724,0.422636,0.0639338
14694909,0.360724,0.422636,0.0639338
14704533,0.360724,0.422636,0.0639338
14714082,0.353248,0.419168,0.0639416
14723683,0.341786,0.423156,0.0515177
14734088,0.349461,0.436641,0.0615243
14743685,0.349193,0.419818,0.0480306
14754082,0.351277,0.410691,0.0588306
14763676,0.354964,0.428164,0.0562643
14774077,0.351485,0.431113,0.0692682
14783676,0.332793,0.420707,0.0692173
14794095,0.353245,0.415699,0.0638006
14803677,0.35319,0.426235,0.0610267
14814084,0.339942,0.41442,0.0528008
14823677,0.338243,0.426235,0.0613245
14834084,0.343823,0.434972,0.0599669
14843691,0.340023,0.435102,0.0568443
14854084,0.34209,0.405163,0.0667979
14863697,0.343759,0.435102,0.0567698
14874084,0.351291,0.428034,0.0595359
14883724,0.343884,0.431373,0.063023
14894084,0.358961,0.434581,0.0692603
14903690,0.345896,0.41197,0.0702026
14914084,0.358764,0.428034,0.0593869
14923707,0.338232,0.41236,0.0607603
14934084,0.33837,0.425975,0.0677187
14943692,0.340333,0.424045,0.0724066
14954090,0.351216,0.41429,0.0557745
14963653,0.345722,0.433172,0.0614577
14974084,0.347366,0.431893,0.0501601
14984521,0.351537,0.417108,0.0719011
14994084,0.341855,0.429964,0.0549969
15003662,0.356929,0.429704,0.0610933
15014084,0.34565,0.422896,0.0578374
15023703,0.356868,0.433302,0.0580372
15034096,0.35294,0.433693,0.0485204
15043663,0.336344,0.428034,0.0598337
15054083,0.34565,0.422896,0.0578374
15063653,0.345644,0.415959,0.0575553
15074096,0.345719,0.429704,0.0613166
15084477,0.351216,0.41429,0.0557745
15094084,0.341977,0.422766,0.061109
15103676,0.360738,0.439979,0.0646391
15114084,0.334509,0.429704,0.06154
15124486,0.34387,0.41403,0.0623176
15134084,0.349328,0.429964,0.054848
15144487,0.360339,0.419948,0.0446101
15154085,0.360339,0.419948,0.0446101
15164494,0.360339,0.419948,0.0446101
15174084,0.360339,0.419948,0.0446101
15183685,0.360339,0.419948,0.0446101
15194077,0.360339,0.419948,0.0446101
15203685,0.360339,0.419948,0.0446101
15213279,0.347554,0.428034,0.0596103
15222853,0.355155,0.427774,0.0658556
15233289,0.338301,0.419168,0.0642395
15242853,0.325131,0.424566,0.0599161
15253319,0.36079,0.425975,0.0672719
15262877,0.347236,0.428685,0.0436249
15273276,0.347488,0.424696,0.0562722
15282886,0.340194,0.410431,0.0654481
15293285,0.351219,0.417758,0.0559156
15302876,0.343751,0.424696,0.0563466
15313276,0.340136,0.417498,0.0625332
15322876,0.354892,0.417889,0.052644
15333276,0.353071,0.436901,0.0550557
15342885,0.347493,0.431633,0.0565543
15353276,0.343815,0.424566,0.0595437
15362886,0.355088,0.424436,0.0625174
15373276,0.34558,0.416089,0.0543582
15382877,0.334764,0.429183,0.0743284
15393287,0.35319,0.426235,0.0610267
15402877,0.347485,0.421227,0.0561311
15413259,0.358631,0.421357,0.0527106
15422885,0.345647,0.419428,0.0576964
15433260,0.351277,0.410691,0.0588306
15442877,0.366301,0.427904,0.0624351
15453270,0.364403,0.429704,0.0609443
15462864,0.330445,0.419948,0.0452059
15473280,0.355221,0.431113,0.0691938
15482882,0.362623,0.420837,0.0654245
15493261,0.347427,0.428294,0.0532162
15502896,0.362559,0.420967,0.0622275
15513253,0.341849,0.423026,0.0547148
15522916,0.340208,0.427774,0.0661534
15533281,0.328929,0.420967,0.0628976
15542884,0.340205,0.424306,0.0660124
15553253,0.351346,0.417498,0.0623098
15562903,0.355039,0.441909,0.0600257
15573284,0.339884,0.421487,0.0498859
15582877,0.34191,0.419428,0.0577708
15593283,0.347745,0.427644,0.0692016
15602877,0.336164,0.442299,0.0508067
15613290,0.340017,0.428164,0.0565622
15622877,0.34565,0.422896,0.0578374
15633284,0.35875,0.410691,0.0586816
15643700,0.35875,0.410691,0.0586816
15653284,0.35875,0.410691,0.0586816
15663705,0.35875,0.410691,0.0586816
15673284,0.35875,0.410691,0.0586816
15683677,0.35875,0.410691,0.0586816
15693290,0.35875,0.410691,0.0586816
15702093,0.362501,0.428034,0.0593125
15713290,0.336411,0.431373,0.0631719
15722078,0.345716,0.426235,0.0611756
15733290,0.345847,0.429443,0.0677108
15742082,0.354972,0.43857,0.0566875
15753282,0.347876,0.430853,0.0757369
15762084,0.338376,0.432912,0.0680008
15773283,0.347554,0.428034,0.0596103
15782091,0.356796,0.423026,0.0544169
15793276,0.358512,0.432023,0.0467396
15802091,0.351357,0.431373,0.062874
15812512,0.347676,0.420837,0.0657224
15822090,0.351091,0.418019,0.0495214
15832528,0.347349,0.411081,0.0493138
15842091,0.347881,0.43779,0.076019
15852498,0.347748,0.431113,0.0693427
15862091,0.355022,0.421097,0.0591793
15872517,0.345653,0.426365,0.0579785
15882084,0.355207,0.41377,0.0684884
15892503,0.340208,0.427774,0.0661534
15902084,0.345714,0.422766,0.0610345
15912476,0.362487,0.410691,0.0586072
15922084,0.354894,0.421357,0.0527851
15932476,0.349583,0.429443,0.0676364
15942085,0.343676,0.410951,0.0525853
15952476,0.349447,0.419298,0.060819
15962077,0.356854,0.415959,0.0573319
15972476,0.344006,0.424175,0.069135
15982077,0.351482,0.427644,0.0691271
15992477,0.355013,0.410691,0.0587561
16002077,0.358825,0.424436,0.062443
16012476,0.344122,0.410041,0.0749649
16022077,0.340272,0.427644,0.0693505
16032476,0.336472,0.427774,0.0662279
16042053,0.342223,0.41184,0.0734742
16052476,0.351421,0.431243,0.0660711
16062053,0.355213,0.420707,0.0687706
16072476,0.349575,0.419038,0.0672132
16082101,0.349575,0.419038,0.0672132
16092477,0.349575,0.419038,0.0672132
16102098,0.349575,0.419038,0.0672132
16112477,0.349575,0.419038,0.0672132
16122877,0.349575,0.419038,0.0672132
16132487,0.349575,0.419038,0.0672132
16141276,0.351462,0.403364,0.0681397
16152490,0.345971,0.425715,0.0739639
16161301,0.355138,0.406962,0.0650092
16172476,0.345858,0.443318,0.0682751
16181252,0.342107,0.425975,0.0676442
16192476,0.360657,0.419298,0.0605956
16201252,0.347745,0.427644,0.0692016
16212476,0.351352,0.424436,0.0625919
16221253,0.345708,0.415829,0.0607524
16232476,0.347621,0.431373,0.0629485
16241252,0.351401,0.406962,0.0650837
16252476,0.357187,0.432652,0.0740227
16261253,0.330506,0.416349,0.0482619
16272476,0.332799,0.427644,0.0694995
16281252,0.349442,0.41236,0.0605369
16292476,0.355008,0.403754,0.058474
16301252,0.345595,0.433432,0.0550635
16312476,0.343945,0.427774,0.066079
16321252,0.353323,0.432912,0.067703
16332476,0.355155,0.427774,0.0658556
16341276,0.359069,0.410041,0.0746671
16352452,0.356996,0.433042,0.0644314
16361279,0.360655,0.415829,0.0604545
16372452,0.327288,0.425715,0.0743363
16381284,0.358637,0.428294,0.0529928
16392452,0.332793,0.420707,0.0692173
16401304,0.356652,0.402475,0.0471764
16412452,0.351285,0.421097,0.0592537
16421297,0.332793,0.420707,0.0692173
16432452,0.345702,0.408892,0.0604703
16441292,0.328874,0.431503,0.0601237
16452452,0.336591,0.417108,0.0721989
16461343,0.349572,0.415569,0.0670721
16472452,0.341913,0.422896,0.0579119
16481284,0.340399,0.427384,0.0757447
16492452,0.345647,0.419428,0.0576964
16501283,0.351731,0.420187,0.0816334
16511707,0.345966,0.418777,0.0736818
16521284,0.345966,0.418777,0.0736818
16531675,0.345966,0.418777,0.0736818
16541284,0.345966,0.418777,0.0736818
16551673,0.345966,0.418777,0.0736818
16561300,0.345966,0.418777,0.0736818
16571653,0.345966,0.418777,0.0736818
16580476,0.358698,0.424696,0.0560488
16591661,0.35508,0.41403,0.0620943
16600477,0.338301,0.419168,0.0642395
16611655,0.341847,0.419558,0.0545737
16620476,0.340133,0.41403,0.0623921
16631652,0.334562,0.415699,0.0641729
16640476,0.344061,0.413639,0.0719089
16651676,0.353251,0.422636,0.0640827
16660481,0.343754,0.428164,0.0564877
16671676,0.338365,0.419038,0.0674366
16680501,0.330836,0.429574,0.0648116
16691676,0.34774,0.420707,0.0689195
16700536,0.345716,0.426235,0.0611756
16711676,0.34591,0.429313,0.0709079
16720512,0.349641,0.422376,0.0705513
16731687,0.353184,0.419298,0.0607445
16740529,0.340466,0.430723,0.0790829
16751676,0.342301,0.429053,0.0773766
16760477,0.351291,0.428034,0.0595359
16771676,0.341922,0.433302,0.0583351
16780477,0.342107,0.425975,0.0676442
16791676,0.334376,0.423026,0.0548637
16800476,0.332793,0.420707,0.0692173
16811682,0.345907,0.425845,0.0707669
16820488,0.341844,0.416089,0.0544327
16831677,0.32703,0.422766,0.0614068
16840476,0.358839,0.441779,0.0631483
16851683,0.355022,0.421097,0.0591793
16860477,0.35312,0.419428,0.0575474
16871731,0.345974,0.429183,0.074105
16880476,0.351537,0.417108,0.0719011
16891695,0.349647,0.429313,0.0708335
16900476,0.338506,0.436121,0.0745361
16911683,0.330775,0.433172,0.0617556
16920483,0.351479,0.424175,0.0689861
16931677,0.351418,0.427774,0.0659301
16940483,0.336203,0.410951,0.0527342
16951676,0.362429,0.417758,0.0556922
16960483,0.362429,0.417758,0.0556922
16980483,0.362429,0.417758,0.0556922
17000484,0.362429,0.417758,0.0556922
17019736,0.336341,0.424566,0.0596927
17029257,0.341544,0.431958,-0.335761
17030092,0.349699,0.415309,0.0734663
17039790,0.343612,0.411081,0.0493882
17049253,0.340064,0.407222,0.0589129
17059751,0.340078,0.424566,0.0596182
17069253,0.332109,0.433887,-0.3403
17070083,0.340264,0.417238,0.0689274
17079752,0.364582,0.415439,0.0699714
17090131,0.353572,0.425455,0.0802092
17099721,0.336474,0.431243,0.066369
17109253,0.343953,0.43818,0.0665022
17119721,0.342107,0.425975,0.0676442
17130084,0.334368,0.412621,0.0544405
17139721,0.362689,0.424175,0.0687627
17149282,0.347745,0.427644,0.0692016
17159721,0.331091,0.429053,0.0776
17170077,0.3402,0.417368,0.0657303
17179741,0.351355,0.427904,0.062733
17190896,0.336596,0.424045,0.072481
17199720,0.343939,0.420837,0.0657969
17210894,0.358756,0.417628,0.0589638
17219721,0.349328,0.429964,0.054848
17230884,0.344072,0.427514,0.0724732
17239721,0.338301,0.419168,0.0642395
17250865,0.345907,0.425845,0.0707669
17259729,0.336344,0.428034,0.0598337
17270876,0.340391,0.416978,0.0753215
17279738,0.346032,0.422116,0.07702
17290881,0.342365,0.428923,0.0805737
17299761,0.34761,0.417498,0.0623842
17310877,0.357176,0.418777,0.0734584
17319775,0.34952,0.429574,0.0644393
17330877,0.347549,0.421097,0.0593282
17339711,0.349517,0.426105,0.0642982
17350877,0.357311,0.428923,0.0802758
17359724,0.357311,0.428923,0.0802758
17369297,0.357311,0.428923,0.0802758
17379731,0.357311,0.428923,0.0802758
17389285,0.357311,0.428923,0.0802758
17399697,0.357311,0.428923,0.0802758
17408483,0.351346,0.417498,0.0623098
17418876,0.34754,0.410691,0.058905
17428476,0.35712,0.429313,0.0706845
17438852,0.347615,0.424436,0.0626664
17448477,0.342043,0.426105,0.0644471
17458852,0.343937,0.417368,0.0656558
17468477,0.351607,0.423915,0.0753803
17478876,0.340205,0.424306,0.0660124
17488490,0.344006,0.424175,0.069135
17498853,0.336654,0.416978,0.075396
17508484,0.355207,0.41377,0.0684884
17518852,0.34224,0.432652,0.0743205
17528503,0.357045,0.415569,0.0669232
17538852,0.341789,0.426625,0.0516588
17548522,0.35888,0.4139,0.0652169
17558852,0.330889,0.415569,0.0674444
17568492,0.349326,0.426495,0.0547069
17578852,0.354958,0.421227,0.0559822
17588499,0.347948,0.441128,0.0793571
17598876,0.353372,0.415439,0.0701947
17608503,0.347682,0.427774,0.0660045
17618876,0.355158,0.431243,0.0659967
17628477,0.336469,0.424306,0.0660869
17638876,0.349522,0.433042,0.0645803
17648477,0.345783,0.429574,0.0645137
17658876,0.342107,0.425975,0.0676442
17668476,0.358828,0.427904,0.062584
17678876,0.353375,0.418907,0.0703358
17688477,0.362498,0.424566,0.0591714
17698876,0.351224,0.424696,0.0561977
17708477,0.343948,0.431243,0.06622
17718876,0.353514,0.432522,0.0772942
17728489,0.355213,0.420707,0.0687706
17738876,0.35508,0.41403,0.0620943
17748487,0.342027,0.405293,0.0636008
17758891,0.342027,0.405293,0.0636008
17768478,0.342027,0.405293,0.0636008
17769253,0.342027,0.405293,0.0636008
17778925,0.342027,0.405293,0.0636008
17789253,0.342027,0.405293,0.0636008
17798889,0.342027,0.405293,0.0636008
17807677,0.342354,0.415049,0.0800094
17818879,0.351418,0.427774,0.0659301
17827677,0.35332,0.429443,0.0675619
17838876,0.329123,0.424045,0.07263
17847677,0.349575,0.419038,0.0672132
17858125,0.334504,0.422766,0.0612579
17867677,0.360793,0.429443,0.067413
17878093,0.338312,0.433042,0.0648037
17887677,0.3402,0.417368,0.0657303
17898113,0.364391,0.415829,0.0603801
17907680,0.347823,0.444857,0.073104
17918123,0.343754,0.428164,0.0564877
17927677,0.347537,0.407222,0.058764
17938083,0.33299,0.427254,0.0790907
17947677,0.338298,0.415699,0.0640984
17958076,0.344067,0.420577,0.072191
17967677,0.342157,0.408502,0.070136
17978076,0.347745,0.427644,0.0692016
17987684,0.344072,0.427514,0.0724732
17998052,0.34028,0.43805,0.0697737
18007684,0.330889,0.415569,0.0674444
18018076,0.343818,0.428034,0.0596848
18027684,0.340211,0.431243,0.0662945
18038076,0.340341,0.434451,0.0728298
18047730,0.351482,0.427644,0.0691271
18058076,0.35534,0.420447,0.0751647
18067696,0.336402,0.420967,0.0627487
18078076,0.344136,0.427384,0.0756702
18087672,0.342043,0.426105,0.0644471
18107652,0.332544,0.428164,0.0567111
18118087,0.32894,0.434842,0.0634619
18127660,0.355149,0.420837,0.0655735
18138077,0.355149,0.420837,0.0655735
18147657,0.355149,0.420837,0.0655735
18158083,0.355149,0.420837,0.0655735
18167677,0.355149,0.420837,0.0655735
18178091,0.355149,0.420837,0.0655735
18187688,0.355149,0.420837,0.0655735
18198090,0.345907,0.425845,0.0707669
18206876,0.327221,0.422376,0.0709981
18218090,0.34958,0.425975,0.0674953
18226853,0.351476,0.420707,0.068845
18238091,0.349647,0.429313,0.0708335
18246853,0.338312,0.433042,0.0648037
18258084,0.34976,0.41171,0.0765223
18266852,0.343818,0.428034,0.0596848
18278084,0.334448,0.433302,0.058484
18286884,0.343809,0.417628,0.0592616
18298076,0.34413,0.420447,0.0753881
18306853,0.340136,0.417498,0.0625332
18318077,0.362817,0.423915,0.0751569
18326853,0.34407,0.424045,0.0723321
18338076,0.334767,0.432652,0.0744695
18346853,0.340336,0.427514,0.0725476
18358077,0.342359,0.421986,0.0802915
18366862,0.321641,0.413639,0.0723557
18378052,0.344075,0.430983,0.0726142
18386893,0.345841,0.422506,0.0674287
18398052,0.349328,0.429964,0.054848
18406884,0.351612,0.430853,0.0756624
18418052,0.355091,0.427904,0.0626585
18426883,0.35528,0.424045,0.0721087
18438052,0.340466,0.430723,0.0790829
18446883,0.355404,0.420317,0.0783618
18458052,0.343803,0.410691,0.0589795
18466883,0.345777,0.422636,0.0642316
18478052,0.35528,0.424045,0.0721087
18486885,0.33653,0.420707,0.0691429
18498052,0.340205,0.424306,0.0660124
18506877,0.353575,0.428923,0.0803503
18518080,0.343945,0.427774,0.066079
18526877,0.349905,0.432262,0.0837629
18538111,0.342165,0.418907,0.0705592
18546886,0.330825,0.415699,0.0642473
18557324,0.338428,0.418907,0.0706337
18566877,0.338428,0.418907,0.0706337
18586877,0.338428,0.418907,0.0706337
18597256,0.338428,0.418907,0.0706337
18606878,0.338428,0.418907,0.0706337
18617253,0.338428,0.418907,0.0706337
18626077,0.345913,0.432782,0.071049
18635712,0.346101,0.428923,0.0804992
18646076,0.327357,0.432522,0.0778155
18657252,0.330836,0.429574,0.0648116
18666076,0.336397,0.41403,0.0624666
18677253,0.349583,0.429443,0.0676364
18686113,0.328937,0.431373,0.0633208
18697284,0.344011,0.431113,0.0694171
18706118,0.336593,0.420577,0.07234
18717283,0.338498,0.425715,0.0741129
18726116,0.35882,0.417498,0.0621609
18737287,0.347806,0.424045,0.0722576
18746084,0.336666,0.430853,0.0759602
18756502,0.332984,0.420317,0.0788086
18766103,0.332727,0.417368,0.0658792
18777283,0.33286,0.424045,0.0725555
18786077,0.346038,0.429053,0.0773021
18797283,0.351607,0.423915,0.0753803
18806077,0.331097,0.435991,0.0778821
18817284,0.340455,0.416848,0.0785186
18826077,0.342104,0.422506,0.0675032
18837286,0.349447,0.419298,0.060819
18846076,0.33831,0.429574,0.0646627
18857297,0.336605,0.434451,0.0729042
18866053,0.345913,0.432782,0.071049
18877288,0.33857,0.435991,0.0777331
18886077,0.347873,0.427384,0.0755958
18897284,0.343945,0.427774,0.066079
18906077,0.349569,0.4121,0.0669311
18917284,0.344,0.417238,0.0688529
18926077,0.351418,0.427774,0.0659301
18937284,0.360527,0.416089,0.0540604
18946077,0.342101,0.419038,0.0673621
18957284,0.353198,0.436641,0.0614498
18966077,0.347867,0.420447,0.0753137
18977284,0.347806,0.424045,0.0722576
18986078,0.347806,0.424045,0.0722576
19006078,0.347806,0.424045,0.0722576
19026085,0.347806,0.424045,0.0722576
19045280,0.34774,0.420707,0.0689195
19054853,0.327213,0.41197,0.0705749
19065276,0.349633,0.41197,0.0701281
19075713,0.340072,0.417628,0.0593361
19085276,0.35895,0.420707,0.0686961
19094870,0.349708,0.425715,0.0738895
19105276,0.339948,0.421357,0.053083
19114853,0.347551,0.424566,0.0594693
19125276,0.349445,0.415829,0.0606779
19134853,0.336472,0.427774,0.0662279
19145276,0.349511,0.419168,0.0640161
19155685,0.344255,0.416718,0.0816413
19165277,0.353259,0.433042,0.0645059
19174877,0.35143,0.441649,0.0664943
19185277,0.347792,0.406702,0.0715523
19195688,0.334426,0.405553,0.0573555
19205276,0.349456,0.429704,0.0612422
19215686,0.329137,0.441389,0.0733353
19225276,0.358753,0.41416,0.0588227
19235684,0.333048,0.420187,0.0820057
19245278,0.3349,0.439329,0.0811458
19255685,0.32907,0.43805,0.0699971
19265280,0.338634,0.43586,0.0809302
19276477,0.347745,0.427644,0.0692016
19285276,0.351679,0.434191,0.0790005
