timestamp,timestamp_sample,control[0],control[1],control[2],control[3],control[4],control[5],control[6],control[7]
4108634,4108479,0.000979005,0.000183374,-0.000951069,0.0,0.0,0.0,0.0,-1.0
4112618,4112479,0.000971052,-5.29521e-05,-0.000949727,0.0,0.0,0.0,0.0,-1.0
4212608,4212479,0.000662174,-0.000613078,-0.000311192,0.0,0.0,0.0,0.0,-1.0
4316642,4316455,0.000130499,-0.000749157,-0.000275956,0.0,0.0,0.0,0.0,-1.0
4416703,4416486,0.00171508,-0.000166732,-0.00136591,0.0,0.0,0.0,0.0,-1.0
4518253,4518090,0.00109743,-0.00065611,-0.000846114,0.0,0.0,0.0,0.0,-1.0
4619049,4618879,0.00123473,-0.000527142,-0.00074562,0.0,0.0,0.0,0.0,-1.0
4723027,4722892,0.00107594,-0.00017135,-0.00143498,0.0,0.0,0.0,0.0,-1.0
4823034,4822868,0.000461222,-0.00104952,-0.00103026,0.0,0.0,0.0,0.0,-1.0
4923023,4922855,0.000933534,-0.000115116,-0.00130241,0.0,0.0,0.0,0.0,-1.0
5027025,5026886,0.0014038,-0.000660774,-0.00128293,0.0,0.0,0.0,0.0,-1.0
5127023,5126886,0.000894715,-0.00025039,-0.0010272,0.0,0.0,0.0,0.0,-1.0
5227104,5226927,0.00108924,-0.000484153,-0.001034,0.0,0.0,0.0,0.0,-1.0
5331064,5330894,0.000899215,-0.00130892,-0.000782008,0.0,0.0,0.0,0.0,-1.0
5431024,5430897,0.000743255,-0.000120786,-0.000665178,0.0,0.0,0.0,0.0,-1.0
5535070,5534889,0.00174464,-0.000548249,-0.00112385,0.0,0.0,0.0,0.0,-1.0
5634979,5634855,0.00140333,-0.000818455,-0.000775019,0.0,0.0,0.0,0.0,-1.0
5735015,5734884,0.00124214,-0.000256104,-0.000942803,0.0,0.0,0.0,0.0,-1.0
5839029,5838905,0.000354563,-0.000731423,-0.000405005,0.0,0.0,0.0,0.0,-1.0
5939075,5938879,0.00062599,-0.000996682,-0.00118912,0.0,0.0,0.0,0.0,-1.0
6040658,6040485,0.00075657,-0.000337778,-0.000782966,0.0,0.0,0.0,0.0,-1.0
6140669,6140455,0.00126549,-0.000933357,-0.000706046,0.0,0.0,0.0,0.0,-1.0
6244648,6244479,0.000961192,-0.000391751,-0.000518148,0.0,0.0,0.0,0.0,-1.0
6344615,6344478,0.000685386,-0.00094305,-0.000306822,0.0,0.0,0.0,0.0,-1.0
6448621,6448486,0.0010936,-0.000737196,-0.000922523,0.0,0.0,0.0,0.0,-1.0
6548609,6548479,0.000457686,-0.000281391,-0.00037114,0.0,0.0,0.0,0.0,-1.0
6648621,6648485,0.000728755,-0.000669343,-0.00101165,0.0,0.0,0.0,0.0,-1.0
6752641,6752479,0.000644704,-0.000577432,-0.000283508,0.0,0.0,0.0,0.0,-1.0
6852664,6852455,0.00104898,-0.000500862,-0.000940239,0.0,0.0,0.0,0.0,-1.0
6952612,6952455,0.000884164,-0.000179618,-0.00073666,0.0,0.0,0.0,0.0,-1.0
7056655,7056478,0.000613204,-0.000186396,-0.000845752,0.0,0.0,0.0,0.0,-1.0
7156657,7156478,0.00106538,-0.000723276,-0.000800259,0.0,0.0,0.0,0.0,-1.0
7260624,7260486,0.00142754,-0.000111491,-0.000977837,0.0,0.0,0.0,0.0,-1.0
7364654,7364479,-0.000559683,-0.00140631,-0.000832714,0.0,0.0,0.0,0.0,-1.0
7464657,7464479,0.000620654,-0.000298974,-0.0010484,0.0,0.0,0.0,0.0,-1.0
7568667,7568492,0.00156381,-0.000536481,-0.00045524,0.0,0.0,0.0,0.0,-1.0
7668636,7668455,0.00116648,-0.00114805,-0.00142543,0.0,0.0,0.0,0.0,-1.0
7770297,7770129,0.0013745,-0.00104253,-0.000975371,0.0,0.0,0.0,0.0,-1.0
7870240,7870086,0.00129177,-0.000690717,-0.00104599,0.0,0.0,0.0,0.0,-1.0
7974206,7974078,0.000725388,-0.000475325,-0.00102762,0.0,0.0,0.0,0.0,-1.0
8074206,8074079,0.00106458,-0.000856647,-0.000701029,0.0,0.0,0.0,0.0,-1.0
8174226,8174085,0.00119088,-0.000734726,-0.00106963,0.0,0.0,0.0,0.0,-1.0
8278196,8278055,-0.576214,0.0259016,-0.00993677,0.0,0.0,0.0,0.0,-1.0
8378265,8378078,-0.576219,0.0254452,-0.00993049,0.0,0.0,0.0,0.0,-1.0
8482289,8482079,-0.576586,0.0257313,-0.0103814,0.0,0.0,0.0,0.0,-1.0
8583094,8582879,-0.575934,0.0252528,-0.0103878,0.0,0.0,0.0,0.0,-1.0
8683879,8683655,-0.576216,0.0253988,-0.0104748,0.0,0.0,0.0,0.0,-1.0
8783815,8783678,-0.575762,0.0259792,-0.0106552,0.0,0.0,0.0,0.0,-1.0
8885499,8885293,-0.576396,0.0261021,-0.00995462,0.0,0.0,0.0,0.0,-1.0
8989491,8989311,-0.576569,0.026167,-0.0104348,0.0,0.0,0.0,0.0,-1.0
9089450,9089309,-0.576018,0.0269382,-0.00990418,0.0,0.0,0.0,0.0,-1.0
9189445,9189266,-0.576499,0.0264471,-0.0099913,0.0,0.0,0.0,0.0,-1.0
9293432,9293278,-0.575889,0.026638,-0.0100666,0.0,0.0,0.0,0.0,-1.0
9393413,9393278,-0.57574,0.0264766,-0.00982971,0.0,0.0,0.0,0.0,-1.0
9493479,9493288,-0.575589,0.027005,-0.0101653,0.0,0.0,0.0,0.0,-1.0
9597473,9597299,-0.576216,0.0259949,-0.0100755,0.0,0.0,0.0,0.0,-1.0
9697451,9697279,-0.576232,0.0266498,-0.0101101,0.0,0.0,0.0,0.0,-1.0
9801460,9801279,-0.576105,0.0262541,-0.0103358,0.0,0.0,0.0,0.0,-1.0
9901430,9901255,-0.575134,0.0261046,-0.0100623,0.0,0.0,0.0,0.0,-1.0
10001445,10001255,-0.576287,0.0258768,-0.00994859,0.0,0.0,0.0,0.0,-1.0
10105487,10105305,-0.576669,0.0260506,-0.0102809,0.0,0.0,0.0,0.0,-1.0
10205477,10205292,-0.576088,0.0262734,-0.00985945,0.0,0.0,0.0,0.0,-1.0
10307088,10306886,-0.575981,0.0261759,-0.010241,0.0,0.0,0.0,0.0,-1.0
10407897,10407684,-0.575274,0.0264145,-0.0101765,0.0,0.0,0.0,0.0,-1.0
10511863,10511685,-0.576478,0.0265094,-0.00974249,0.0,0.0,0.0,0.0,-1.0
10611836,10611695,-0.575548,0.0260852,-0.01004,0.0,0.0,0.0,0.0,-1.0
10711844,10711704,-0.576281,0.0264778,-0.00998243,0.0,0.0,0.0,0.0,-1.0
10815790,10815655,-0.575963,0.0261009,-0.0095864,0.0,0.0,0.0,0.0,-1.0
10915815,10915679,-0.574922,0.0256594,-0.0101191,0.0,0.0,0.0,0.0,-1.0
11019941,11019728,-0.576411,0.0263208,-0.00991421,0.0,0.0,0.0,0.0,-1.0
11119904,11119699,-0.575475,0.0263372,-0.0100918,0.0,0.0,0.0,0.0,-1.0
11219957,11219771,-0.575894,0.0262779,-0.0103119,0.0,0.0,0.0,0.0,-1.0
11323871,11323730,-0.574363,0.025777,-0.0100578,0.0,0.0,0.0,0.0,-1.0
11427831,11427693,-0.575195,0.0259693,-0.00994136,0.0,0.0,0.0,0.0,-1.0
11527825,11527686,-0.577023,0.026488,-0.00980255,0.0,0.0,0.0,0.0,-1.0
11629455,11629299,-0.576538,0.026276,-0.00957819,0.0,0.0,0.0,0.0,-1.0
11730230,11730085,-0.577376,0.026791,-0.00969245,0.0,0.0,0.0,0.0,-1.0
11834251,11834086,-0.576486,0.0261131,-0.0102839,0.0,0.0,0.0,0.0,-1.0
11935060,11934878,-0.576102,0.0264158,-0.00976152,0.0,0.0,0.0,0.0,-1.0
12035027,12034855,-0.575548,0.0260027,-0.010223,0.0,0.0,0.0,0.0,-1.0
12139028,12138885,-0.575352,0.0267223,-0.0102282,0.0,0.0,0.0,0.0,-1.0
12239117,12238935,-0.575736,0.026607,-0.0100751,0.0,0.0,0.0,0.0,-1.0
12339067,12338879,-0.575918,0.025946,-0.0102506,0.0,0.0,0.0,0.0,-1.0
12443015,12442879,-0.57597,0.0262416,-0.00990904,0.0,0.0,0.0,0.0,-1.0
12543813,12543678,-0.57615,0.0260763,-0.00967684,0.0,0.0,0.0,0.0,-1.0
12645466,12645286,-0.57615,0.0267904,-0.0098327,0.0,0.0,0.0,0.0,-1.0
12745419,12745279,-0.576291,0.0265267,-0.00975174,0.0,0.0,0.0,0.0,-1.0
12849465,12849278,-0.575806,0.0266467,-0.00978866,0.0,0.0,0.0,0.0,-1.0
12949420,12949279,-0.575083,0.0270888,-0.0100361,0.0,0.0,0.0,0.0,-1.0
13049390,13049255,-0.57652,0.0260872,-0.00997703,0.0,0.0,0.0,0.0,-1.0
13154274,13154123,-0.576223,0.0262877,-0.0103382,0.0,0.0,0.0,0.0,-1.0
13255835,13255686,-0.575113,0.0260548,-0.00953505,0.0,0.0,0.0,0.0,-1.0
13355862,13355718,-0.57624,0.0260707,-0.0100513,0.0,0.0,0.0,0.0,-1.0
13455830,13455663,-0.576076,0.0265905,-0.00961246,0.0,0.0,0.0,0.0,-1.0
13559907,13559723,-0.575823,0.0261872,-0.00988964,0.0,0.0,0.0,0.0,-1.0
13659890,13659722,-0.575947,0.0266224,-0.00991423,0.0,0.0,0.0,0.0,-1.0
13760665,13760479,-0.57562,0.0262768,-0.00984475,0.0,0.0,0.0,0.0,-1.0
13864683,13864495,-0.576323,0.0260902,-0.0100929,0.0,0.0,0.0,0.0,-1.0
13964656,13964486,-0.577021,0.0263441,-0.0103357,0.0,0.0,0.0,0.0,-1.0
14064606,14064455,-0.576018,0.026238,-0.0102421,0.0,0.0,0.0,0.0,-1.0
14168650,14168478,-0.575414,0.0262661,-0.00998755,0.0,0.0,0.0,0.0,-1.0
14268702,14268485,-0.576149,0.0269587,-0.00998688,0.0,0.0,0.0,0.0,-1.0
14372688,14372483,-0.575575,0.0265566,-0.00996926,0.0,0.0,0.0,0.0,-1.0
14476664,14476479,-0.575729,0.026509,-0.0100288,0.0,0.0,0.0,0.0,-1.0
14576626,14576479,-0.575506,0.0269102,-0.00947681,0.0,0.0,0.0,0.0,-1.0
14680667,14680479,-0.575229,0.0267369,-0.0103353,0.0,0.0,0.0,0.0,-1.0
14780644,14780459,-0.576573,0.0263424,-0.0100282,0.0,0.0,0.0,0.0,-1.0
14880594,14880455,-0.576321,0.0269393,-0.00990436,0.0,0.0,0.0,0.0,-1.0
14984727,14984529,-0.575249,0.0264226,-0.0100614,0.0,0.0,0.0,0.0,-1.0
15084704,15084485,-0.575541,0.0261736,-0.00991085,0.0,0.0,0.0,0.0,-1.0
15186247,15186101,-0.575755,0.0259499,-0.00987898,0.0,0.0,0.0,0.0,-1.0
15286283,15286055,-0.575648,0.0274123,-0.0100297,0.0,0.0,0.0,0.0,-1.0
15391029,15390879,-0.576349,0.027283,-0.00983833,0.0,0.0,0.0,0.0,-1.0
15495852,15495715,-0.576297,0.0273172,-0.00996344,0.0,0.0,0.0,0.0,-1.0
15595920,15595686,-0.576375,0.0275161,-0.0106214,0.0,0.0,0.0,0.0,-1.0
15695885,15695720,-0.576056,0.0265673,-0.0103819,0.0,0.0,0.0,0.0,-1.0
15797546,15797279,-0.576261,0.0271125,-0.00978705,0.0,0.0,0.0,0.0,-1.0
15901454,15901284,-0.575635,0.0273947,-0.0100426,0.0,0.0,0.0,0.0,-1.0
16001451,16001306,-0.576247,0.0272041,-0.0102905,0.0,0.0,0.0,0.0,-1.0
16101446,16101301,-0.575437,0.0272145,-0.00990113,0.0,0.0,0.0,0.0,-1.0
16205393,16205255,-0.576287,0.026928,-0.0104151,0.0,0.0,0.0,0.0,-1.0
16305402,16305255,-0.575411,0.0264873,-0.0105352,0.0,0.0,0.0,0.0,-1.0
16409470,16409286,-0.575831,0.0267485,-0.0100165,0.0,0.0,0.0,0.0,-1.0
16509514,16509286,-0.576249,0.0267328,-0.0102216,0.0,0.0,0.0,0.0,-1.0
16609430,16609292,-0.575676,0.0273621,-0.0098328,0.0,0.0,0.0,0.0,-1.0
16713460,16713292,-0.575964,0.0266293,-0.0102194,0.0,0.0,0.0,0.0,-1.0
16813446,16813279,-0.57621,0.0266032,-0.0100445,0.0,0.0,0.0,0.0,-1.0
16913469,16913279,-0.576698,0.0261326,-0.00961925,0.0,0.0,0.0,0.0,-1.0
17017446,17017268,-0.576078,0.0271352,-0.00977255,0.0,0.0,0.0,0.0,-1.0
17118241,17118090,-0.575627,0.0273433,-0.0103447,0.0,0.0,0.0,0.0,-1.0
17219861,17219730,-0.575847,0.0268345,-0.0102122,0.0,0.0,0.0,0.0,-1.0
17319963,17319783,-0.575794,0.0271637,-0.0101608,0.0,0.0,0.0,0.0,-1.0
17423793,17423655,-0.57641,0.0266379,-0.00930426,0.0,0.0,0.0,0.0,-1.0
17524629,17524479,-0.576067,0.026711,-0.0102452,0.0,0.0,0.0,0.0,-1.0
17624671,17624486,-0.575533,0.0267804,-0.00965875,0.0,0.0,0.0,0.0,-1.0
17728673,17728497,-0.576572,0.0273024,-0.00998851,0.0,0.0,0.0,0.0,-1.0
17827031,17826878,-0.576139,0.0271657,-0.00964923,0.0,0.0,0.0,0.0,-1.0
17931128,17930885,-0.576456,0.0256902,-0.00949201,0.0,0.0,0.0,0.0,-1.0
18031895,18031686,-0.575961,0.0262019,-0.0102624,0.0,0.0,0.0,0.0,-1.0
18132689,18132478,-0.575992,0.0258704,-0.00990862,0.0,0.0,0.0,0.0,-1.0
18236668,18236479,-0.575633,0.0265835,-0.00994169,0.0,0.0,0.0,0.0,-1.0
18338237,18338085,-0.576241,0.027247,-0.0097893,0.0,0.0,0.0,0.0,-1.0
18438246,18438060,-0.575576,0.0269657,-0.00991391,0.0,0.0,0.0,0.0,-1.0
18538257,18538119,-0.576033,0.0266041,-0.0101149,0.0,0.0,0.0,0.0,-1.0
18642221,18642080,-0.575976,0.027133,-0.0101567,0.0,0.0,0.0,0.0,-1.0
18742221,18742079,-0.575135,0.0263032,-0.00976658,0.0,0.0,0.0,0.0,-1.0
18842230,18842085,-0.576499,0.0262057,-0.0102146,0.0,0.0,0.0,0.0,-1.0
18946269,18946085,-0.576276,0.0269561,-0.00989065,0.0,0.0,0.0,0.0,-1.0
19046315,19046086,-0.576057,0.0272557,-0.00955237,0.0,0.0,0.0,0.0,-1.0
19150308,19150125,-0.575531,0.0265091,-0.00990506,0.0,0.0,0.0,0.0,-1.0
19250220,19250055,-0.576215,0.0262054,-0.00989862,0.0,0.0,0.0,0.0,-1.0
19351063,19350879,-0.576065,0.0268096,-0.00983133,0.0,0.0,0.0,0.0,-1.0
19451048,19450879,-0.576458,0.0266136,-0.0100589,0.0,0.0,0.0,0.0,-1.0
19555027,19554886,-0.575656,0.026227,-0.00973061,0.0,0.0,0.0,0.0,-1.0
19655038,19654903,-0.576053,0.0267073,-0.0096171,0.0,0.0,0.0,0.0,-1.0
19759031,19758879,-0.576943,0.0269353,-0.00992555,0.0,0.0,0.0,0.0,-1.0
19860657,19860479,-0.576041,0.026874,-0.00993005,0.0,0.0,0.0,0.0,-1.0
19961418,19961279,-0.576005,0.0261875,-0.00970956,0.0,0.0,0.0,0.0,-1.0
20061415,20061278,-0.576214,0.0267524,-0.00943774,0.0,0.0,0.0,0.0,-1.0
20162217,20162078,-0.576335,0.0259161,-0.00968113,0.0,0.0,0.0,0.0,-1.0
20263825,20263685,-0.576056,0.0257319,-0.00975912,0.0,0.0,0.0,0.0,-1.0
20367842,20367705,-0.575518,0.0262322,-0.0101273,0.0,0.0,0.0,0.0,-1.0
20467902,20467686,-0.575502,0.0263491,-0.0101507,0.0,0.0,0.0,0.0,-1.0
20567914,20567726,-0.576297,0.026081,-0.00934064,0.0,0.0,0.0,0.0,-1.0
20671823,20671687,-0.575757,0.027036,-0.0100992,0.0,0.0,0.0,0.0,-1.0
20771818,20771681,-0.575998,0.025946,-0.00965835,0.0,0.0,0.0,0.0,-1.0
20871848,20871685,-0.576436,0.0259462,-0.00975231,0.0,0.0,0.0,0.0,-1.0
20975852,20975712,-0.576339,0.0265478,-0.0102097,0.0,0.0,0.0,0.0,-1.0
21075865,21075686,-0.575805,0.0263039,-0.00967915,0.0,0.0,0.0,0.0,-1.0
21179939,21179723,-0.576079,0.0265412,-0.00971411,0.0,0.0,0.0,0.0,-1.0
21279847,21279706,-0.576152,0.0259706,-0.0100673,0.0,0.0,0.0,0.0,-1.0
21380628,21380485,-0.57621,0.0262795,-0.00986717,0.0,0.0,0.0,0.0,-1.0
21484670,21484479,-0.575285,0.025881,-0.00988917,0.0,0.0,0.0,0.0,-1.0
21586277,21586094,-0.576364,0.02686,-0.0101926,0.0,0.0,0.0,0.0,-1.0
21690259,21690078,-0.575403,0.026699,-0.0096663,0.0,0.0,0.0,0.0,-1.0
21790230,21790092,-0.57636,0.0269506,-0.00975194,0.0,0.0,0.0,0.0,-1.0
21890225,21890085,-0.576286,0.0267543,-0.00999898,0.0,0.0,0.0,0.0,-1.0
21994251,21994078,-0.576134,0.0263429,-0.00964528,0.0,0.0,0.0,0.0,-1.0
22094219,22094079,-0.575617,0.0267693,-0.00983259,0.0,0.0,0.0,0.0,-1.0
22198293,22198113,-0.57646,0.0264843,-0.0102278,0.0,0.0,0.0,0.0,-1.0
22299101,22298918,-0.576373,0.0269968,-0.00981682,0.0,0.0,0.0,0.0,-1.0
22399063,22398901,-0.576119,0.0265491,-0.00969023,0.0,0.0,0.0,0.0,-1.0
22503041,22502889,-0.575455,0.0267234,-0.00978889,0.0,0.0,0.0,0.0,-1.0
22603014,22602879,-0.576236,0.0275288,-0.0100911,0.0,0.0,0.0,0.0,-1.0
22703047,22702915,-0.576139,0.0264815,-0.0100129,0.0,0.0,0.0,0.0,-1.0
22807014,22806879,-0.575829,0.0271201,-0.00967812,0.0,0.0,0.0,0.0,-1.0
22907033,22906855,-0.576187,0.0272864,-0.0101126,0.0,0.0,0.0,0.0,-1.0
23007040,23006893,-0.576348,0.0264212,-0.00948592,0.0,0.0,0.0,0.0,-1.0
23111072,23110886,-0.576137,0.0270051,-0.00970151,0.0,0.0,0.0,0.0,-1.0
23210992,23210855,-0.575897,0.026587,-0.0099672,0.0,0.0,0.0,0.0,-1.0
23311830,23311681,-0.576353,0.0270448,-0.00941833,0.0,0.0,0.0,0.0,-1.0
23416643,23416494,-0.576776,0.0267386,-0.0101462,0.0,0.0,0.0,0.0,-1.0
23516674,23516485,-0.5763,0.0268231,-0.0101919,0.0,0.0,0.0,0.0,-1.0
23616665,23616484,-0.576002,0.026291,-0.00985841,0.0,0.0,0.0,0.0,-1.0
23717504,23717286,-0.575351,0.0257708,-0.00985914,0.0,0.0,0.0,0.0,-1.0
23821420,23821285,-0.576119,0.0264624,-0.00975806,0.0,0.0,0.0,0.0,-1.0
23921480,23921295,-0.576239,0.0264024,-0.0099195,0.0,0.0,0.0,0.0,-1.0
24025439,24025255,-0.575727,0.026429,-0.0101536,0.0,0.0,0.0,0.0,-1.0
24125421,24125284,-0.576638,0.0263626,-0.00982491,0.0,0.0,0.0,0.0,-1.0
24225423,24225284,-0.576116,0.0266304,-0.00966452,0.0,0.0,0.0,0.0,-1.0
24329482,24329286,-0.575826,0.0261616,-0.00986855,0.0,0.0,0.0,0.0,-1.0
24429414,24429279,-0.575728,0.0268269,-0.00987228,0.0,0.0,0.0,0.0,-1.0
24529461,24529279,-0.576459,0.0262167,-0.00912026,0.0,0.0,0.0,0.0,-1.0
24633480,24633309,-0.576331,0.0260711,-0.00983933,0.0,0.0,0.0,0.0,-1.0
24735091,24734885,-0.575634,0.0264587,-0.00945215,0.0,0.0,0.0,0.0,-1.0
24835078,24834893,-0.575769,0.0262584,-0.00983838,0.0,0.0,0.0,0.0,-1.0
24939035,24938889,-0.576369,0.0261493,-0.00998171,0.0,0.0,0.0,0.0,-1.0
25039022,25038885,-0.575767,0.0266646,-0.00974486,0.0,0.0,0.0,0.0,-1.0
25139042,25138901,-0.575919,0.0265215,-0.00940383,0.0,0.0,0.0,0.0,-1.0
25242992,25242855,-0.575675,0.0268091,-0.00959178,0.0,0.0,0.0,0.0,-1.0
25343044,25342855,-0.576249,0.0264481,-0.00979338,0.0,0.0,0.0,0.0,-1.0
25443043,25442888,-0.576946,0.0273628,-0.00948786,0.0,0.0,0.0,0.0,-1.0
25547014,25546879,-0.575863,0.0265076,-0.00938962,0.0,0.0,0.0,0.0,-1.0
25647018,25646879,-0.575985,0.0269639,-0.0100668,0.0,0.0,0.0,0.0,-1.0
25751051,25750879,-0.575922,0.0265979,-0.00969479,0.0,0.0,0.0,0.0,-1.0
25855015,25854878,-0.575877,0.0264752,-0.00987856,0.0,0.0,0.0,0.0,-1.0
25954992,25954855,-0.575854,0.0268763,-0.0099947,0.0,0.0,0.0,0.0,-1.0
26059040,26058855,-0.576297,0.0263685,-0.00977163,0.0,0.0,0.0,0.0,-1.0
26160653,26160478,-0.575534,0.0266299,-0.00976885,0.0,0.0,0.0,0.0,-1.0
26261438,26261255,-0.576184,0.0271369,-0.0095118,0.0,0.0,0.0,0.0,-1.0
26361401,26361261,-0.576516,0.0268548,-0.00955372,0.0,0.0,0.0,0.0,-1.0
26462310,26462086,-0.576005,0.0268011,-0.00965161,0.0,0.0,0.0,0.0,-1.0
26566286,26566100,-0.576348,0.025927,-0.00961219,0.0,0.0,0.0,0.0,-1.0
26666271,26666095,-0.576156,0.0266086,-0.00956321,0.0,0.0,0.0,0.0,-1.0
26766259,26766087,-0.575123,0.0268473,-0.0100347,0.0,0.0,0.0,0.0,-1.0
26870224,26870086,-0.575919,0.026387,-0.00992454,0.0,0.0,0.0,0.0,-1.0
26970195,26970057,-0.576116,0.0267572,-0.00995351,0.0,0.0,0.0,0.0,-1.0
27074242,27074096,-0.576047,0.0262417,-0.00995198,0.0,0.0,0.0,0.0,-1.0
27174258,27174079,-0.57641,0.0257707,-0.00960829,0.0,0.0,0.0,0.0,-1.0
27274219,27274079,-0.575776,0.0258787,-0.0097403,0.0,0.0,0.0,0.0,-1.0
27375826,27375655,-0.575814,0.0265704,-0.0100836,0.0,0.0,0.0,0.0,-1.0
27479921,27479706,-0.576438,0.0269533,-0.00974137,0.0,0.0,0.0,0.0,-1.0
27579905,27579729,-0.576711,0.0267783,-0.00985651,0.0,0.0,0.0,0.0,-1.0
27679926,27679750,-0.574886,0.0266361,-0.0099876,0.0,0.0,0.0,0.0,-1.0
27783828,27783686,-0.575397,0.0262882,-0.0100159,0.0,0.0,0.0,0.0,-1.0
27883858,27883679,-0.57646,0.0267704,-0.00989408,0.0,0.0,0.0,0.0,-1.0
27984626,27984455,-0.57565,0.0267469,-0.00993993,0.0,0.0,0.0,0.0,-1.0
28088609,28088461,-0.575781,0.0271157,-0.00978553,0.0,0.0,0.0,0.0,-1.0
28188669,28188485,-0.576514,0.0269126,-0.00966918,0.0,0.0,0.0,0.0,-1.0
28288651,28288496,-0.576081,0.0269126,-0.0100657,0.0,0.0,0.0,0.0,-1.0
28392641,28392486,-0.575433,0.02755,-0.00998967,0.0,0.0,0.0,0.0,-1.0
28494231,28494054,-0.575669,0.0266832,-0.00959668,0.0,0.0,0.0,0.0,-1.0
28594230,28594092,-0.575982,0.0273997,-0.00993307,0.0,0.0,0.0,0.0,-1.0
28698271,28698086,-0.576036,0.0270394,-0.0102219,0.0,0.0,0.0,0.0,-1.0
28798236,28798055,-0.576101,0.0268414,-0.0094492,0.0,0.0,0.0,0.0,-1.0
28898219,28898079,-0.576461,0.0265788,-0.00980585,0.0,0.0,0.0,0.0,-1.0
29002285,29002105,-0.57612,0.0274261,-0.0101559,0.0,0.0,0.0,0.0,-1.0
29102271,29102087,-0.575692,0.0272521,-0.0100061,0.0,0.0,0.0,0.0,-1.0
29202244,29202055,-0.576265,0.0265724,-0.0104014,0.0,0.0,0.0,0.0,-1.0
29306204,29306061,-0.576978,0.0262472,-0.00977867,0.0,0.0,0.0,0.0,-1.0
29406261,29406099,-0.57681,0.0273686,-0.00981393,0.0,0.0,0.0,0.0,-1.0
29510242,29510090,-0.575862,0.0272731,-0.00999975,0.0,0.0,0.0,0.0,-1.0
29610262,29610086,-0.576535,0.0265084,-0.00998023,0.0,0.0,0.0,0.0,-1.0
29710238,29710100,-0.576331,0.0265193,-0.0101894,0.0,0.0,0.0,0.0,-1.0
29811017,29810865,-0.575347,0.0269897,-0.00964484,0.0,0.0,0.0,0.0,-1.0
29915033,29914855,-0.57613,0.0274597,-0.00971347,0.0,0.0,0.0,0.0,-1.0
30015015,30014878,-0.575637,0.0261847,-0.0104193,0.0,0.0,0.0,0.0,-1.0
30116662,30116486,-0.575609,0.026954,-0.0101333,0.0,0.0,0.0,0.0,-1.0
30220634,30220486,-0.575818,0.0270485,-0.00998043,0.0,0.0,0.0,0.0,-1.0
30320632,30320481,-0.576645,0.0270104,-0.00972198,0.0,0.0,0.0,0.0,-1.0
30420646,30420455,-0.576533,0.026638,-0.00972338,0.0,0.0,0.0,0.0,-1.0
30524629,30524478,-0.576959,0.0269064,-0.00990465,0.0,0.0,0.0,0.0,-1.0
30624672,30624486,-0.576088,0.0265796,-0.00955096,0.0,0.0,0.0,0.0,-1.0
30725465,30725279,-0.576575,0.0264659,-0.00948909,0.0,0.0,0.0,0.0,-1.0
30829491,30829279,-0.57681,0.0272649,-0.00985879,0.0,0.0,0.0,0.0,-1.0
30929398,30929255,-0.576207,0.0272345,-0.00955099,0.0,0.0,0.0,0.0,-1.0
31029409,31029278,-0.576231,0.026918,-0.00984025,0.0,0.0,0.0,0.0,-1.0
31133469,31133284,-0.57589,0.0267202,-0.0102627,0.0,0.0,0.0,0.0,-1.0
31233497,31233279,-0.576221,0.0264287,-0.00920927,0.0,0.0,0.0,0.0,-1.0
31333456,31333279,-0.575972,0.0264165,-0.00991034,0.0,0.0,0.0,0.0,-1.0
31434996,31434854,-0.576244,0.0263002,-0.00945573,0.0,0.0,0.0,0.0,-1.0
31539083,31538918,-0.57547,0.027026,-0.00973595,0.0,0.0,0.0,0.0,-1.0
31639063,31638887,-0.576141,0.0266159,-0.00981714,0.0,0.0,0.0,0.0,-1.0
31739906,31739747,-0.576321,0.0266697,-0.00975165,0.0,0.0,0.0,0.0,-1.0
31843833,31843689,-0.576067,0.0262022,-0.00935915,0.0,0.0,0.0,0.0,-1.0
31943802,31943655,-0.576243,0.0268006,-0.0100434,0.0,0.0,0.0,0.0,-1.0
32043835,32043697,-0.576476,0.0258125,-0.00998575,0.0,0.0,0.0,0.0,-1.0
32147843,32147707,-0.575844,0.0262618,-0.00990881,0.0,0.0,0.0,0.0,-1.0
32247867,32247692,-0.576138,0.0264938,-0.00924226,0.0,0.0,0.0,0.0,-1.0
32351886,32351686,-0.575235,0.0264994,-0.00961308,0.0,0.0,0.0,0.0,-1.0
32451862,32451679,-0.575897,0.0268696,-0.00941855,0.0,0.0,0.0,0.0,-1.0
32551827,32551687,-0.575549,0.0263418,-0.00956194,0.0,0.0,0.0,0.0,-1.0
32653466,32653278,-0.575764,0.0264942,-0.0100153,0.0,0.0,0.0,0.0,-1.0
32757455,32757281,-0.575792,0.0262441,-0.00995255,0.0,0.0,0.0,0.0,-1.0
32857496,32857279,-0.576244,0.0262731,-0.00962597,0.0,0.0,0.0,0.0,-1.0
32958250,32958085,-0.575517,0.0263882,-0.009808,0.0,0.0,0.0,0.0,-1.0
33062217,33062079,-0.57559,0.0272222,-0.00957406,0.0,0.0,0.0,0.0,-1.0
33162217,33162078,-0.57571,0.0265162,-0.00902038,0.0,0.0,0.0,0.0,-1.0
33262278,33262081,-0.575868,0.0265217,-0.00974753,0.0,0.0,0.0,0.0,-1.0
33366295,33366086,-0.576089,0.0262961,-0.00966835,0.0,0.0,0.0,0.0,-1.0
33466241,33466095,-0.576928,0.0259344,-0.0103809,0.0,0.0,0.0,0.0,-1.0
33570259,33570086,-0.575676,0.0266863,-0.00981149,0.0,0.0,0.0,0.0,-1.0
33670267,33670086,-0.57605,0.0264476,-0.00965798,0.0,0.0,0.0,0.0,-1.0
33770196,33770055,-0.575647,0.02677,-0.00997656,0.0,0.0,0.0,0.0,-1.0
33871864,33871692,-0.575898,0.0270363,-0.00973929,0.0,0.0,0.0,0.0,-1.0
33975834,33975686,-0.575294,0.0265701,-0.00992373,0.0,0.0,0.0,0.0,-1.0
34075872,34075686,-0.575654,0.0273738,-0.00991882,0.0,0.0,0.0,0.0,-1.0
34175897,34175714,-0.575961,0.026792,-0.0095289,0.0,0.0,0.0,0.0,-1.0
34280653,34280478,-0.576116,0.0267755,-0.00979296,0.0,0.0,0.0,0.0,-1.0
34380631,34380489,-0.575692,0.0265449,-0.00983589,0.0,0.0,0.0,0.0,-1.0
34480622,34480479,-0.576182,0.0270693,-0.00987279,0.0,0.0,0.0,0.0,-1.0
34584681,34584492,-0.576417,0.0259346,-0.0103579,0.0,0.0,0.0,0.0,-1.0
34684632,34684486,-0.57586,0.0264682,-0.00951335,0.0,0.0,0.0,0.0,-1.0
34784673,34784485,-0.574793,0.0266573,-0.00963852,0.0,0.0,0.0,0.0,-1.0
34885462,34885284,-0.575676,0.0267966,-0.0102424,0.0,0.0,0.0,0.0,-1.0
34990263,34990086,-0.576616,0.0265502,-0.0096706,0.0,0.0,0.0,0.0,-1.0
35090298,35090093,-0.577096,0.0259689,-0.0099547,0.0,0.0,0.0,0.0,-1.0
35194262,35194078,-0.575634,0.0262738,-0.00974025,0.0,0.0,0.0,0.0,-1.0
35294220,35294080,-0.576133,0.0271274,-0.00999177,0.0,0.0,0.0,0.0,-1.0
35394242,35394061,-0.576201,0.0264581,-0.00945713,0.0,0.0,0.0,0.0,-1.0
35498220,35498079,-0.575516,0.0268326,-0.00972221,0.0,0.0,0.0,0.0,-1.0
35603055,35602879,-0.575919,0.0264234,-0.00979926,0.0,0.0,0.0,0.0,-1.0
35703845,35703679,-0.576364,0.026505,-0.00961935,0.0,0.0,0.0,0.0,-1.0
35803819,35803655,-0.576334,0.0270059,-0.00954604,0.0,0.0,0.0,0.0,-1.0
35905467,35905286,-0.575976,0.0262463,-0.00998143,0.0,0.0,0.0,0.0,-1.0
36009414,36009278,-0.575917,0.0265625,-0.00981301,0.0,0.0,0.0,0.0,-1.0
36110195,36110055,-0.57637,0.0265183,-0.0099796,0.0,0.0,0.0,0.0,-1.0
36210225,36210085,-0.575478,0.0274145,-0.0100889,0.0,0.0,0.0,0.0,-1.0
36311016,36310879,-0.576219,0.0265103,-0.00976561,0.0,0.0,0.0,0.0,-1.0
36415002,36414855,-0.576121,0.026425,-0.00944838,0.0,0.0,0.0,0.0,-1.0
36516649,36516478,-0.576155,0.0267971,-0.0100748,0.0,0.0,0.0,0.0,-1.0
36617490,36617286,-0.575448,0.0265753,-0.00994719,0.0,0.0,0.0,0.0,-1.0
36717453,36717279,-0.575671,0.0267105,-0.00973939,0.0,0.0,0.0,0.0,-1.0
36821438,36821292,-0.576013,0.0261747,-0.00938997,0.0,0.0,0.0,0.0,-1.0
36921503,36921285,-0.575598,0.0266358,-0.00944782,0.0,0.0,0.0,0.0,-1.0
37022275,37022085,-0.575875,0.0270618,-0.00990534,0.0,0.0,0.0,0.0,-1.0
37126252,37126079,-0.576747,0.0262532,-0.0100932,0.0,0.0,0.0,0.0,-1.0
37226235,37226085,-0.576239,0.0269863,-0.00958518,0.0,0.0,0.0,0.0,-1.0
37326234,37326089,-0.575885,0.027525,-0.0101264,0.0,0.0,0.0,0.0,-1.0
37427861,37427712,-0.575883,0.0264691,-0.0100019,0.0,0.0,0.0,0.0,-1.0
37531823,37531678,-0.5763,0.0269135,-0.0096996,0.0,0.0,0.0,0.0,-1.0
37636633,37636491,-0.576041,0.0265002,-0.00989459,0.0,0.0,0.0,0.0,-1.0
37736626,37736487,-0.575558,0.0267517,-0.00955374,0.0,0.0,0.0,0.0,-1.0
37836678,37836479,-0.575436,0.0259684,-0.0100866,0.0,0.0,0.0,0.0,-1.0
37940598,37940455,-0.576073,0.0264481,-0.00975135,0.0,0.0,0.0,0.0,-1.0
38040650,38040455,-0.575537,0.0269624,-0.00997839,0.0,0.0,0.0,0.0,-1.0
38143017,38142879,-0.576024,0.0268026,-0.00970917,0.0,0.0,0.0,0.0,-1.0
38242998,38242859,-0.574718,0.0262978,-0.0100414,0.0,0.0,0.0,0.0,-1.0
38343824,38343686,-0.576045,0.0268194,-0.00990081,0.0,0.0,0.0,0.0,-1.0
38448670,38448479,-0.5755,0.0269298,-0.0101172,0.0,0.0,0.0,0.0,-1.0
38550276,38550078,-0.575728,0.0268631,-0.00991183,0.0,0.0,0.0,0.0,-1.0
38650250,38650079,-0.576059,0.0265977,-0.0102759,0.0,0.0,0.0,0.0,-1.0
38750271,38750079,-0.576492,0.026555,-0.00945918,0.0,0.0,0.0,0.0,-1.0
38854221,38854083,-0.577094,0.0264326,-0.00943762,0.0,0.0,0.0,0.0,-1.0
38954298,38954079,-0.57543,0.026483,-0.0100852,0.0,0.0,0.0,0.0,-1.0
39058243,39058055,-0.576524,0.0260901,-0.0101806,0.0,0.0,0.0,0.0,-1.0
39158216,39158078,-0.575412,0.0260633,-0.009518,0.0,0.0,0.0,0.0,-1.0
39258219,39258079,-0.576486,0.026344,-0.0101164,0.0,0.0,0.0,0.0,-1.0
39362221,39362079,-0.576909,0.0274447,-0.00995869,0.0,0.0,0.0,0.0,-1.0
39462219,39462079,-0.575689,0.0272989,-0.00989007,0.0,0.0,0.0,0.0,-1.0
39562267,39562079,-0.575625,0.02667,-0.0100331,0.0,0.0,0.0,0.0,-1.0
39666270,39666061,-0.575958,0.026106,-0.00992111,0.0,0.0,0.0,0.0,-1.0
39766217,39766079,-0.576172,0.0268673,-0.00984174,0.0,0.0,0.0,0.0,-1.0
39870230,39870074,-0.575243,0.0271535,-0.0101718,0.0,0.0,0.0,0.0,-1.0
39971048,39970913,-0.576223,0.0273077,-0.00993312,0.0,0.0,0.0,0.0,-1.0
40072674,40072533,-0.575799,0.0268498,-0.0101898,0.0,0.0,0.0,0.0,-1.0
40172633,40172484,-0.576001,0.026354,-0.00950492,0.0,0.0,0.0,0.0,-1.0
40272667,40272481,-0.576356,0.0263141,-0.00970805,0.0,0.0,0.0,0.0,-1.0
40377473,40377286,-0.575651,0.0272795,-0.0100961,0.0,0.0,0.0,0.0,-1.0
40477467,40477293,-0.575883,0.0267998,-0.009649,0.0,0.0,0.0,0.0,-1.0
40577514,40577289,-0.575814,0.0271809,-0.00975958,0.0,0.0,0.0,0.0,-1.0
40681465,40681279,-0.576533,0.027246,-0.0098767,0.0,0.0,0.0,0.0,-1.0
40783068,40782886,-0.576014,0.0263032,-0.0101054,0.0,0.0,0.0,0.0,-1.0
40883857,40883685,-0.575526,0.0269231,-0.00981376,0.0,0.0,0.0,0.0,-1.0
40983860,40983685,-0.576458,0.0267168,-0.0100993,0.0,0.0,0.0,0.0,-1.0
41083790,41083655,-0.576071,0.026399,-0.0100286,0.0,0.0,0.0,0.0,-1.0
41188653,41188481,-0.57608,0.0260155,-0.0100027,0.0,0.0,0.0,0.0,-1.0
41288672,41288479,-0.575689,0.0263884,-0.0097066,0.0,0.0,0.0,0.0,-1.0
41389474,41389289,-0.57648,0.0262822,-0.00978225,0.0,0.0,0.0,0.0,-1.0
41494279,41494080,-0.57626,0.0268287,-0.00976767,0.0,0.0,0.0,0.0,-1.0
41594218,41594078,-0.575475,0.0264425,-0.00996791,0.0,0.0,0.0,0.0,-1.0
41694217,41694079,-0.575692,0.0270477,-0.0104179,0.0,0.0,0.0,0.0,-1.0
41798219,41798079,-0.576013,0.0271631,-0.00955647,0.0,0.0,0.0,0.0,-1.0
41898227,41898078,-0.575985,0.0266697,-0.0100716,0.0,0.0,0.0,0.0,-1.0
41998266,41998079,-0.576172,0.0272258,-0.00987989,0.0,0.0,0.0,0.0,-1.0
42102261,42102055,-0.576405,0.0266847,-0.0100671,0.0,0.0,0.0,0.0,-1.0
42203087,42202878,-0.576131,0.0273567,-0.00987707,0.0,0.0,0.0,0.0,-1.0
42303016,42302879,-0.575915,0.0268859,-0.0102099,0.0,0.0,0.0,0.0,-1.0
42407053,42406918,-0.575563,0.0268246,-0.0101008,0.0,0.0,0.0,0.0,-1.0
42507061,42506885,-0.576012,0.0265259,-0.00965229,0.0,0.0,0.0,0.0,-1.0
42607121,42606879,-0.576194,0.027042,-0.00979378,0.0,0.0,0.0,0.0,-1.0
42707858,42707678,-0.576121,0.0264653,-0.00970242,0.0,0.0,0.0,0.0,-1.0
42813414,42813279,-0.575441,0.0264239,-0.0101585,0.0,0.0,0.0,0.0,-1.0
42913418,42913278,-0.575959,0.0270948,-0.0100256,0.0,0.0,0.0,0.0,-1.0
43013462,43013275,-0.575547,0.0270955,-0.0103142,0.0,0.0,0.0,0.0,-1.0
43117465,43117255,-0.57613,0.0272795,-0.010002,0.0,0.0,0.0,0.0,-1.0
43217474,43217291,-0.575795,0.0274403,-0.00997189,0.0,0.0,0.0,0.0,-1.0
43317461,43317286,-0.575911,0.02689,-0.0103022,0.0,0.0,0.0,0.0,-1.0
43422294,43422105,-0.57616,0.0267037,-0.0101723,0.0,0.0,0.0,0.0,-1.0
43526219,43526079,-0.576151,0.027122,-0.0101378,0.0,0.0,0.0,0.0,-1.0
43626200,43626055,-0.576208,0.0265422,-0.0103997,0.0,0.0,0.0,0.0,-1.0
43730251,43730078,-0.57541,0.0268911,-0.00982875,0.0,0.0,0.0,0.0,-1.0
43830227,43830081,-0.576257,0.0271137,-0.0101918,0.0,0.0,0.0,0.0,-1.0
43931865,43931678,-0.576249,0.0274072,-0.0100765,0.0,0.0,0.0,0.0,-1.0
44031801,44031663,-0.576122,0.0270811,-0.0097619,0.0,0.0,0.0,0.0,-1.0
44135881,44135655,-0.576574,0.0266979,-0.0100273,0.0,0.0,0.0,0.0,-1.0
44235882,44235678,-0.575822,0.0271993,-0.00985174,0.0,0.0,0.0,0.0,-1.0
44335856,44335687,-0.575723,0.0273072,-0.0102057,0.0,0.0,0.0,0.0,-1.0
44439911,44439772,-0.576148,0.0267857,-0.0103733,0.0,0.0,0.0,0.0,-1.0
44539913,44539762,-0.576755,0.0266899,-0.0102286,0.0,0.0,0.0,0.0,-1.0
44643815,44643679,-0.576107,0.026823,-0.0097809,0.0,0.0,0.0,0.0,-1.0
44743859,44743679,-0.576233,0.027129,-0.00982651,0.0,0.0,0.0,0.0,-1.0
44843798,44843665,-0.575665,0.0270444,-0.0096826,0.0,0.0,0.0,0.0,-1.0
44947875,44947688,-0.575579,0.0270207,-0.00983135,0.0,0.0,0.0,0.0,-1.0
45047818,45047678,-0.576236,0.0271103,-0.00943447,0.0,0.0,0.0,0.0,-1.0
45147814,45147679,-0.576066,0.0270243,-0.00999247,0.0,0.0,0.0,0.0,-1.0
45252680,45252486,-0.575256,0.0269434,-0.00987846,0.0,0.0,0.0,0.0,-1.0
45354247,45354109,-0.576072,0.0269277,-0.00970389,0.0,0.0,0.0,0.0,-1.0
45458238,45458092,-0.576034,0.0270302,-0.00980416,0.0,0.0,0.0,0.0,-1.0
45558240,45558086,-0.57617,0.0273147,-0.0105445,0.0,0.0,0.0,0.0,-1.0
45659026,45658879,-0.57591,0.027342,-0.00968145,0.0,0.0,0.0,0.0,-1.0
45763022,45762854,-0.576119,0.0269944,-0.0099598,0.0,0.0,0.0,0.0,-1.0
45863021,45862884,-0.576061,0.0269517,-0.0102667,0.0,0.0,0.0,0.0,-1.0
45967060,45966915,-0.575753,0.0275416,-0.0100722,0.0,0.0,0.0,0.0,-1.0
46067112,46066879,-0.576321,0.0273098,-0.0105278,0.0,0.0,0.0,0.0,-1.0
46167053,46166879,-0.574674,0.0271352,-0.00983002,0.0,0.0,0.0,0.0,-1.0
46268660,46268454,-0.57625,0.0271022,-0.0100011,0.0,0.0,0.0,0.0,-1.0
46372645,46372501,-0.576515,0.0265973,-0.00942619,0.0,0.0,0.0,0.0,-1.0
46472636,46472492,-0.575871,0.0269835,-0.00980444,0.0,0.0,0.0,0.0,-1.0
46572684,46572526,-0.575981,0.0269116,-0.0102066,0.0,0.0,0.0,0.0,-1.0
46676623,46676484,-0.57522,0.0269351,-0.00997155,0.0,0.0,0.0,0.0,-1.0
46776670,46776479,-0.575286,0.0264336,-0.00991543,0.0,0.0,0.0,0.0,-1.0
46880663,46880455,-0.575382,0.0267727,-0.0101365,0.0,0.0,0.0,0.0,-1.0
46980659,46980465,-0.576575,0.0266311,-0.00982971,0.0,0.0,0.0,0.0,-1.0
47081469,47081298,-0.575729,0.0266824,-0.0101724,0.0,0.0,0.0,0.0,-1.0
47182275,47182107,-0.57625,0.0264516,-0.0100582,0.0,0.0,0.0,0.0,-1.0
47283903,47283678,-0.57599,0.027394,-0.0098751,0.0,0.0,0.0,0.0,-1.0
47384712,47384490,-0.575932,0.0264106,-0.00993952,0.0,0.0,0.0,0.0,-1.0
47488667,47488485,-0.576763,0.0267728,-0.0102538,0.0,0.0,0.0,0.0,-1.0
47588633,47588488,-0.5766,0.0274327,-0.0100791,0.0,0.0,0.0,0.0,-1.0
47692613,47692455,-0.575945,0.0259987,-0.0100924,0.0,0.0,0.0,0.0,-1.0
47792635,47792479,-0.576008,0.0271695,-0.00976989,0.0,0.0,0.0,0.0,-1.0
47892626,47892478,-0.576159,0.0274026,-0.0103301,0.0,0.0,0.0,0.0,-1.0
47996662,47996486,-0.575373,0.0264442,-0.0102459,0.0,0.0,0.0,0.0,-1.0
48096662,48096486,-0.575922,0.0266953,-0.00972086,0.0,0.0,0.0,0.0,-1.0
48196636,48196486,-0.575664,0.0269931,-0.0100734,0.0,0.0,0.0,0.0,-1.0
48300667,48300486,-0.575833,0.0262429,-0.00989133,0.0,0.0,0.0,0.0,-1.0
48402300,48402094,-0.575617,0.0268731,-0.0100524,0.0,0.0,0.0,0.0,-1.0
48502269,48502086,-0.575721,0.0264896,-0.00990181,0.0,0.0,0.0,0.0,-1.0
48606236,48606087,-0.575627,0.0265543,-0.00994827,0.0,0.0,0.0,0.0,-1.0
48706995,48706855,-0.576101,0.0265683,-0.00971224,0.0,0.0,0.0,0.0,-1.0
48806998,48806859,-0.574863,0.0266862,-0.00938756,0.0,0.0,0.0,0.0,-1.0
48907126,48906878,-0.577834,0.0270844,-0.00942371,0.0,0.0,0.0,0.0,-1.0
49011078,49010896,-0.577633,0.0263778,-0.00952266,0.0,0.0,0.0,0.0,-1.0
49111039,49110895,-0.575785,0.0269614,-0.00949184,0.0,0.0,0.0,0.0,-1.0
49215073,49214900,-0.575676,0.0263359,-0.0101231,0.0,0.0,0.0,0.0,-1.0
49315017,49314878,-0.576105,0.026108,-0.0100296,0.0,0.0,0.0,0.0,-1.0
49414990,49414855,-0.575578,0.0270902,-0.00953174,0.0,0.0,0.0,0.0,-1.0
49519044,49518855,-0.576074,0.0263673,-0.00967257,0.0,0.0,0.0,0.0,-1.0
49619112,49618885,-0.575516,0.0268655,-0.00964592,0.0,0.0,0.0,0.0,-1.0
49719054,49718897,-0.575099,0.0263191,-0.0101578,0.0,0.0,0.0,0.0,-1.0
49820695,49820478,-0.576575,0.027241,-0.00975002,0.0,0.0,0.0,0.0,-1.0
49924637,49924455,-0.575619,0.0269849,-0.00989619,0.0,0.0,0.0,0.0,-1.0
50024654,50024495,-0.575767,0.026324,-0.0100216,0.0,0.0,0.0,0.0,-1.0
50128624,50128478,-0.575797,0.0266384,-0.010236,0.0,0.0,0.0,0.0,-1.0
50228633,50228479,-0.577949,0.0269449,-0.00934992,0.0,0.0,0.0,0.0,-1.0
50329421,50329286,-0.576887,0.0268982,-0.00978571,0.0,0.0,0.0,0.0,-1.0
50429421,50429286,-0.57562,0.0266097,-0.00969177,0.0,0.0,0.0,0.0,-1.0
50533390,50533255,-0.577931,0.0264661,-0.00929901,0.0,0.0,0.0,0.0,-1.0
50633460,50633278,-0.575409,0.0264518,-0.00962076,0.0,0.0,0.0,0.0,-1.0
50737550,50737285,-0.575956,0.0261748,-0.00974088,0.0,0.0,0.0,0.0,-1.0
50839074,50838920,-0.576417,0.0271548,-0.00950293,0.0,0.0,0.0,0.0,-1.0
50939074,50938854,-0.576041,0.0264393,-0.0101504,0.0,0.0,0.0,0.0,-1.0
51039032,51038854,-0.576252,0.026063,-0.00989425,0.0,0.0,0.0,0.0,-1.0
51143026,51142884,-0.576185,0.0269234,-0.00996398,0.0,0.0,0.0,0.0,-1.0
51243035,51242900,-0.575946,0.0265225,-0.00959879,0.0,0.0,0.0,0.0,-1.0
51343074,51342885,-0.575509,0.0266412,-0.00997847,0.0,0.0,0.0,0.0,-1.0
51447043,51446879,-0.575521,0.0265797,-0.00965307,0.0,0.0,0.0,0.0,-1.0
51547030,51546891,-0.576001,0.0267504,-0.00931966,0.0,0.0,0.0,0.0,-1.0
51651085,51650888,-0.574191,0.0265436,-0.0095907,0.0,0.0,0.0,0.0,-1.0
51750994,51750855,-0.576414,0.0261723,-0.00933435,0.0,0.0,0.0,0.0,-1.0
51851020,51850878,-0.576186,0.0261835,-0.0097059,0.0,0.0,0.0,0.0,-1.0
51955054,51954892,-0.576374,0.0261619,-0.00943343,0.0,0.0,0.0,0.0,-1.0
52055103,52054886,-0.576002,0.0263317,-0.00956421,0.0,0.0,0.0,0.0,-1.0
52157478,52157304,-0.57623,0.0262015,-0.0101097,0.0,0.0,0.0,0.0,-1.0
52257474,52257278,-0.576279,0.026385,-0.0094661,0.0,0.0,0.0,0.0,-1.0
52361445,52361299,-0.575626,0.0265035,-0.00993168,0.0,0.0,0.0,0.0,-1.0
52462221,52462079,-0.575842,0.0265414,-0.0100256,0.0,0.0,0.0,0.0,-1.0
52562233,52562055,-0.575544,0.0264872,-0.00968929,0.0,0.0,0.0,0.0,-1.0
52666238,52666055,-0.575495,0.0260625,-0.00965242,0.0,0.0,0.0,0.0,-1.0
52766218,52766078,-0.575896,0.0264822,-0.00979928,0.0,0.0,0.0,0.0,-1.0
52867021,52866886,-0.575648,0.0268467,-0.00961595,0.0,0.0,0.0,0.0,-1.0
52967032,52966879,-0.575678,0.0262147,-0.00930197,0.0,0.0,0.0,0.0,-1.0
53068629,53068478,-0.575956,0.0264539,-0.0095491,0.0,0.0,0.0,0.0,-1.0
53172651,53172479,-0.577155,0.0261517,-0.00920726,0.0,0.0,0.0,0.0,-1.0
53272673,53272479,-0.57594,0.0254041,-0.00940659,0.0,0.0,0.0,0.0,-1.0
53376629,53376479,-0.576206,0.0269842,-0.0100112,0.0,0.0,0.0,0.0,-1.0
53476700,53476508,-0.575447,0.0264591,-0.00974423,0.0,0.0,0.0,0.0,-1.0
53576693,53576479,-0.575075,0.0270643,-0.00992379,0.0,0.0,0.0,0.0,-1.0
53680610,53680468,-0.575991,0.0263241,-0.00953911,0.0,0.0,0.0,0.0,-1.0
53780621,53780479,-0.575685,0.0257753,-0.00967797,0.0,0.0,0.0,0.0,-1.0
53880642,53880483,-0.576028,0.0256526,-0.00955608,0.0,0.0,0.0,0.0,-1.0
53983005,53982863,-0.576642,0.0265602,-0.00964404,0.0,0.0,0.0,0.0,-1.0
54087073,54086888,-0.57593,0.0267657,-0.00968268,0.0,0.0,0.0,0.0,-1.0
54191016,54190881,-0.575467,0.0261117,-0.00981635,0.0,0.0,0.0,0.0,-1.0
54291019,54290881,-0.576884,0.0268124,-0.00973075,0.0,0.0,0.0,0.0,-1.0
54395032,54394879,-0.576172,0.0258861,-0.00947874,0.0,0.0,0.0,0.0,-1.0
54495031,54494886,-0.576026,0.0265745,-0.00975933,0.0,0.0,0.0,0.0,-1.0
54595064,54594886,-0.575568,0.026492,-0.0093233,0.0,0.0,0.0,0.0,-1.0
54699075,54698855,-0.57621,0.0261729,-0.00950551,0.0,0.0,0.0,0.0,-1.0
54799015,54798878,-0.577008,0.0268023,-0.00980107,0.0,0.0,0.0,0.0,-1.0
54899031,54898886,-0.575904,0.0255169,-0.00996708,0.0,0.0,0.0,0.0,-1.0
55003045,55002879,-0.575693,0.026756,-0.00970369,0.0,0.0,0.0,0.0,-1.0
55103057,55102879,-0.576161,0.0267357,-0.00972638,0.0,0.0,0.0,0.0,-1.0
55207030,55206879,-0.575685,0.0268679,-0.00965676,0.0,0.0,0.0,0.0,-1.0
55311061,55310878,-0.576088,0.0266978,-0.0098912,0.0,0.0,0.0,0.0,-1.0
55411004,55410867,-0.575964,0.0266474,-0.00978291,0.0,0.0,0.0,0.0,-1.0
55515075,55514902,-0.57522,0.0265562,-0.00982636,0.0,0.0,0.0,0.0,-1.0
55615071,55614893,-0.574696,0.0261985,-0.0100766,0.0,0.0,0.0,0.0,-1.0
55715068,55714886,-0.576398,0.0264084,-0.0100927,0.0,0.0,0.0,0.0,-1.0
55819047,55818905,-0.576402,0.0258595,-0.00996606,0.0,0.0,0.0,0.0,-1.0
55919108,55918879,-0.576406,0.0267501,-0.00978366,0.0,0.0,0.0,0.0,-1.0
56019052,56018879,-0.575594,0.0269637,-0.0101027,0.0,0.0,0.0,0.0,-1.0
56122990,56122855,-0.575543,0.0266496,-0.00984028,0.0,0.0,0.0,0.0,-1.0
56223011,56222870,-0.575915,0.0273012,-0.00949884,0.0,0.0,0.0,0.0,-1.0
56324639,56324487,-0.576038,0.0266385,-0.0098453,0.0,0.0,0.0,0.0,-1.0
56428661,56428479,-0.576373,0.026717,-0.0099604,0.0,0.0,0.0,0.0,-1.0
56528634,56528482,-0.576364,0.0270047,-0.00957218,0.0,0.0,0.0,0.0,-1.0
56629419,56629284,-0.576439,0.0274288,-0.0102723,0.0,0.0,0.0,0.0,-1.0
56729421,56729286,-0.576325,0.0267719,-0.00960358,0.0,0.0,0.0,0.0,-1.0
56833456,56833279,-0.576168,0.0274438,-0.0101089,0.0,0.0,0.0,0.0,-1.0
56933500,56933279,-0.575943,0.0269519,-0.0104659,0.0,0.0,0.0,0.0,-1.0
57037489,57037279,-0.575796,0.0264906,-0.00949892,0.0,0.0,0.0,0.0,-1.0
57137483,57137309,-0.576625,0.0268726,-0.00962913,0.0,0.0,0.0,0.0,-1.0
57237457,57237255,-0.57555,0.026173,-0.00998011,0.0,0.0,0.0,0.0,-1.0
57341413,57341278,-0.57592,0.0272066,-0.00972005,0.0,0.0,0.0,0.0,-1.0
57441489,57441284,-0.576308,0.0263762,-0.00996569,0.0,0.0,0.0,0.0,-1.0
57541485,57541298,-0.575509,0.0261728,-0.00991179,0.0,0.0,0.0,0.0,-1.0
57643014,57642855,-0.576738,0.0263056,-0.00965784,0.0,0.0,0.0,0.0,-1.0
57747059,57746879,-0.576323,0.026163,-0.00984639,0.0,0.0,0.0,0.0,-1.0
57847022,57846887,-0.576212,0.0257049,-0.00998656,0.0,0.0,0.0,0.0,-1.0
57951082,57950889,-0.574796,0.0266756,-0.009937,0.0,0.0,0.0,0.0,-1.0
58051856,58051693,-0.576042,0.0266745,-0.00965216,0.0,0.0,0.0,0.0,-1.0
58151854,58151679,-0.575332,0.0273109,-0.00981543,0.0,0.0,0.0,0.0,-1.0
58251792,58251655,-0.576342,0.0267979,-0.0102371,0.0,0.0,0.0,0.0,-1.0
58354277,58354089,-0.575834,0.0264959,-0.00963075,0.0,0.0,0.0,0.0,-1.0
58458217,58458079,-0.575958,0.0262734,-0.00991354,0.0,0.0,0.0,0.0,-1.0
58559023,58558878,-0.575642,0.0264953,-0.0102663,0.0,0.0,0.0,0.0,-1.0
58659020,58658880,-0.575971,0.02724,-0.00971391,0.0,0.0,0.0,0.0,-1.0
58763024,58762879,-0.57626,0.0268163,-0.00965034,0.0,0.0,0.0,0.0,-1.0
58863016,58862878,-0.576316,0.0267835,-0.0102202,0.0,0.0,0.0,0.0,-1.0
58963073,58962879,-0.575532,0.027069,-0.009642,0.0,0.0,0.0,0.0,-1.0
59067105,59066893,-0.576027,0.0273206,-0.00990343,0.0,0.0,0.0,0.0,-1.0
59166990,59166855,-0.576427,0.0268763,-0.0101081,0.0,0.0,0.0,0.0,-1.0
59267028,59266878,-0.575681,0.0268604,-0.00994215,0.0,0.0,0.0,0.0,-1.0
59371824,59371684,-0.576438,0.0271221,-0.00990891,0.0,0.0,0.0,0.0,-1.0
59472633,59472486,-0.575831,0.0268988,-0.00992589,0.0,0.0,0.0,0.0,-1.0
59572655,59572454,-0.576417,0.0267361,-0.00951552,0.0,0.0,0.0,0.0,-1.0
59676647,59676492,-0.575846,0.0263869,-0.0103387,0.0,0.0,0.0,0.0,-1.0
59776671,59776485,-0.576181,0.0264263,-0.010049,0.0,0.0,0.0,0.0,-1.0
59876708,59876520,-0.576019,0.0263996,-0.00989351,0.0,0.0,0.0,0.0,-1.0
59980632,59980491,-0.576966,0.0257394,-0.0096343,0.0,0.0,0.0,0.0,-1.0
60080630,60080487,-0.575528,0.0275671,-0.00948138,0.0,0.0,0.0,0.0,-1.0
60180626,60180479,-0.576494,0.0261366,-0.00976519,0.0,0.0,0.0,0.0,-1.0
60284640,60284455,-0.575971,0.0267575,-0.00952275,0.0,0.0,0.0,0.0,-1.0
60384654,60384461,-0.575857,0.0266171,-0.0099772,0.0,0.0,0.0,0.0,-1.0
60485467,60485286,-0.575454,0.0267576,-0.00985374,0.0,0.0,0.0,0.0,-1.0
60589485,60589317,-0.576497,0.0265493,-0.00969933,0.0,0.0,0.0,0.0,-1.0
60689471,60689301,-0.575723,0.0267261,-0.00995163,0.0,0.0,0.0,0.0,-1.0
60791098,60790892,-0.576323,0.0265608,-0.00958821,0.0,0.0,0.0,0.0,-1.0
60891109,60890902,-0.576209,0.0268078,-0.00985644,0.0,0.0,0.0,0.0,-1.0
60995864,60995686,-0.5759,0.0268427,-0.010141,0.0,0.0,0.0,0.0,-1.0
61099948,61099730,-0.575795,0.026806,-0.00997641,0.0,0.0,0.0,0.0,-1.0
61199877,61199699,-0.575969,0.0259263,-0.00990448,0.0,0.0,0.0,0.0,-1.0
61302264,61302086,-0.575562,0.0263495,-0.0100786,0.0,0.0,0.0,0.0,-1.0
61402303,61402078,-0.575634,0.0270801,-0.00974183,0.0,0.0,0.0,0.0,-1.0
61506246,61506054,-0.575683,0.0264918,-0.00967903,0.0,0.0,0.0,0.0,-1.0
61606247,61606097,-0.576733,0.026892,-0.010173,0.0,0.0,0.0,0.0,-1.0
61710224,61710079,-0.575406,0.0262976,-0.010203,0.0,0.0,0.0,0.0,-1.0
61814260,61814122,-0.576564,0.0269299,-0.00985788,0.0,0.0,0.0,0.0,-1.0
61914256,61914079,-0.575861,0.0270316,-0.010114,0.0,0.0,0.0,0.0,-1.0
62018200,62018055,-0.576297,0.0270808,-0.00985091,0.0,0.0,0.0,0.0,-1.0
62118990,62118855,-0.575839,0.0269682,-0.00995187,0.0,0.0,0.0,0.0,-1.0
62219062,62218879,-0.574709,0.0267493,-0.0100411,0.0,0.0,0.0,0.0,-1.0
62319066,62318915,-0.575708,0.0274815,-0.0102965,0.0,0.0,0.0,0.0,-1.0
62423016,62422879,-0.575664,0.0269298,-0.0102321,0.0,0.0,0.0,0.0,-1.0
62523023,62522885,-0.576159,0.0267774,-0.00993925,0.0,0.0,0.0,0.0,-1.0
62624622,62624478,-0.576105,0.0266785,-0.00968353,0.0,0.0,0.0,0.0,-1.0
62728656,62728478,-0.575809,0.026766,-0.00966768,0.0,0.0,0.0,0.0,-1.0
62828653,62828479,-0.574936,0.0271011,-0.0097776,0.0,0.0,0.0,0.0,-1.0
62928642,62928485,-0.575891,0.0269991,-0.00982627,0.0,0.0,0.0,0.0,-1.0
63032630,63032488,-0.576297,0.0272621,-0.0101304,0.0,0.0,0.0,0.0,-1.0
63133400,63133263,-0.57455,0.0267648,-0.0101142,0.0,0.0,0.0,0.0,-1.0
63233506,63233286,-0.576338,0.0273248,-0.00988111,0.0,0.0,0.0,0.0,-1.0
63337503,63337286,-0.575502,0.0271616,-0.00982035,0.0,0.0,0.0,0.0,-1.0
63437462,63437284,-0.576475,0.026812,-0.0094395,0.0,0.0,0.0,0.0,-1.0
63537458,63537282,-0.576406,0.0266433,-0.0100466,0.0,0.0,0.0,0.0,-1.0
63641414,63641278,-0.576271,0.0263689,-0.00959339,0.0,0.0,0.0,0.0,-1.0
63741475,63741286,-0.576543,0.0271769,-0.00983364,0.0,0.0,0.0,0.0,-1.0
63841438,63841255,-0.576175,0.0271054,-0.00992764,0.0,0.0,0.0,0.0,-1.0
63945503,63945306,-0.575102,0.0270192,-0.0100761,0.0,0.0,0.0,0.0,-1.0
64045415,64045278,-0.576519,0.0273441,-0.0101003,0.0,0.0,0.0,0.0,-1.0
64147067,64146895,-0.576093,0.027743,-0.00988355,0.0,0.0,0.0,0.0,-1.0
64251068,64250916,-0.576132,0.0264571,-0.00988194,0.0,0.0,0.0,0.0,-1.0
64354994,64354855,-0.576413,0.0267937,-0.00988042,0.0,0.0,0.0,0.0,-1.0
64455021,64454884,-0.575482,0.0268917,-0.0095991,0.0,0.0,0.0,0.0,-1.0
64559056,64558879,-0.57509,0.0271427,-0.00979489,0.0,0.0,0.0,0.0,-1.0
64659061,64658878,-0.576268,0.027573,-0.0100917,0.0,0.0,0.0,0.0,-1.0
64759102,64758879,-0.576004,0.0268907,-0.0101745,0.0,0.0,0.0,0.0,-1.0
64863105,64862923,-0.57627,0.0269523,-0.0105738,0.0,0.0,0.0,0.0,-1.0
64963031,64962855,-0.576065,0.0269577,-0.010278,0.0,0.0,0.0,0.0,-1.0
65063056,65062855,-0.576401,0.0270131,-0.0101932,0.0,0.0,0.0,0.0,-1.0
65167014,65166878,-0.575019,0.0267419,-0.0102646,0.0,0.0,0.0,0.0,-1.0
65267039,65266904,-0.575816,0.0264794,-0.00998346,0.0,0.0,0.0,0.0,-1.0
65371029,65370879,-0.575892,0.0277454,-0.00983389,0.0,0.0,0.0,0.0,-1.0
65471064,65470879,-0.576204,0.0273118,-0.00998225,0.0,0.0,0.0,0.0,-1.0
65572677,65572478,-0.576498,0.0272791,-0.0094908,0.0,0.0,0.0,0.0,-1.0
65672703,65672506,-0.576581,0.0273444,-0.0102122,0.0,0.0,0.0,0.0,-1.0
65776670,65776495,-0.575871,0.0274348,-0.0103559,0.0,0.0,0.0,0.0,-1.0
65876674,65876486,-0.576073,0.0279017,-0.0101316,0.0,0.0,0.0,0.0,-1.0
65976640,65976486,-0.57582,0.0275541,-0.00970117,0.0,0.0,0.0,0.0,-1.0
66080663,66080518,-0.577101,0.0275807,-0.0100861,0.0,0.0,0.0,0.0,-1.0
66180667,66180455,-0.576191,0.0263735,-0.00971574,0.0,0.0,0.0,0.0,-1.0
66281487,66281278,-0.575945,0.0272171,-0.0100371,0.0,0.0,0.0,0.0,-1.0
66385452,66385279,-0.575463,0.0265169,-0.00968717,0.0,0.0,0.0,0.0,-1.0
66485450,66485306,-0.575705,0.0269118,-0.0102787,0.0,0.0,0.0,0.0,-1.0
66585444,66585305,-0.575541,0.0269873,-0.00978593,0.0,0.0,0.0,0.0,-1.0
66687881,66687697,-0.575495,0.0267855,-0.00972234,0.0,0.0,0.0,0.0,-1.0
66788660,66788486,-0.576925,0.0274776,-0.00994709,0.0,0.0,0.0,0.0,-1.0
66892677,66892461,-0.574981,0.0265217,-0.00971184,0.0,0.0,0.0,0.0,-1.0
66992597,66992455,-0.57551,0.026841,-0.00981731,0.0,0.0,0.0,0.0,-1.0
67096664,67096479,-0.575633,0.0270731,-0.010084,0.0,0.0,0.0,0.0,-1.0
67196677,67196489,-0.577282,0.0271223,-0.00977998,0.0,0.0,0.0,0.0,-1.0
67296673,67296486,-0.576674,0.0259841,-0.010312,0.0,0.0,0.0,0.0,-1.0
67400628,67400479,-0.576127,0.0265456,-0.00950176,0.0,0.0,0.0,0.0,-1.0
67500690,67500505,-0.576416,0.0261451,-0.0096232,0.0,0.0,0.0,0.0,-1.0
67600670,67600478,-0.575366,0.0267132,-0.00978695,0.0,0.0,0.0,0.0,-1.0
67704599,67704455,-0.575628,0.0273659,-0.00974661,0.0,0.0,0.0,0.0,-1.0
67804619,67804478,-0.575835,0.0275231,-0.00972795,0.0,0.0,0.0,0.0,-1.0
67904627,67904481,-0.575483,0.0272045,-0.00975863,0.0,0.0,0.0,0.0,-1.0
68010277,68010085,-0.575633,0.0265399,-0.0099916,0.0,0.0,0.0,0.0,-1.0
68110206,68110061,-0.572872,0.0262982,-0.0106497,0.0,0.0,0.0,0.0,-1.0
68210306,68210126,-0.575868,0.0271146,-0.00986679,0.0,0.0,0.0,0.0,-1.0
68314323,68314086,-0.576146,0.0266202,-0.00960953,0.0,0.0,0.0,0.0,-1.0
68414260,68414095,-0.575722,0.0264272,-0.0101715,0.0,0.0,0.0,0.0,-1.0
68514260,68514079,-0.576532,0.0266232,-0.0099692,0.0,0.0,0.0,0.0,-1.0
68618241,68618103,-0.576054,0.0276592,-0.00990484,0.0,0.0,0.0,0.0,-1.0
68719035,68718900,-0.575819,0.0261805,-0.0100204,0.0,0.0,0.0,0.0,-1.0
68819067,68818878,-0.576151,0.0267202,-0.0100408,0.0,0.0,0.0,0.0,-1.0
68923020,68922885,-0.57656,0.0264635,-0.0103886,0.0,0.0,0.0,0.0,-1.0
69023066,69022886,-0.576416,0.0271559,-0.00987179,0.0,0.0,0.0,0.0,-1.0
69123078,69122928,-0.575973,0.0268303,-0.00991476,0.0,0.0,0.0,0.0,-1.0
69224661,69224455,-0.575887,0.0267072,-0.00999607,0.0,0.0,0.0,0.0,-1.0
69328693,69328485,-0.57555,0.0269425,-0.00968028,0.0,0.0,0.0,0.0,-1.0
69428622,69428479,-0.576492,0.0270794,-0.00997732,0.0,0.0,0.0,0.0,-1.0
69532681,69532479,-0.575566,0.026447,-0.0100035,0.0,0.0,0.0,0.0,-1.0
69636630,69636479,-0.576264,0.0271349,-0.00982826,0.0,0.0,0.0,0.0,-1.0
69736629,69736485,-0.575326,0.0275674,-0.0103106,0.0,0.0,0.0,0.0,-1.0
69840649,69840455,-0.575563,0.0266042,-0.0101109,0.0,0.0,0.0,0.0,-1.0
69940601,69940455,-0.575658,0.0271668,-0.0100147,0.0,0.0,0.0,0.0,-1.0
70040657,70040478,-0.577418,0.0277233,-0.00999082,0.0,0.0,0.0,0.0,-1.0
70144680,70144491,-0.576601,0.0277807,-0.0101401,0.0,0.0,0.0,0.0,-1.0
70245492,70245294,-0.576234,0.0281412,-0.00963711,0.0,0.0,0.0,0.0,-1.0
70345464,70345279,-0.575768,0.0267975,-0.0100889,0.0,0.0,0.0,0.0,-1.0
70447064,70446897,-0.575405,0.0272586,-0.0100835,0.0,0.0,0.0,0.0,-1.0
70551043,70550888,-0.576307,0.027278,-0.010206,0.0,0.0,0.0,0.0,-1.0
70655076,70654891,-0.576314,0.0269088,-0.0101676,0.0,0.0,0.0,0.0,-1.0
70755029,70754892,-0.575388,0.0269151,-0.0103695,0.0,0.0,0.0,0.0,-1.0
70858989,70858854,-0.575459,0.0269131,-0.00997558,0.0,0.0,0.0,0.0,-1.0
70959036,70958854,-0.575274,0.0276514,-0.00993808,0.0,0.0,0.0,0.0,-1.0
71059089,71058878,-0.575498,0.0277368,-0.00997031,0.0,0.0,0.0,0.0,-1.0
71163066,71162886,-0.576221,0.0267523,-0.00986132,0.0,0.0,0.0,0.0,-1.0
71263038,71262901,-0.57604,0.0272312,-0.0100096,0.0,0.0,0.0,0.0,-1.0
71363087,71362879,-0.575933,0.0273467,-0.0102609,0.0,0.0,0.0,0.0,-1.0
71467042,71466907,-0.575732,0.0270981,-0.00994324,0.0,0.0,0.0,0.0,-1.0
71566993,71566855,-0.575882,0.0283209,-0.0101241,0.0,0.0,0.0,0.0,-1.0
71667832,71667687,-0.576177,0.0271729,-0.0103481,0.0,0.0,0.0,0.0,-1.0
71769423,71769279,-0.575944,0.0272927,-0.00987314,0.0,0.0,0.0,0.0,-1.0
71873443,71873255,-0.576136,0.0270587,-0.00996554,0.0,0.0,0.0,0.0,-1.0
71973390,71973255,-0.575873,0.0272226,-0.0103433,0.0,0.0,0.0,0.0,-1.0
72073465,72073286,-0.576193,0.0274465,-0.0103673,0.0,0.0,0.0,0.0,-1.0
72175026,72174879,-0.575507,0.0276974,-0.0100023,0.0,0.0,0.0,0.0,-1.0
72279056,72278879,-0.576021,0.0272785,-0.00990169,0.0,0.0,0.0,0.0,-1.0
72380621,72380479,-0.576253,0.0279458,-0.009875,0.0,0.0,0.0,0.0,-1.0
72480669,72480481,-0.576157,0.0269748,-0.0100464,0.0,0.0,0.0,0.0,-1.0
72584670,72584479,-0.575857,0.0277159,-0.010097,0.0,0.0,0.0,0.0,-1.0
72684639,72684489,-0.576035,0.0274395,-0.00956549,0.0,0.0,0.0,0.0,-1.0
72784594,72784455,-0.576411,0.0282572,-0.010165,0.0,0.0,0.0,0.0,-1.0
72888595,72888455,-0.576529,0.0274451,-0.0100826,0.0,0.0,0.0,0.0,-1.0
72989475,72989285,-0.575961,0.0276181,-0.00995872,0.0,0.0,0.0,0.0,-1.0
73089422,73089285,-0.576668,0.0276002,-0.00992034,0.0,0.0,0.0,0.0,-1.0
73193466,73193279,-0.575529,0.0276537,-0.00998182,0.0,0.0,0.0,0.0,-1.0
73293476,73293279,-0.576335,0.0281016,-0.0102964,0.0,0.0,0.0,0.0,-1.0
73397470,73397255,-0.575853,0.0266814,-0.010397,0.0,0.0,0.0,0.0,-1.0
73501516,73501286,-0.57538,0.0280607,-0.0100549,0.0,0.0,0.0,0.0,-1.0
73601421,73601286,-0.575698,0.0280092,-0.0100246,0.0,0.0,0.0,0.0,-1.0
73703132,73702886,-0.576634,0.0283177,-0.0101898,0.0,0.0,0.0,0.0,-1.0
73803022,73802886,-0.575773,0.0276437,-0.0104,0.0,0.0,0.0,0.0,-1.0
73907051,73906905,-0.576108,0.027726,-0.0102622,0.0,0.0,0.0,0.0,-1.0
74007850,74007712,-0.57603,0.0275524,-0.0100874,0.0,0.0,0.0,0.0,-1.0
74107853,74107685,-0.576471,0.0278881,-0.0105447,0.0,0.0,0.0,0.0,-1.0
74211818,74211679,-0.575724,0.0276984,-0.0103564,0.0,0.0,0.0,0.0,-1.0
74311854,74311679,-0.575899,0.0279525,-0.00957102,0.0,0.0,0.0,0.0,-1.0
74413415,74413278,-0.575049,0.0277499,-0.010018,0.0,0.0,0.0,0.0,-1.0
74513479,74513286,-0.575379,0.0282101,-0.00986951,0.0,0.0,0.0,0.0,-1.0
74617505,74617291,-0.575881,0.0278048,-0.00997467,0.0,0.0,0.0,0.0,-1.0
74717476,74717298,-0.576077,0.0275111,-0.0105623,0.0,0.0,0.0,0.0,-1.0
74817451,74817260,-0.575966,0.0273387,-0.0102354,0.0,0.0,0.0,0.0,-1.0
74921467,74921286,-0.575827,0.0278278,-0.00997007,0.0,0.0,0.0,0.0,-1.0
75021420,75021285,-0.575459,0.0270478,-0.0101328,0.0,0.0,0.0,0.0,-1.0
75125429,75125290,-0.57571,0.0271825,-0.0101668,0.0,0.0,0.0,0.0,-1.0
75225508,75225292,-0.575484,0.0279416,-0.0101602,0.0,0.0,0.0,0.0,-1.0
75325484,75325297,-0.575865,0.0270733,-0.00975218,0.0,0.0,0.0,0.0,-1.0
75429436,75429291,-0.576031,0.0278261,-0.0101143,0.0,0.0,0.0,0.0,-1.0
75530233,75530086,-0.576181,0.0270417,-0.0100337,0.0,0.0,0.0,0.0,-1.0
75630265,75630127,-0.576503,0.0268428,-0.00992618,0.0,0.0,0.0,0.0,-1.0
75734226,75734085,-0.575388,0.0272227,-0.0101441,0.0,0.0,0.0,0.0,-1.0
75834218,75834079,-0.576065,0.0280547,-0.0101419,0.0,0.0,0.0,0.0,-1.0
75935796,75935655,-0.57517,0.0275255,-0.0102732,0.0,0.0,0.0,0.0,-1.0
76035834,76035681,-0.575884,0.0274155,-0.0103546,0.0,0.0,0.0,0.0,-1.0
76140662,76140479,-0.575607,0.0278133,-0.0101706,0.0,0.0,0.0,0.0,-1.0
76244630,76244479,-0.575974,0.0270748,-0.0102035,0.0,0.0,0.0,0.0,-1.0
76344675,76344479,-0.57574,0.0274721,-0.0102835,0.0,0.0,0.0,0.0,-1.0
76448671,76448455,-0.575654,0.0272346,-0.0101739,0.0,0.0,0.0,0.0,-1.0
76548631,76548489,-0.57583,0.0271613,-0.0103923,0.0,0.0,0.0,0.0,-1.0
76648633,76648484,-0.576269,0.0273188,-0.0103025,0.0,0.0,0.0,0.0,-1.0
76752665,76752485,-0.575508,0.0270724,-0.0104707,0.0,0.0,0.0,0.0,-1.0
76852681,76852486,-0.575722,0.0276085,-0.00985152,0.0,0.0,0.0,0.0,-1.0
76952710,76952479,-0.575954,0.027658,-0.0101549,0.0,0.0,0.0,0.0,-1.0
77056684,77056501,-0.577153,0.0271846,-0.0102074,0.0,0.0,0.0,0.0,-1.0
77156625,77156455,-0.576073,0.0277845,-0.0102385,0.0,0.0,0.0,0.0,-1.0
77260610,77260455,-0.576462,0.0271063,-0.00983224,0.0,0.0,0.0,0.0,-1.0
77360628,77360478,-0.576396,0.027732,-0.00958686,0.0,0.0,0.0,0.0,-1.0
77462228,77462084,-0.576316,0.0273808,-0.0103997,0.0,0.0,0.0,0.0,-1.0
77562195,77562055,-0.575803,0.027367,-0.00970477,0.0,0.0,0.0,0.0,-1.0
77666196,77666055,-0.575127,0.0272958,-0.0102608,0.0,0.0,0.0,0.0,-1.0
77766251,77766092,-0.575953,0.0279533,-0.0105233,0.0,0.0,0.0,0.0,-1.0
77866282,77866086,-0.576617,0.0273853,-0.0102279,0.0,0.0,0.0,0.0,-1.0
77970318,77970092,-0.576043,0.027036,-0.0100664,0.0,0.0,0.0,0.0,-1.0
78070270,78070084,-0.575602,0.0268983,-0.0102167,0.0,0.0,0.0,0.0,-1.0
78174226,78174079,-0.575326,0.0276138,-0.00995526,0.0,0.0,0.0,0.0,-1.0
78274224,78274055,-0.576193,0.0279088,-0.0104069,0.0,0.0,0.0,0.0,-1.0
78374268,78374062,-0.576625,0.0277306,-0.00972578,0.0,0.0,0.0,0.0,-1.0
78475061,78474886,-0.576191,0.0275296,-0.0103741,0.0,0.0,0.0,0.0,-1.0
78579079,78578886,-0.575914,0.0276743,-0.0101834,0.0,0.0,0.0,0.0,-1.0
78679076,78678932,-0.576047,0.0273329,-0.00999758,0.0,0.0,0.0,0.0,-1.0
78781414,78781279,-0.576614,0.0276848,-0.0106658,0.0,0.0,0.0,0.0,-1.0
78881450,78881282,-0.575536,0.0276322,-0.0102059,0.0,0.0,0.0,0.0,-1.0
78985506,78985285,-0.576349,0.0278458,-0.0102098,0.0,0.0,0.0,0.0,-1.0
79086235,79086055,-0.575641,0.0273137,-0.0105197,0.0,0.0,0.0,0.0,-1.0
79187878,79187712,-0.576297,0.0275779,-0.0104211,0.0,0.0,0.0,0.0,-1.0
79287908,79287699,-0.57596,0.0275095,-0.0102002,0.0,0.0,0.0,0.0,-1.0
79391909,79391730,-0.576152,0.0276859,-0.0105048,0.0,0.0,0.0,0.0,-1.0
79491841,79491655,-0.575923,0.0280844,-0.010016,0.0,0.0,0.0,0.0,-1.0
79591871,79591693,-0.575513,0.0271653,-0.0107847,0.0,0.0,0.0,0.0,-1.0
79695813,79695678,-0.575633,0.0281915,-0.0101636,0.0,0.0,0.0,0.0,-1.0
79796634,79796485,-0.57619,0.0272011,-0.0100104,0.0,0.0,0.0,0.0,-1.0
79896680,79896531,-0.576668,0.0280775,-0.0101201,0.0,0.0,0.0,0.0,-1.0
80000620,80000479,-0.575619,0.0282392,-0.0101901,0.0,0.0,0.0,0.0,-1.0
80100637,80100455,-0.576479,0.0276865,-0.0106979,0.0,0.0,0.0,0.0,-1.0
80200605,80200455,-0.576684,0.0269449,-0.0104159,0.0,0.0,0.0,0.0,-1.0
80304680,80304484,-0.57578,0.0276139,-0.01008,0.0,0.0,0.0,0.0,-1.0
80404625,80404480,-0.576071,0.0277109,-0.00995692,0.0,0.0,0.0,0.0,-1.0
80508682,80508521,-0.575914,0.0277947,-0.0101303,0.0,0.0,0.0,0.0,-1.0
80610240,80610090,-0.575457,0.027674,-0.0102312,0.0,0.0,0.0,0.0,-1.0
80711049,80710905,-0.575914,0.028113,-0.0103126,0.0,0.0,0.0,0.0,-1.0
80811862,80811725,-0.575843,0.027312,-0.0103664,0.0,0.0,0.0,0.0,-1.0
80911832,80911655,-0.57591,0.0278977,-0.0102254,0.0,0.0,0.0,0.0,-1.0
81015792,81015655,-0.576512,0.027821,-0.0103409,0.0,0.0,0.0,0.0,-1.0
81117453,81117278,-0.575975,0.0275029,-0.00993199,0.0,0.0,0.0,0.0,-1.0
81217458,81217278,-0.575442,0.0272872,-0.0102245,0.0,0.0,0.0,0.0,-1.0
81317508,81317282,-0.575494,0.0277786,-0.0102934,0.0,0.0,0.0,0.0,-1.0
81421437,81421255,-0.577175,0.0282499,-0.0101052,0.0,0.0,0.0,0.0,-1.0
81521443,81521295,-0.575638,0.0279167,-0.0104279,0.0,0.0,0.0,0.0,-1.0
81621441,81621292,-0.576437,0.0274665,-0.0099675,0.0,0.0,0.0,0.0,-1.0
81725463,81725279,-0.575675,0.0278199,-0.0103667,0.0,0.0,0.0,0.0,-1.0
81825468,81825279,-0.576233,0.0280523,-0.0101347,0.0,0.0,0.0,0.0,-1.0
81929416,81929279,-0.576247,0.0268185,-0.0100839,0.0,0.0,0.0,0.0,-1.0
82033448,82033307,-0.576129,0.027561,-0.0104259,0.0,0.0,0.0,0.0,-1.0
82133436,82133255,-0.576532,0.0275244,-0.00979185,0.0,0.0,0.0,0.0,-1.0
82237550,82237286,-0.576095,0.027208,-0.010198,0.0,0.0,0.0,0.0,-1.0
82337502,82337286,-0.576097,0.0277308,-0.0100528,0.0,0.0,0.0,0.0,-1.0
82437496,82437286,-0.576031,0.0282833,-0.00997668,0.0,0.0,0.0,0.0,-1.0
82539948,82539723,-0.575473,0.0274077,-0.00985188,0.0,0.0,0.0,0.0,-1.0
82643844,82643704,-0.575853,0.0274434,-0.0100329,0.0,0.0,0.0,0.0,-1.0
82747864,82747693,-0.575916,0.0272259,-0.00984521,0.0,0.0,0.0,0.0,-1.0
82847814,82847679,-0.575785,0.0276691,-0.00952484,0.0,0.0,0.0,0.0,-1.0
82951820,82951686,-0.576138,0.0272331,-0.0103463,0.0,0.0,0.0,0.0,-1.0
83051867,83051693,-0.575451,0.0271283,-0.0100292,0.0,0.0,0.0,0.0,-1.0
83151862,83151655,-0.575889,0.0272758,-0.00984452,0.0,0.0,0.0,0.0,-1.0
83255858,83255685,-0.576218,0.0269511,-0.0100752,0.0,0.0,0.0,0.0,-1.0
83355813,83355681,-0.575728,0.0272337,-0.0102801,0.0,0.0,0.0,0.0,-1.0
83455866,83455687,-0.576048,0.0276873,-0.0102696,0.0,0.0,0.0,0.0,-1.0
83559865,83559723,-0.575945,0.027541,-0.00987714,0.0,0.0,0.0,0.0,-1.0
83660600,83660455,-0.575468,0.0272948,-0.010233,0.0,0.0,0.0,0.0,-1.0
83762222,83762079,-0.575822,0.0272767,-0.00992699,0.0,0.0,0.0,0.0,-1.0
83862217,83862079,-0.575367,0.0266069,-0.010138,0.0,0.0,0.0,0.0,-1.0
83966244,83966079,-0.575681,0.0277497,-0.0101164,0.0,0.0,0.0,0.0,-1.0
84066260,84066079,-0.57649,0.0269492,-0.0100766,0.0,0.0,0.0,0.0,-1.0
84166241,84166056,-0.575785,0.026957,-0.0100454,0.0,0.0,0.0,0.0,-1.0
84271040,84270890,-0.576567,0.0272299,-0.00998975,0.0,0.0,0.0,0.0,-1.0
84371107,84370886,-0.576215,0.0266053,-0.0101232,0.0,0.0,0.0,0.0,-1.0
84471071,84470887,-0.576,0.0275141,-0.00988245,0.0,0.0,0.0,0.0,-1.0
84575023,84574886,-0.575562,0.0279465,-0.0102546,0.0,0.0,0.0,0.0,-1.0
84679024,84678855,-0.575883,0.028141,-0.0101832,0.0,0.0,0.0,0.0,-1.0
84778997,84778855,-0.576113,0.0271454,-0.00996223,0.0,0.0,0.0,0.0,-1.0
84880675,84880485,-0.575861,0.0275751,-0.0102613,0.0,0.0,0.0,0.0,-1.0
84984620,84984479,-0.575716,0.0274157,-0.0102772,0.0,0.0,0.0,0.0,-1.0
85084666,85084514,-0.575414,0.0273599,-0.00996827,0.0,0.0,0.0,0.0,-1.0
85184672,85184455,-0.5765,0.0271118,-0.0099934,0.0,0.0,0.0,0.0,-1.0
85288668,85288478,-0.575918,0.0276308,-0.00989191,0.0,0.0,0.0,0.0,-1.0
85388641,85388500,-0.576184,0.0265078,-0.010321,0.0,0.0,0.0,0.0,-1.0
85492615,85492455,-0.576615,0.0278601,-0.00984027,0.0,0.0,0.0,0.0,-1.0
85592638,85592479,-0.575793,0.0272509,-0.00989726,0.0,0.0,0.0,0.0,-1.0
85692627,85692485,-0.575905,0.0271527,-0.0107263,0.0,0.0,0.0,0.0,-1.0
85796648,85796479,-0.575984,0.027571,-0.0102827,0.0,0.0,0.0,0.0,-1.0
85896689,85896455,-0.576959,0.027444,-0.00976207,0.0,0.0,0.0,0.0,-1.0
85996625,85996479,-0.576052,0.0271309,-0.0104154,0.0,0.0,0.0,0.0,-1.0
86101486,86101290,-0.576258,0.0270267,-0.00965561,0.0,0.0,0.0,0.0,-1.0
86202994,86202855,-0.576105,0.0271618,-0.0101835,0.0,0.0,0.0,0.0,-1.0
86303058,86302884,-0.57639,0.0275894,-0.0103595,0.0,0.0,0.0,0.0,-1.0
86403061,86402892,-0.575852,0.0271371,-0.00991281,0.0,0.0,0.0,0.0,-1.0
86507021,86506886,-0.576241,0.026853,-0.00989136,0.0,0.0,0.0,0.0,-1.0
86607016,86606879,-0.576234,0.0268029,-0.00946955,0.0,0.0,0.0,0.0,-1.0
86707035,86706889,-0.576355,0.0276534,-0.0099421,0.0,0.0,0.0,0.0,-1.0
86811132,86810887,-0.575991,0.0271773,-0.0102121,0.0,0.0,0.0,0.0,-1.0
86911012,86910867,-0.576049,0.0272829,-0.00975034,0.0,0.0,0.0,0.0,-1.0
87015061,87014886,-0.57615,0.0268165,-0.0100933,0.0,0.0,0.0,0.0,-1.0
87115055,87114885,-0.576282,0.0268888,-0.0101438,0.0,0.0,0.0,0.0,-1.0
87215029,87214886,-0.575869,0.0270831,-0.00997931,0.0,0.0,0.0,0.0,-1.0
87319041,87318906,-0.575262,0.0270458,-0.00994377,0.0,0.0,0.0,0.0,-1.0
87419112,87418887,-0.575992,0.0273199,-0.00978319,0.0,0.0,0.0,0.0,-1.0
87519075,87518901,-0.575988,0.0269485,-0.0104034,0.0,0.0,0.0,0.0,-1.0
87621470,87621324,-0.576652,0.0273535,-0.00989733,0.0,0.0,0.0,0.0,-1.0
87725440,87725279,-0.575646,0.0274078,-0.0100994,0.0,0.0,0.0,0.0,-1.0
87825461,87825279,-0.575366,0.0279308,-0.0102987,0.0,0.0,0.0,0.0,-1.0
87925412,87925273,-0.57558,0.0276567,-0.00988234,0.0,0.0,0.0,0.0,-1.0
88029413,88029278,-0.576606,0.0280223,-0.00990378,0.0,0.0,0.0,0.0,-1.0
88129419,88129284,-0.575585,0.0277424,-0.0105921,0.0,0.0,0.0,0.0,-1.0
88229434,88229291,-0.57637,0.0273517,-0.0100765,0.0,0.0,0.0,0.0,-1.0
88333455,88333285,-0.576315,0.0275505,-0.0103058,0.0,0.0,0.0,0.0,-1.0
88434229,88434055,-0.575888,0.0275427,-0.0100222,0.0,0.0,0.0,0.0,-1.0
88534270,88534055,-0.575406,0.027551,-0.0100707,0.0,0.0,0.0,0.0,-1.0
88638283,88638103,-0.576388,0.0275746,-0.0101581,0.0,0.0,0.0,0.0,-1.0
88738264,88738079,-0.575562,0.0277217,-0.00999281,0.0,0.0,0.0,0.0,-1.0
88839935,88839750,-0.576568,0.0276753,-0.00989637,0.0,0.0,0.0,0.0,-1.0
88940712,88940520,-0.575346,0.0268567,-0.0102323,0.0,0.0,0.0,0.0,-1.0
89044672,89044527,-0.575529,0.027323,-0.00995473,0.0,0.0,0.0,0.0,-1.0
89144624,89144479,-0.576203,0.0276724,-0.00972442,0.0,0.0,0.0,0.0,-1.0
89244633,89244479,-0.57613,0.0277821,-0.010043,0.0,0.0,0.0,0.0,-1.0
89348669,89348485,-0.576621,0.0272502,-0.0100471,0.0,0.0,0.0,0.0,-1.0
89448628,89448455,-0.57584,0.0271403,-0.00993399,0.0,0.0,0.0,0.0,-1.0
89552731,89552498,-0.576166,0.027539,-0.0104208,0.0,0.0,0.0,0.0,-1.0
89653498,89653278,-0.575628,0.0273914,-0.00961922,0.0,0.0,0.0,0.0,-1.0
89754255,89754054,-0.576225,0.0275763,-0.0100906,0.0,0.0,0.0,0.0,-1.0
89854290,89854089,-0.575548,0.0279849,-0.010271,0.0,0.0,0.0,0.0,-1.0
89958205,89958058,-0.575428,0.0273766,-0.0105638,0.0,0.0,0.0,0.0,-1.0
90058257,90058112,-0.576281,0.0278652,-0.0101187,0.0,0.0,0.0,0.0,-1.0
90158277,90158086,-0.575303,0.027502,-0.0101597,0.0,0.0,0.0,0.0,-1.0
90262219,90262079,-0.575298,0.0274389,-0.0101273,0.0,0.0,0.0,0.0,-1.0
