timestamp,states[0],states[1],states[2],states[3],states[4],states[5],states[6],states[7],states[8],states[9],states[10],states[11],states[12],states[13],states[14],states[15],states[16],states[17],states[18],states[19],states[20],states[21],states[22],states[23],n_states,vibe[0],vibe[1],vibe[2],covariances[0],covariances[1],covariances[2],covariances[3],covariances[4],covariances[5],covariances[6],covariances[7],covariances[8],covariances[9],covariances[10],covariances[11],covariances[12],covariances[13],covariances[14],covariances[15],covariances[16],covariances[17],covariances[18],covariances[19],covariances[20],covariances[21],covariances[22],covariances[23],control_mode_flags,pos_horiz_accuracy,pos_vert_accuracy,mag_test_ratio,vel_test_ratio,pos_test_ratio,hgt_test_ratio,tas_test_ratio,hagl_test_ratio,beta_test_ratio,time_slip,gps_check_fail_flags,filter_fault_flags,innovation_check_flags,solution_status_flags,nan_flags,health_flags,timeout_flags,pre_flt_fail
2930402,1.0,0.0,0.0,0.0,0.0,0.0,0.0,0.0,0.0,0.0,0.0,0.0,0.0,0.0,0.0,0.0,0.0,0.0,0.0,0.0,0.0,0.0,0.0,0.0,0.0,1.81257e-10,6.78786e-06,0.000588612,0.0,0.0,0.0,0.0,0.0,0.0,0.0,0.0,0.0,0.0,0.0,0.0,0.0,0.0,0.0,0.0,0.0,0.0,0.0,0.0,0.0,0.0,0.0,0.0,512,0.0,0.0,0.0,0.0,0.0,0.0,0.0,0.0,0.0,0.0,0,0,0,164,0,0,0,0
3131943,1.0,0.0,0.0,0.0,0.0,0.0,0.0,0.0,0.0,0.0,0.0,0.0,0.0,0.0,0.0,0.0,0.0,0.0,0.0,0.0,0.0,0.0,0.0,0.0,0.0,2.24408e-10,8.42105e-06,0.000742131,0.0,0.0,0.0,0.0,0.0,0.0,0.0,0.0,0.0,0.0,0.0,0.0,0.0,0.0,0.0,0.0,0.0,0.0,0.0,0.0,0.0,0.0,0.0,0.0,512,0.0,0.0,0.0,0.0,0.0,0.0,0.0,0.0,0.0,0.0,0,0,0,164,0,0,0,0
3336847,1.0,0.0,0.0,0.0,0.0,0.0,0.0,0.0,0.0,0.0,0.0,0.0,0.0,0.0,0.0,0.0,0.0,0.0,0.0,0.0,0.0,0.0,0.0,0.0,0.0,2.60127e-10,9.76727e-06,0.00074087,0.0,0.0,0.0,0.0,0.0,0.0,0.0,0.0,0.0,0.0,0.0,0.0,0.0,0.0,0.0,0.0,0.0,0.0,0.0,0.0,0.0,0.0,0.0,0.0,512,0.0,0.0,0.0,0.0,0.0,0.0,0.0,0.0,0.0,0.0,0,0,0,164,0,0,0,0
3536969,0.697393,0.715951,0.0129058,0.0298458,-3.85499e-05,-0.00265415,-0.0113726,6.72445e-07,-8.25096e-05,0.0312533,6.11597e-09,-4.03472e-05,1.07889e-06,3.64916e-09,1.49055e-07,-3.5795e-09,0.341271,0.00166094,0.429337,0.0,0.0,0.0,0.0,0.0,0.0,2.7478e-10,1.01435e-05,0.000530881,0.00130252,0.00123353,0.00176995,0.0017839,13.6719,13.6735,0.56247,0.0908853,0.0908866,0.668781,6.4e-07,6.38829e-07,6.39999e-07,2.56e-06,2.56e-06,2.56e-06,0.0,0.0,0.0,0.0,0.0,0.0,0.0,0.0,530,0.0,0.0,0.233188,0.0,1.50418e-06,0.0432624,0.0,0.0,0.0,0.0,0,0,0,164,0,0,0,0
3736950,0.697151,0.71415,0.0351371,0.0523024,0.00244826,-0.00803277,-0.0275111,0.00013109,-0.000465207,0.0281246,8.47912e-08,-0.000194585,4.83243e-06,1.01918e-08,2.67646e-07,1.78852e-08,0.341271,0.00166094,0.429337,0.0,0.0,0.0,0.0,0.0,0.0,2.69567e-10,1.02605e-05,0.000456498,0.00141154,0.00134029,0.00166871,0.00169433,1.79424,1.80014,0.556486,0.0635299,0.0635506,0.28142,6.39982e-07,6.21326e-07,6.39971e-07,2.55982e-06,2.55992e-06,2.55982e-06,0.0,0.0,0.0,0.0,0.0,0.0,0.0,0.0,530,0.0,0.0,0.122685,0.0,9.21541e-06,0.00515026,0.0,0.0,0.0,0.0,0,0,0,164,0,0,0,0
3940988,0.697096,0.713001,0.0437549,0.0614152,0.00610352,-0.0145188,0.00790071,0.000450691,-0.00119222,0.121186,5.52828e-08,-0.000285421,6.96232e-06,-1.433e-07,-7.89262e-06,4.32661e-07,0.341271,0.00166094,0.429337,0.0,0.0,0.0,0.0,0.0,0.0,2.77328e-10,1.06731e-05,0.000386884,0.00160615,0.0015293,0.00178817,0.00181999,0.476838,0.489751,0.529202,0.0373093,0.0373988,0.194268,6.39497e-07,5.72973e-07,6.39461e-07,2.55861e-06,2.55898e-06,2.55861e-06,0.0,0.0,0.0,0.0,0.0,0.0,0.0,0.0,530,0.0,0.0,0.296643,0.0,2.58504e-05,0.020337,0.0,0.0,0.0,0.0,0,0,0,164,0,0,0,0
4145033,0.696882,0.712009,0.0510742,0.0692141,0.0116853,-0.0241078,0.00939768,0.00129757,-0.00282772,0.146755,-5.96661e-07,-0.000369093,8.94256e-06,3.30045e-08,-1.08091e-05,1.3637e-06,0.341271,0.00166094,0.429337,0.0,0.0,0.0,0.0,0.0,0.0,2.83938e-10,1.09683e-05,0.000309397,0.00185267,0.00176842,0.00205974,0.00209523,0.307476,0.330881,0.482698,0.0316968,0.0320588,0.181326,6.35885e-07,5.08062e-07,6.35783e-07,2.55437e-06,2.55564e-06,2.55442e-06,0.0,0.0,0.0,0.0,0.0,0.0,0.0,0.0,530,0.0,0.0,0.00607587,0.0,5.22419e-05,0.000390894,0.0,0.0,0.0,0.0,0,0,0,164,0,0,0,0
4344898,0.696302,0.711198,0.0585988,0.0769874,0.0171708,-0.0298683,0.0491823,0.002219,-0.0042281,0.20665,-3.61728e-06,-0.000450157,1.16748e-05,4.93633e-07,-2.73419e-05,4.38673e-06,0.341271,0.00166094,0.429337,0.0,0.0,0.0,0.0,0.0,0.0,2.9704e-10,1.11434e-05,0.000289954,0.00197666,0.00189111,0.00225783,0.00229186,0.299694,0.32624,0.411519,0.0265348,0.0271466,0.174779,6.18769e-07,4.29396e-07,6.18041e-07,2.54301e-06,2.54664e-06,2.54352e-06,0.0,0.0,0.0,0.0,0.0,0.0,0.0,0.0,530,0.0,0.0,0.00252213,0.0,8.95778e-05,0.00142353,0.0,0.0,0.0,0.0,0,0,0,164,0,0,0,0
4546547,0.695462,0.710951,0.0640351,0.0823408,0.0211186,-0.0319002,0.0420548,0.00326959,-0.00542978,0.220329,-9.94119e-06,-0.000471812,1.47648e-05,1.99949e-06,-2.92807e-05,8.4146e-06,0.341271,0.00166094,0.429337,0.0,0.0,0.0,0.0,0.0,0.0,3.03451e-10,1.10366e-05,0.000529862,0.00191671,0.00183673,0.00228829,0.0023163,0.344426,0.365408,0.344958,0.0279928,0.0287796,0.178531,5.80671e-07,3.50075e-07,5.77162e-07,2.52724e-06,2.53202e-06,2.52908e-06,0.0,0.0,0.0,0.0,0.0,0.0,0.0,0.0,530,0.0,0.0,0.000291604,0.0,0.000109936,0.0246809,0.0,0.0,0.0,0.0,0,0,0,164,0,0,0,0
4747457,0.694271,0.711028,0.0694036,0.0872349,0.019876,-0.0273325,0.095846,0.00345621,-0.00510286,0.30034,-1.94714e-05,-0.000486057,1.96982e-05,3.19004e-06,-6.36656e-05,1.38559e-05,0.341271,0.00166094,0.429337,0.0,0.0,0.0,0.0,0.0,0.0,3.05176e-10,1.08801e-05,0.000562013,0.00161674,0.00155029,0.00203351,0.0020519,0.334521,0.34274,0.277243,0.0273019,0.0277825,0.172551,5.15887e-07,2.72845e-07,5.05485e-07,2.51117e-06,2.50763e-06,2.51513e-06,0.0,0.0,0.0,0.0,0.0,0.0,0.0,0.0,530,0.0,0.0,0.00845045,0.0,0.000108317,0.0066809,0.0,0.0,0.0,0.0,0,0,0,164,0,0,0,0
4947295,0.693152,0.71106,0.0743526,0.0916855,0.0180888,-0.0212946,0.105394,0.00345502,-0.0046071,0.341969,-2.80509e-05,-0.00048929,2.43274e-05,4.22357e-06,-7.76701e-05,1.70484e-05,0.341271,0.00166094,0.429337,0.0,0.0,0.0,0.0,0.0,0.0,3.07489e-10,1.11898e-05,0.000451515,0.00137107,0.00131389,0.00179441,0.00180596,0.314789,0.316324,0.229669,0.0288041,0.0290234,0.171126,4.50834e-07,2.16861e-07,4.33439e-07,2.5032e-06,2.47809e-06,2.50848e-06,0.0,0.0,0.0,0.0,0.0,0.0,0.0,0.0,530,0.0,0.0,0.00704937,0.0,9.42322e-05,0.0109793,0.0,0.0,0.0,0.0,0,0,0,164,0,0,0,0
5151340,0.692357,0.711191,0.0773015,0.0942031,0.0147628,-0.0150712,0.0923083,0.00314985,-0.00370284,0.359592,-3.51621e-05,-0.000460114,2.77706e-05,5.02701e-06,-7.49245e-05,1.82902e-05,0.341271,0.00166094,0.429337,0.0,0.0,0.0,0.0,0.0,0.0,3.2868e-10,1.16708e-05,0.000362282,0.00117817,0.00112715,0.00157891,0.00158595,0.27969,0.27968,0.193423,0.0289094,0.0289537,0.167083,3.87383e-07,1.72644e-07,3.65373e-07,2.50056e-06,2.4406e-06,2.50629e-06,0.0,0.0,0.0,0.0,0.0,0.0,0.0,0.0,530,0.0,0.0,0.0355654,0.0,7.62154e-05,0.0212882,0.0,0.0,0.0,0.0,0,0,0,164,0,0,0,0
5355312,0.691741,0.711311,0.079463,0.0959998,0.01262,-0.0109258,0.100999,0.00265504,-0.00264682,0.403827,-4.07945e-05,-0.00042377,3.05486e-05,4.7186e-06,-9.50165e-05,1.91371e-05,0.341271,0.00166094,0.429337,0.0,0.0,0.0,0.0,0.0,0.0,3.35757e-10,1.17237e-05,0.000304202,0.00102007,0.000973251,0.00139344,0.00139723,0.236866,0.238313,0.163674,0.0266763,0.026676,0.157754,3.23294e-07,1.37872e-07,3.00087e-07,2.50024e-06,2.38951e-06,2.506e-06,0.0,0.0,0.0,0.0,0.0,0.0,0.0,0.0,530,0.0,0.0,0.0300487,0.0,5.60773e-05,0.017551,0.0,0.0,0.0,0.0,0,0,0,164,0,0,0,0
5559403,0.691166,0.711194,0.0823399,0.0985591,0.0107092,-0.00819111,0.0846608,0.0024206,-0.00212217,0.416633,-4.46932e-05,-0.000406526,3.29713e-05,4.65654e-06,-8.56759e-05,1.86002e-05,0.341271,0.00166094,0.429337,0.0,0.0,0.0,0.0,0.0,0.0,3.10215e-10,1.11725e-05,0.000286782,0.000932696,0.000887336,0.0012737,0.00127687,0.217383,0.221032,0.14629,0.0264975,0.0265417,0.152935,2.69825e-07,1.10449e-07,2.48397e-07,2.49974e-06,2.3342e-06,2.50558e-06,0.0,0.0,0.0,0.0,0.0,0.0,0.0,0.0,530,0.0,0.0,0.0240495,0.0,4.94665e-05,0.0315106,0.0,0.0,0.0,0.0,0,0,0,164,0,0,0,0
5759275,0.690921,0.71129,0.0830304,0.098997,0.00913709,-0.00575508,0.0598812,0.00218095,-0.00165901,0.415437,-4.74799e-05,-0.000365068,3.42916e-05,4.61828e-06,-6.92381e-05,1.76451e-05,0.341271,0.00166094,0.429337,0.0,0.0,0.0,0.0,0.0,0.0,3.01633e-10,1.07285e-05,0.000262277,0.000850075,0.000806407,0.00115507,0.00115831,0.202327,0.207885,0.134566,0.0262407,0.0263695,0.148397,2.19554e-07,8.76663e-08,2.0163e-07,2.49774e-06,2.26871e-06,2.50394e-06,0.0,0.0,0.0,0.0,0.0,0.0,0.0,0.0,530,0.0,0.0,0.0509768,0.0,4.45313e-05,0.00971979,0.0,0.0,0.0,0.0,0,0,0,164,0,0,0,0
5963418,0.690803,0.711461,0.0828966,0.0987028,0.00683489,-0.00334218,0.0375285,0.001753,-0.00105646,0.41292,-4.9521e-05,-0.000319421,3.53121e-05,4.29262e-06,-5.79238e-05,1.68059e-05,0.341271,0.00166094,0.429337,0.0,0.0,0.0,0.0,0.0,0.0,3.08971e-10,1.08418e-05,0.000250438,0.000738687,0.000698666,0.00103378,0.00103499,0.179677,0.185949,0.124746,0.0241968,0.0243862,0.140913,1.68742e-07,7.184e-08,1.55483e-07,2.49332e-06,2.18255e-06,2.50038e-06,0.0,0.0,0.0,0.0,0.0,0.0,0.0,0.0,530,0.0,0.0,0.048048,0.0,3.69804e-05,0.018114,0.0,0.0,0.0,0.0,0,0,0,164,0,0,0,0
6164876,0.690732,0.711535,0.0829499,0.0986225,0.00601651,-0.00398984,0.0233672,0.00153077,-0.000848877,0.41831,-5.06429e-05,-0.000284905,3.59944e-05,3.73438e-06,-5.78031e-05,1.64423e-05,0.341271,0.00166094,0.429337,0.0,0.0,0.0,0.0,0.0,0.0,3.02562e-10,1.04703e-05,0.000498485,0.000649579,0.000612865,0.000933975,0.000933959,0.167827,0.174185,0.119992,0.0238623,0.0241056,0.137701,1.29659e-07,5.93892e-08,1.20291e-07,2.48776e-06,2.09284e-06,2.49597e-06,0.0,0.0,0.0,0.0,0.0,0.0,0.0,0.0,530,0.0,0.0,0.0506954,0.0,3.22547e-05,0.0142172,0.0,0.0,0.0,0.0,0,0,0,164,0,0,0,0
6364860,0.690633,0.711628,0.0830145,0.0985946,0.00546866,-0.0040676,0.00828577,0.00136989,-0.000829694,0.418456,-5.14557e-05,-0.000255949,3.64479e-05,3.20219e-06,-5.85401e-05,1.61632e-05,0.341271,0.00166094,0.429337,0.0,0.0,0.0,0.0,0.0,0.0,2.92708e-10,1.0592e-05,0.000402941,0.000564229,0.000531054,0.000840704,0.000839312,0.157728,0.16363,0.117139,0.0239063,0.0241856,0.13571,9.79454e-08,4.96157e-08,9.16667e-08,2.48141e-06,1.99316e-06,2.49102e-06,0.0,0.0,0.0,0.0,0.0,0.0,0.0,0.0,530,0.0,0.0,0.0435583,0.0,2.78555e-05,0.00118506,0.0,0.0,0.0,0.0,0,0,0,164,0,0,0,0
6568981,0.690622,0.711776,0.0825204,0.0980107,0.00429338,-0.00233068,-0.0146278,0.00126,-0.00072765,0.405755,-5.19586e-05,-0.000225576,3.65807e-05,3.08849e-06,-4.41683e-05,1.55052e-05,0.341271,0.00166094,0.429337,0.0,0.0,0.0,0.0,0.0,0.0,3.01688e-10,1.10954e-05,0.000325581,0.000486391,0.000456834,0.000755511,0.00075276,0.147695,0.152825,0.115494,0.0240359,0.024329,0.134417,7.3254e-08,4.17927e-08,6.91926e-08,2.47495e-06,1.88528e-06,2.48607e-06,0.0,0.0,0.0,0.0,0.0,0.0,0.0,0.0,530,0.0,0.0,0.052473,0.0,2.50067e-05,0.0086556,0.0,0.0,0.0,0.0,0,0,0,164,0,0,0,0
6773035,0.690697,0.711925,0.0816566,0.0971224,0.00409471,-0.00184845,-0.00792015,0.00109059,-0.000538242,0.431005,-5.22388e-05,-0.000195957,3.66063e-05,1.36074e-06,-0.000101425,1.72236e-05,0.341271,0.00166094,0.429337,0.0,0.0,0.0,0.0,0.0,0.0,3.07851e-10,1.13677e-05,0.000303061,0.000400259,0.000375255,0.000657793,0.000653584,0.129729,0.133612,0.112658,0.0225596,0.0228068,0.130918,5.21758e-08,3.4783e-08,4.97803e-08,2.46801e-06,1.75547e-06,2.48085e-06,0.0,0.0,0.0,0.0,0.0,0.0,0.0,0.0,530,0.0,0.0,0.0592418,0.0,2.21715e-05,0.0112274,0.0,0.0,0.0,0.0,0,0,0,164,0,0,0,0
6976849,0.690578,0.711954,0.0820368,0.0974309,0.00382627,8.61651e-06,-0.00843494,0.00105166,-0.000353364,0.444845,-5.24616e-05,-0.00018153,3.6832e-05,2.94793e-07,-0.000132276,1.80978e-05,0.341271,0.00166094,0.429337,0.0,0.0,0.0,0.0,0.0,0.0,3.02783e-10,1.12361e-05,0.000287646,0.000339966,0.000318203,0.000590209,0.000584878,0.118701,0.121748,0.111435,0.0224763,0.0227018,0.13089,3.83606e-08,2.97838e-08,3.68935e-08,2.46251e-06,1.63304e-06,2.47676e-06,0.0,0.0,0.0,0.0,0.0,0.0,0.0,0.0,530,0.0,0.0,0.00407706,0.0,2.07186e-05,0.00388535,0.0,0.0,0.0,0.0,0,0,0,164,0,0,0,0
7177003,0.690615,0.712079,0.0813803,0.0968015,0.00267416,1.05323e-05,-0.0312199,0.000876128,-0.000111803,0.427514,-5.23182e-05,-0.000160431,3.6829e-05,2.56386e-07,-0.000117509,1.76923e-05,0.341271,0.00166094,0.429337,0.0,0.0,0.0,0.0,0.0,0.0,3.08539e-10,1.14741e-05,0.000307137,0.000278853,0.000260623,0.000522198,0.000515564,0.101097,0.103213,0.107591,0.0204177,0.0205834,0.126991,2.72273e-08,2.56705e-08,2.63862e-08,2.45729e-06,1.49302e-06,2.4729e-06,0.0,0.0,0.0,0.0,0.0,0.0,0.0,0.0,530,0.0,0.0,0.0328615,0.0,1.83322e-05,0.0281584,0.0,0.0,0.0,0.0,0,0,0,164,0,0,0,0
7376913,0.690607,0.712154,0.0811071,0.0965439,0.00281654,-0.000151414,-0.0239886,0.000803176,-8.59083e-05,0.448612,-5.21709e-05,-0.000145198,3.67987e-05,-1.28334e-06,-0.000174841,1.96821e-05,0.341271,0.00166094,0.429337,0.0,0.0,0.0,0.0,0.0,0.0,3.03002e-10,1.12326e-05,0.000286867,0.000239577,0.000223665,0.000474755,0.000467498,0.0920057,0.0936174,0.105635,0.0203143,0.0204588,0.127603,2.0161e-08,2.22733e-08,1.96474e-08,2.45345e-06,1.36745e-06,2.47007e-06,0.0,0.0,0.0,0.0,0.0,0.0,0.0,0.0,530,0.0,0.0,0.0275003,0.0,1.62751e-05,0.0044208,0.0,0.0,0.0,0.0,0,0,0,164,0,0,0,0
7581007,0.690591,0.712215,0.0809156,0.0963673,0.00239995,0.0018181,-0.0415151,0.000750298,0.000115878,0.432304,-5.19521e-05,-0.000131624,3.67621e-05,-1.36077e-06,-0.000166482,1.9523e-05,0.341271,0.00166094,0.429337,0.0,0.0,0.0,0.0,0.0,0.0,3.07158e-10,1.12324e-05,0.000280422,0.000205202,0.000191396,0.000433746,0.000425871,0.0825178,0.0837006,0.103239,0.0201004,0.0202205,0.129053,1.47429e-08,1.94409e-08,1.44375e-08,2.45008e-06,1.2399e-06,2.46759e-06,0.0,0.0,0.0,0.0,0.0,0.0,0.0,0.0,530,0.0,0.0,0.0431293,0.0,1.52235e-05,0.0103924,0.0,0.0,0.0,0.0,0,0,0,164,0,0,0,0
7782522,0.690792,0.712372,0.0794582,0.0949669,0.00249769,0.00257579,-0.0240747,0.000714958,0.000406456,0.464383,-5.14999e-05,-0.000111244,3.64848e-05,-3.41013e-06,-0.00024879,2.2612e-05,0.341271,0.00166094,0.429337,0.0,0.0,0.0,0.0,0.0,0.0,3.12407e-10,1.09152e-05,0.000428879,0.000177732,0.000165701,0.000398294,0.000390106,0.0732718,0.0741355,0.0995733,0.0193823,0.0194784,0.128796,1.09449e-08,1.70603e-08,1.07592e-08,2.44742e-06,1.11726e-06,2.4656e-06,0.0,0.0,0.0,0.0,0.0,0.0,0.0,0.0,530,0.0,0.0,0.0409834,0.0,1.44279e-05,0.037625,0.0,0.0,0.0,0.0,0,0,0,164,0,0,0,0
7982613,0.69083,0.712386,0.0792535,0.0947559,0.00294451,0.00222486,-0.0483563,0.000727071,0.000573739,0.436785,-5.11359e-05,-0.000100806,3.64743e-05,-3.06453e-06,-0.000219401,2.18133e-05,0.341271,0.00166094,0.429337,0.0,0.0,0.0,0.0,0.0,0.0,2.98933e-10,1.06057e-05,0.000336069,0.000153266,0.000142872,0.000362134,0.000353961,0.0629447,0.0635455,0.0936934,0.0177333,0.0178032,0.124957,8.04258e-09,1.48458e-08,7.93185e-09,2.44512e-06,9.91372e-07,2.46385e-06,0.0,0.0,0.0,0.0,0.0,0.0,0.0,0.0,530,0.0,0.0,0.0265393,0.0,1.50979e-05,0.029094,0.0,0.0,0.0,0.0,0,0,0,164,0,0,0,0
8186510,0.690804,0.712352,0.0795044,0.0949887,0.00255184,0.00244635,-0.0452434,0.000777981,0.000652435,0.443792,-5.08947e-05,-9.46798e-05,3.65438e-05,-4.03381e-06,-0.000252511,2.30914e-05,0.341271,0.00166094,0.429337,0.0,0.0,0.0,0.0,0.0,0.0,3.10377e-10,1.09645e-05,0.000311892,0.000137345,0.000128007,0.000343486,0.000334999,0.0570138,0.057468,0.089601,0.0173875,0.0174459,0.124674,6.14412e-09,1.33822e-08,6.07391e-09,2.44339e-06,8.86631e-07,2.46251e-06,0.0,0.0,0.0,0.0,0.0,0.0,0.0,0.0,530,0.0,0.0,0.0566694,0.0,1.56926e-05,0.0222322,0.0,0.0,0.0,0.0,0,0,0,164,0,0,0,0
8390523,0.690978,0.712511,0.0781251,0.0936745,0.00207197,0.00225479,-0.0465307,0.000725958,0.000684021,0.445535,-5.04083e-05,-7.86882e-05,3.63356e-05,-5.07115e-06,-0.000285957,2.45842e-05,0.349282,2.01133e-08,0.42193,0.0,0.0,0.0,0.0,0.0,0.0,3.11287e-10,1.11393e-05,0.000298,0.000122321,0.000114023,0.00031881,0.000310469,0.0500156,0.0503416,0.0839984,0.016346,0.0163906,0.121799,4.60954e-09,1.17658e-08,4.56649e-09,2.44179e-06,7.80886e-07,2.46123e-06,0.0,0.0,0.0,0.0,0.0,0.0,0.0,0.0,531,0.180933,0.348997,0.0648665,0.0,1.5019e-05,0.00836875,0.0,0.0,0.0,-2e-05,0,0,0,165,0,0,0,0
8592179,0.690999,0.712563,0.07779,0.0933994,0.0023582,0.00279415,-0.0383787,0.000715565,0.000758134,0.46043,-5.01333e-05,-7.0885e-05,3.62947e-05,-6.26372e-06,-0.00033064,2.63197e-05,0.349282,2.01133e-08,0.42193,0.0,0.0,0.0,0.0,0.0,0.0,3.08488e-10,1.1237e-05,0.000601015,0.000112044,0.000104454,0.000302189,0.000293921,0.0456191,0.0458693,0.0796912,0.0160795,0.0161171,0.12123,3.59056e-09,1.05388e-08,3.56252e-09,2.44057e-06,6.95171e-07,2.46023e-06,0.0,0.0,0.0,0.0,0.0,0.0,0.0,0.0,531,0.179434,0.348181,0.0109951,0.0,1.5662e-05,0.0117201,0.0,0.0,0.0,3.5e-05,0,0,0,165,0,0,0,0
8796201,0.691096,0.712633,0.0770888,0.0927275,0.00245351,0.00296666,-0.0334052,0.000797639,0.000876543,0.469299,-4.98195e-05,-6.15016e-05,3.61942e-05,-7.28449e-06,-0.00036671,2.77924e-05,0.349282,2.01133e-08,0.42193,0.0,0.0,0.0,0.0,0.0,0.0,2.90198e-10,1.0655e-05,0.000654687,0.00010375,9.67573e-05,0.000287887,0.000279749,0.0420002,0.0421946,0.0754635,0.0159605,0.0159929,0.120872,2.8294e-09,9.47645e-09,2.81083e-09,2.43953e-06,6.18759e-07,2.45935e-06,0.0,0.0,0.0,0.0,0.0,0.0,0.0,0.0,531,0.178755,0.347666,0.045467,0.0,1.70593e-05,0.0194596,0.0,0.0,0.0,5.8e-05,0,0,0,165,0,0,0,0
8997878,0.691218,0.712698,0.0763157,0.0919531,0.00381262,0.00334175,-0.0373725,0.000884992,0.000928623,0.464107,-4.9496e-05,-5.25071e-05,3.61155e-05,-7.89797e-06,-0.000380844,2.84813e-05,0.349282,2.01133e-08,0.42193,0.0,0.0,0.0,0.0,0.0,0.0,2.9301e-10,1.09747e-05,0.00075143,9.55259e-05,8.91412e-05,0.000274045,0.000266014,0.0368187,0.0369598,0.069763,0.0147913,0.0148156,0.116523,2.18806e-09,8.55118e-09,2.17625e-09,2.4385e-06,5.43404e-07,2.45844e-06,0.0,0.0,0.0,0.0,0.0,0.0,0.0,0.0,531,0.172066,0.341354,0.0436439,0.0,1.91778e-05,0.0233853,0.0,0.0,0.0,9.3e-05,0,0,0,165,0,0,0,0
9201705,0.691253,0.712718,0.0761103,0.0917001,0.00492984,0.00358919,-0.0478435,0.00119634,0.0011231,0.447273,-4.92637e-05,-4.69718e-05,3.61242e-05,-8.1251e-06,-0.000376581,2.84139e-05,0.349282,2.01133e-08,0.42193,0.0,0.0,0.0,0.0,0.0,0.0,2.83885e-10,1.07654e-05,0.000563192,9.00495e-05,8.40743e-05,0.000263897,0.000256003,0.0343288,0.0344404,0.0660455,0.0149253,0.0149468,0.116933,1.74827e-09,7.74311e-09,1.74035e-09,2.43764e-06,4.83338e-07,2.45766e-06,0.0,0.0,0.0,0.0,0.0,0.0,0.0,0.0,531,0.172836,0.341954,0.0177968,0.0,2.38548e-05,0.00442671,0.0,0.0,0.0,-1e-06,0,0,0,165,0,0,0,0
9401703,0.691297,0.71275,0.075823,0.0913574,0.00511443,0.00488645,-0.0351706,0.00144466,0.00129483,0.46652,-4.90374e-05,-4.15432e-05,3.61712e-05,-9.39015e-06,-0.000420353,3.00276e-05,0.349282,2.01133e-08,0.42193,0.0,0.0,0.0,0.0,0.0,0.0,2.86641e-10,1.08726e-05,0.000453197,8.4537e-05,7.89797e-05,0.000253272,0.000245533,0.0303913,0.030474,0.0609048,0.0139077,0.013924,0.112587,1.37957e-09,7.03278e-09,1.37445e-09,2.43675e-06,4.25224e-07,2.45683e-06,0.0,0.0,0.0,0.0,0.0,0.0,0.0,0.0,531,0.166828,0.33554,0.00644723,0.0,2.97324e-05,0.0025121,0.0,0.0,0.0,-2.6e-05,0,0,0,165,0,0,0,0
9605771,0.691291,0.712745,0.0758852,0.0913871,0.00521856,0.00538038,-0.0402906,0.00165298,0.00155875,0.45544,-4.88632e-05,-3.85328e-05,3.62702e-05,-9.76688e-06,-0.000420142,2.99737e-05,0.349282,2.01133e-08,0.42193,0.0,0.0,0.0,0.0,0.0,0.0,2.90866e-10,1.11418e-05,0.000354707,8.0733e-05,7.54704e-05,0.000244586,0.000237047,0.0281828,0.0282489,0.0572963,0.0137529,0.013767,0.111517,1.12404e-09,6.40684e-09,1.12056e-09,2.43598e-06,3.79421e-07,2.4561e-06,0.0,0.0,0.0,0.0,0.0,0.0,0.0,0.0,531,0.165891,0.333941,0.058152,0.0,3.31271e-05,0.00939514,0.0,0.0,0.0,3.5e-05,0,0,0,165,0,0,0,0
9805767,0.691231,0.712689,0.0764092,0.091842,0.00483777,0.00698469,-0.0263566,0.00187014,0.00198645,0.477112,-4.8754e-05,-3.78742e-05,3.64184e-05,-1.0802e-05,-0.000455351,3.11236e-05,0.349282,2.01133e-08,0.42193,0.0,0.0,0.0,0.0,0.0,0.0,3.13841e-10,1.15786e-05,0.000297697,7.79401e-05,7.29009e-05,0.000237124,0.000229807,0.0269871,0.0270424,0.0547988,0.0142023,0.0142155,0.113122,9.36818e-10,5.85271e-09,9.34376e-10,2.4353e-06,3.42602e-07,2.45543e-06,0.0,0.0,0.0,0.0,0.0,0.0,0.0,0.0,531,0.168576,0.336337,0.0273053,0.0,3.85804e-05,0.018813,0.0,0.0,0.0,3.7e-05,0,0,0,165,0,0,0,0
10009856,0.69128,0.712718,0.0761341,0.0914732,0.00383552,0.00876027,-0.0456204,0.00178213,0.0025716,0.44328,-4.84917e-05,-3.31005e-05,3.64725e-05,-1.09292e-05,-0.00043269,3.02702e-05,0.349282,2.01133e-08,0.42193,0.0,0.0,0.0,0.0,0.0,0.0,3.00282e-10,1.13047e-05,0.000256517,7.48217e-05,7.00393e-05,0.000227875,0.000220867,0.0247758,0.024819,0.0513337,0.0138979,0.0139089,0.111949,7.62678e-10,5.30284e-09,7.61073e-10,2.43452e-06,3.05067e-07,2.45465e-06,0.0,0.0,0.0,0.0,0.0,0.0,0.0,0.0,531,0.166754,0.334588,0.0309753,0.0,5.1456e-05,0.00482968,0.0,0.0,0.0,0.00015,0,0,0,165,0,0,0,0
10213726,0.691346,0.712701,0.0759701,0.0912555,0.00270228,0.00855029,-0.0407865,0.00163445,0.00295078,0.447798,-4.82447e-05,-2.93648e-05,3.6533e-05,-1.1892e-05,-0.000453016,3.09555e-05,0.349282,2.01133e-08,0.42193,0.0,0.0,0.0,0.0,0.0,0.0,2.85898e-10,1.10019e-05,0.000239838,7.22428e-05,6.7676e-05,0.000221252,0.000214454,0.0226456,0.0226794,0.0478548,0.0133791,0.0133881,0.109601,6.28007e-10,4.87207e-09,6.2696e-10,2.43377e-06,2.7234e-07,2.45389e-06,0.0,0.0,0.0,0.0,0.0,0.0,0.0,0.0,531,0.163607,0.33106,0.00164996,0.0,5.7774e-05,0.0217533,0.0,0.0,0.0,-1.8e-05,0,0,0,165,0,0,0,0
10416089,0.69138,0.712718,0.0757577,0.0910301,0.0021874,0.00839319,-0.0337113,0.00133082,0.00308821,0.4581,-4.79881e-05,-2.58739e-05,3.65834e-05,-1.29854e-05,-0.000477279,3.17778e-05,0.349282,2.01133e-08,0.42193,0.0,0.0,0.0,0.0,0.0,0.0,2.99042e-10,1.1124e-05,0.000631364,6.98537e-05,6.54735e-05,0.000215029,0.000208416,0.0202495,0.0202752,0.0438949,0.0123921,0.012399,0.104701,5.15116e-10,4.48676e-09,5.14471e-10,2.43298e-06,2.41411e-07,2.45308e-06,0.0,0.0,0.0,0.0,0.0,0.0,0.0,0.0,531,0.157452,0.323576,0.0294304,0.0,6.33621e-05,0.00533647,0.0,0.0,0.0,-5.1e-05,0,0,0,165,0,0,0,0
10620248,0.691449,0.712676,0.075652,0.0909291,0.000891807,0.00779364,-0.0406453,0.00106874,0.0031921,0.443273,-4.7748e-05,-2.3009e-05,3.66212e-05,-1.36203e-05,-0.000475112,3.16588e-05,0.349282,2.01133e-08,0.42193,0.0,0.0,0.0,0.0,0.0,0.0,2.95058e-10,1.13512e-05,0.000552091,6.79135e-05,6.37083e-05,0.000208003,0.000201687,0.0185585,0.0185784,0.040564,0.0118492,0.0118548,0.101395,4.27672e-10,4.10088e-09,4.27284e-10,2.4322e-06,2.14865e-07,2.45227e-06,0.0,0.0,0.0,0.0,0.0,0.0,0.0,0.0,531,0.153961,0.318425,0.00755094,0.0,6.54419e-05,0.0253801,0.0,0.0,0.0,7.3e-05,0,0,0,165,0,0,0,0
10820240,0.691435,0.712638,0.0758758,0.0911466,0.000756185,0.00746775,-0.0394779,0.000815113,0.00333053,0.442745,-4.75771e-05,-2.18365e-05,3.66702e-05,-1.43528e-05,-0.000483602,3.19055e-05,0.349282,2.01133e-08,0.42193,0.0,0.0,0.0,0.0,0.0,0.0,2.93048e-10,1.1755e-05,0.00055312,6.65515e-05,6.24585e-05,0.000203214,0.000197087,0.0175077,0.0175243,0.0381249,0.0117024,0.0117073,0.0997749,3.65005e-10,3.7939e-09,3.64774e-10,2.43148e-06,1.94223e-07,2.45153e-06,0.0,0.0,0.0,0.0,0.0,0.0,0.0,0.0,531,0.153002,0.315872,0.00294243,0.0,6.6956e-05,0.0222748,0.0,0.0,0.0,6.6e-05,0,0,0,165,0,0,0,0
11020202,0.691431,0.712612,0.0760331,0.0912476,0.000326719,0.00639803,-0.0328762,0.000657505,0.00329213,0.45292,-4.74117e-05,-2.03853e-05,3.66959e-05,-1.52448e-05,-0.000501511,3.25032e-05,0.349282,2.01133e-08,0.42193,0.0,0.0,0.0,0.0,0.0,0.0,3.0806e-10,1.20627e-05,0.00057844,6.54223e-05,6.14178e-05,0.000200539,0.000194488,0.0165727,0.0165866,0.0358921,0.0115826,0.011587,0.0982491,3.13624e-10,3.54977e-09,3.13507e-10,2.43075e-06,1.76233e-07,2.45076e-06,0.0,0.0,0.0,0.0,0.0,0.0,0.0,0.0,531,0.152215,0.313447,0.0042657,0.0,6.63441e-05,0.00042201,0.0,0.0,0.0,2.3e-05,0,0,0,165,0,0,0,0
11224248,0.691432,0.712598,0.0760891,0.0913013,7.14157e-06,0.00432837,-0.0438204,0.000482364,0.00309151,0.427251,-4.72524e-05,-1.87206e-05,3.67024e-05,-1.56425e-05,-0.000489572,3.20887e-05,0.349282,2.01133e-08,0.42193,0.0,0.0,0.0,0.0,0.0,0.0,2.93819e-10,1.11956e-05,0.000569334,6.43698e-05,6.04542e-05,0.000196169,0.000190298,0.0157106,0.0157223,0.033828,0.0114648,0.0114687,0.0967573,2.70963e-10,3.29314e-09,2.70924e-10,2.42999e-06,1.60265e-07,2.44997e-06,0.0,0.0,0.0,0.0,0.0,0.0,0.0,0.0,531,0.151438,0.311058,0.0159867,0.0,6.1802e-05,0.00214985,0.0,0.0,0.0,0.000111,0,0,0,165,0,0,0,0
11428205,0.691461,0.712555,0.0761223,0.0913939,-0.000414931,0.00407822,-0.0338042,0.000233588,0.00271715,0.442592,-4.71059e-05,-1.70206e-05,3.66975e-05,-1.65736e-05,-0.000511914,3.28521e-05,0.349282,2.01133e-08,0.42193,0.0,0.0,0.0,0.0,0.0,0.0,2.99854e-10,1.15357e-05,0.000528043,6.32626e-05,5.94511e-05,0.000190748,0.000185123,0.0145885,0.0145981,0.0315016,0.0110306,0.0110338,0.0938333,2.31856e-10,3.03434e-09,2.31878e-10,2.42913e-06,1.44684e-07,2.44908e-06,0.0,0.0,0.0,0.0,0.0,0.0,0.0,0.0,531,0.148541,0.306322,0.0100952,0.0,5.48966e-05,0.00365544,0.0,0.0,0.0,6.1e-05,0,0,0,165,0,0,0,0
11629818,0.691493,0.71255,0.0760415,0.0912559,-0.000890814,0.00387723,-0.0298898,6.93576e-05,0.00248641,0.448696,-4.69768e-05,-1.49983e-05,3.6668e-05,-1.72835e-05,-0.000525386,3.33561e-05,0.349282,2.01133e-08,0.42193,0.0,0.0,0.0,0.0,0.0,0.0,2.97462e-10,1.16136e-05,0.000739534,6.24997e-05,5.87539e-05,0.000188574,0.000183019,0.0138745,0.0138826,0.0297628,0.010919,0.0109219,0.0924456,2.02648e-10,2.85144e-09,2.02711e-10,2.42834e-06,1.32428e-07,2.44826e-06,0.0,0.0,0.0,0.0,0.0,0.0,0.0,0.0,531,0.147787,0.304049,0.0009378,0.0,4.95633e-05,0.0131142,0.0,0.0,0.0,6.8e-05,0,0,0,165,0,0,0,0
11830616,0.691498,0.712486,0.0763143,0.0914905,-0.0017049,0.0038021,-0.0212818,-0.000187429,0.00226197,0.462333,-4.68872e-05,-1.44173e-05,3.66689e-05,-1.79656e-05,-0.000540606,3.38725e-05,0.349282,2.01133e-08,0.42193,0.0,0.0,0.0,0.0,0.0,0.0,3.23985e-10,1.31692e-05,0.000657886,6.15974e-05,5.79466e-05,0.000183363,0.000178056,0.0128501,0.0128565,0.0276959,0.0103981,0.0104004,0.0892331,1.75587e-10,2.63719e-09,1.7568e-10,2.42746e-06,1.20292e-07,2.44734e-06,0.0,0.0,0.0,0.0,0.0,0.0,0.0,0.0,531,0.144217,0.298719,0.0272795,0.0,4.61918e-05,0.0202959,0.0,0.0,0.0,7.2e-05,0,0,0,165,0,0,0,0
12031452,0.691473,0.712465,0.076525,0.0916637,-0.00245885,0.00369695,-0.0263373,-0.000519908,0.00225564,0.447978,-4.68111e-05,-1.36454e-05,3.66524e-05,-1.82829e-05,-0.000535504,3.37971e-05,0.349282,2.01133e-08,0.42193,0.0,0.0,0.0,0.0,0.0,0.0,3.24336e-10,1.30314e-05,0.000623981,6.1073e-05,5.74708e-05,0.00018018,0.000175016,0.0125935,0.0125992,0.0266289,0.0106973,0.0106996,0.0898272,1.57043e-10,2.46505e-09,1.5715e-10,2.42672e-06,1.11514e-07,2.44657e-06,0.0,0.0,0.0,0.0,0.0,0.0,0.0,0.0,531,0.146277,0.299712,0.00866434,0.0,4.55031e-05,0.0130087,0.0,0.0,0.0,0.000146,0,0,0,165,0,0,0,0
12231348,0.69147,0.712468,0.0764838,0.0916959,-0.00174583,0.00384629,-0.0137185,-0.000711812,0.00220482,0.473963,-4.67211e-05,-1.20633e-05,3.66083e-05,-1.90022e-05,-0.000559499,3.46936e-05,0.349282,2.01133e-08,0.42193,0.0,0.0,0.0,0.0,0.0,0.0,3.03593e-10,1.20284e-05,0.000491005,6.05683e-05,5.70077e-05,0.000177144,0.000172111,0.0122707,0.0122757,0.0255606,0.0109157,0.0109178,0.090203,1.40587e-10,2.30794e-09,1.40703e-10,2.42594e-06,1.03453e-07,2.44577e-06,0.0,0.0,0.0,0.0,0.0,0.0,0.0,0.0,531,0.147762,0.300338,0.0350098,0.0,4.38636e-05,0.00751094,0.0,0.0,0.0,-1e-05,0,0,0,165,0,0,0,0
12435278,0.691458,0.712416,0.0767364,0.0919804,-0.00169862,0.00446447,-0.0153153,-0.000771916,0.00222044,0.46761,-4.66569e-05,-1.16816e-05,3.6593e-05,-1.93911e-05,-0.000558109,3.47927e-05,0.349282,2.01133e-08,0.42193,0.0,0.0,0.0,0.0,0.0,0.0,3.04227e-10,1.14368e-05,0.000405423,5.99948e-05,5.64893e-05,0.000174144,0.000169242,0.0115792,0.0115835,0.0241357,0.0106219,0.0106237,0.0883885,1.24742e-10,2.16385e-09,1.24867e-10,2.42506e-06,9.53335e-08,2.44485e-06,0.0,0.0,0.0,0.0,0.0,0.0,0.0,0.0,531,0.145759,0.297302,0.0206784,0.0,4.39117e-05,0.0321,0.0,0.0,0.0,-5.2e-05,0,0,0,165,0,0,0,0
12637848,0.691467,0.71241,0.076715,0.091982,-0.00111245,0.00417699,-0.00944287,-0.000746241,0.00217345,0.479005,-4.65655e-05,-1.02179e-05,3.65483e-05,-2.00265e-05,-0.000570092,3.53433e-05,0.349282,2.01133e-08,0.42193,0.0,0.0,0.0,0.0,0.0,0.0,3.16038e-10,1.13533e-05,0.000584046,5.94171e-05,5.59628e-05,0.000171232,0.000166451,0.0106941,0.0106976,0.022489,0.00997097,0.00997243,0.0848501,1.10309e-10,2.03148e-09,1.10439e-10,2.42412e-06,8.74475e-08,2.44388e-06,0.0,0.0,0.0,0.0,0.0,0.0,0.0,0.0,531,0.141221,0.29129,0.0316457,0.0,4.43549e-05,0.0097883,0.0,0.0,0.0,9.6e-05,0,0,0,165,0,0,0,0
12841802,0.69149,0.712452,0.0764231,0.0917261,-0.000364347,0.00400861,-0.00692104,-0.000648879,0.00230418,0.483701,-4.64627e-05,-7.93517e-06,3.64839e-05,-2.06328e-05,-0.000579324,3.58273e-05,0.349282,2.01133e-08,0.42193,0.0,0.0,0.0,0.0,0.0,0.0,3.14546e-10,1.1925e-05,0.000434083,5.90275e-05,5.56035e-05,0.000168886,0.000164202,0.0103623,0.0103653,0.021418,0.00998224,0.00998358,0.0840984,9.95459e-11,1.90979e-09,9.96773e-11,2.42329e-06,8.11226e-08,2.44302e-06,0.0,0.0,0.0,0.0,0.0,0.0,0.0,0.0,531,0.1413,0.289997,0.0189142,0.0,4.56691e-05,0.0353334,0.0,0.0,0.0,7.3e-05,0,0,0,165,0,0,0,0
13041657,0.691509,0.7124,0.0765895,0.09184,-0.00021258,0.0035523,-0.00413027,-0.000482522,0.00218482,0.489558,-4.63995e-05,-7.2512e-06,3.64651e-05,-2.1151e-05,-0.000584876,3.61041e-05,0.349282,2.01133e-08,0.42193,0.0,0.0,0.0,0.0,0.0,0.0,3.06217e-10,1.19188e-05,0.000335714,5.85451e-05,5.51818e-05,0.000165133,0.000160644,0.00971961,0.00972218,0.020076,0.00948681,0.00948792,0.0810329,8.94946e-11,1.78421e-09,8.96247e-11,2.4224e-06,7.48889e-08,2.4421e-06,0.0,0.0,0.0,0.0,0.0,0.0,0.0,0.0,531,0.137749,0.284663,0.0056727,0.0,4.45468e-05,0.00444343,0.0,0.0,0.0,-5e-05,0,0,0,165,0,0,0,0
13244140,0.691492,0.712371,0.0767807,0.0920361,0.000292328,0.00273314,0.00390948,-0.000340059,0.00205795,0.508638,-4.63512e-05,-6.73739e-06,3.6453e-05,-2.16397e-05,-0.00059665,3.64693e-05,0.349282,2.01133e-08,0.42193,0.0,0.0,0.0,0.0,0.0,0.0,2.95494e-10,1.14586e-05,0.000588177,5.82201e-05,5.48902e-05,0.000162764,0.000158386,0.00942481,0.00942712,0.0191467,0.00942303,0.00942405,0.0798688,8.18172e-11,1.68168e-09,8.19453e-11,2.4216e-06,6.99027e-08,2.44127e-06,0.0,0.0,0.0,0.0,0.0,0.0,0.0,0.0,531,0.137285,0.282611,0.0209376,0.0,4.1442e-05,0.00175239,0.0,0.0,0.0,3e-06,0,0,0,165,0,0,0,0
13448098,0.691579,0.712396,0.0763024,0.09159,0.000300396,0.0011524,0.00224268,-0.000196732,0.00180892,0.503137,-4.62545e-05,-4.07237e-06,3.63845e-05,-2.21696e-05,-0.000599778,3.678e-05,0.349282,2.01133e-08,0.42193,0.0,0.0,0.0,0.0,0.0,0.0,2.92225e-10,1.08392e-05,0.000565956,5.792e-05,5.46263e-05,0.000160494,0.00015623,0.009165,0.00916704,0.0182917,0.00938271,0.00938365,0.0788177,7.51271e-11,1.58689e-09,7.52525e-11,2.4208e-06,6.54067e-08,2.44045e-06,0.0,0.0,0.0,0.0,0.0,0.0,0.0,0.0,531,0.13699,0.280745,0.0466949,0.0,3.66869e-05,0.0356263,0.0,0.0,0.0,-2.4e-05,0,0,0,165,0,0,0,0
13648216,0.691617,0.712426,0.0760077,0.0913077,8.39026e-05,0.00114827,0.00838261,-9.81055e-05,0.00145438,0.517428,-4.61808e-05,-2.05549e-06,3.63341e-05,-2.26572e-05,-0.000611636,3.7187e-05,0.349282,2.01133e-08,0.42193,0.0,0.0,0.0,0.0,0.0,0.0,2.8726e-10,1.05412e-05,0.00050564,5.76251e-05,5.4361e-05,0.00015831,0.000154145,0.0088455,0.00884734,0.017462,0.00925247,0.00925331,0.0775469,6.90667e-11,1.49918e-09,6.91893e-11,2.41997e-06,6.12791e-08,2.4396e-06,0.0,0.0,0.0,0.0,0.0,0.0,0.0,0.0,531,0.136036,0.278472,0.0777217,0.0,2.96239e-05,0.0276455,0.0,0.0,0.0,8.1e-05,0,0,0,165,0,0,0,0
13849022,0.691653,0.712432,0.0758665,0.0911073,-0.000231876,0.00197063,0.0124478,-7.61722e-05,0.00134119,0.52582,-4.61239e-05,-5.14509e-07,3.62962e-05,-2.30432e-05,-0.000618463,3.74613e-05,0.349282,2.01133e-08,0.42193,0.0,0.0,0.0,0.0,0.0,0.0,3.01953e-10,1.08198e-05,0.000576315,5.73558e-05,5.41248e-05,0.000156218,0.000152155,0.00857434,0.00857599,0.0167017,0.00915033,0.0091511,0.0763639,6.38339e-11,1.41781e-09,6.39532e-11,2.41916e-06,5.75535e-08,2.43876e-06,0.0,0.0,0.0,0.0,0.0,0.0,0.0,0.0,531,0.135283,0.27634,0.0158753,0.0,2.70081e-05,0.0208171,0.0,0.0,0.0,8.5e-05,0,0,0,165,0,0,0,0
14052959,0.691685,0.712386,0.075897,0.0912002,-0.00055402,0.000796913,0.0167038,-0.000124365,0.00112593,0.53836,-4.60907e-05,1.8421e-07,3.62802e-05,-2.33318e-05,-0.000624805,3.76293e-05,0.349282,2.01133e-08,0.42193,0.0,0.0,0.0,0.0,0.0,0.0,3.03061e-10,1.08896e-05,0.000425083,5.71208e-05,5.39231e-05,0.000154429,0.000150456,0.00840193,0.00840341,0.0160473,0.00918165,0.00918237,0.0757362,5.92425e-11,1.34196e-09,5.9358e-11,2.41835e-06,5.4167e-08,2.43793e-06,0.0,0.0,0.0,0.0,0.0,0.0,0.0,0.0,531,0.135514,0.275202,0.0184128,0.0,2.27272e-05,0.00820768,0.0,0.0,0.0,4.3e-05,0,0,0,165,0,0,0,0
14252884,0.691738,0.712382,0.0756786,0.0910124,-0.000411776,0.000656045,0.00960456,-0.000159114,0.000938846,0.518252,-4.60445e-05,1.51727e-06,3.62454e-05,-2.35977e-05,-0.00061777,3.77049e-05,0.349282,2.01133e-08,0.42193,0.0,0.0,0.0,0.0,0.0,0.0,3.15169e-10,1.15993e-05,0.000376522,5.68862e-05,5.372e-05,0.000152474,0.000148598,0.00816669,0.00816805,0.0153848,0.00907996,0.00908063,0.0745965,5.51747e-11,1.27147e-09,5.52862e-11,2.41754e-06,5.10787e-08,2.4371e-06,0.0,0.0,0.0,0.0,0.0,0.0,0.0,0.0,531,0.134761,0.273124,0.0196947,0.0,1.88856e-05,0.0371137,0.0,0.0,0.0,-4.5e-05,0,0,0,165,0,0,0,0
14456965,0.691731,0.712383,0.0757055,0.0910392,-0.000158737,-1.43475e-05,0.011561,-0.000158193,0.000771166,0.524035,-4.60172e-05,2.21787e-06,3.62271e-05,-2.38061e-05,-0.000621235,3.78356e-05,0.349282,2.01133e-08,0.42193,0.0,0.0,0.0,0.0,0.0,0.0,3.06285e-10,1.12647e-05,0.000333033,5.67014e-05,5.35516e-05,0.000151473,0.000147633,0.0079589,0.00796015,0.0147716,0.00899104,0.00899166,0.0735131,5.15926e-11,1.21365e-09,5.17007e-11,2.41673e-06,5e-08,2.43627e-06,0.0,0.0,0.0,0.0,0.0,0.0,0.0,0.0,531,0.1341,0.271133,0.016803,0.0,1.56589e-05,0.00524348,0.0,0.0,0.0,2.9e-05,0,0,0,165,0,0,0,0
14656893,0.691919,0.71251,0.0743509,0.0897228,-0.000569301,-0.00123557,0.0197303,-0.000150304,0.000436792,0.546615,-4.58935e-05,6.93542e-06,3.61004e-05,-2.43334e-05,-0.000641729,3.85676e-05,0.349282,2.01133e-08,0.42193,0.0,0.0,0.0,0.0,0.0,0.0,2.99503e-10,1.10961e-05,0.000283213,5.64682e-05,5.33527e-05,0.000148773,0.000145076,0.00774154,0.00774267,0.0141905,0.0088743,0.00887486,0.0723954,4.83448e-11,1.14447e-09,4.8448e-11,2.41591e-06,5e-08,2.43543e-06,0.0,0.0,0.0,0.0,0.0,0.0,0.0,0.0,531,0.133226,0.269064,0.00308649,0.0,8.90628e-06,0.022916,0.0,0.0,0.0,-3.7e-05,0,0,0,165,0,0,0,0
14860935,0.691939,0.712529,0.0741963,0.0895369,-0.000604568,-0.00321456,0.0108823,-0.000241809,-2.37602e-05,0.521394,-4.58631e-05,8.03623e-06,3.60689e-05,-2.4474e-05,-0.000632981,3.8712e-05,0.349282,2.01133e-08,0.42193,0.0,0.0,0.0,0.0,0.0,0.0,3.08871e-10,1.11105e-05,0.000296114,5.62864e-05,5.31914e-05,0.000147248,0.000143621,0.00756076,0.00756177,0.0136747,0.00881955,0.00882007,0.0716204,4.53886e-11,1.08754e-09,4.54877e-11,2.41507e-06,5e-08,2.43456e-06,0.0,0.0,0.0,0.0,0.0,0.0,0.0,0.0,531,0.132814,0.26762,0.026441,0.0,4.92115e-06,0.0185572,0.0,0.0,0.0,2.9e-05,0,0,0,165,0,0,0,0
15064940,0.691972,0.712583,0.0738084,0.0891808,-0.00102096,-0.00265344,0.00806381,-0.000303087,-0.000515925,0.511964,-4.58243e-05,9.6822e-06,3.60211e-05,-2.4575e-05,-0.00063285,3.90006e-05,0.349282,2.01133e-08,0.42193,0.0,0.0,0.0,0.0,0.0,0.0,3.02945e-10,1.09872e-05,0.000289463,5.61138e-05,5.3035e-05,0.000145567,0.000142016,0.00736487,0.00736575,0.013171,0.00868755,0.00868802,0.0704936,4.2801e-11,1.03418e-09,4.28961e-11,2.41423e-06,5e-08,2.4337e-06,0.0,0.0,0.0,0.0,0.0,0.0,0.0,0.0,531,0.131816,0.265506,0.0105971,0.0,1.04946e-05,0.0194128,0.0,0.0,0.0,1.1e-05,0,0,0,165,0,0,0,0
15266624,0.692016,0.712624,0.0734334,0.0888195,-0.00108662,-0.00250662,0.0116262,-0.000404593,-0.000839642,0.520709,-4.57908e-05,1.12578e-05,3.5974e-05,-2.45916e-05,-0.00063971,3.93045e-05,0.349282,2.01133e-08,0.42193,0.0,0.0,0.0,0.0,0.0,0.0,2.88051e-10,1.06764e-05,0.00050563,5.59551e-05,5.28957e-05,0.000143956,0.000140483,0.00720031,0.00720106,0.0127178,0.00857873,0.00857916,0.0694352,4.05087e-11,9.84343e-10,4.05997e-11,2.41338e-06,5e-08,2.43284e-06,0.0,0.0,0.0,0.0,0.0,0.0,0.0,0.0,531,0.130988,0.263506,0.0306749,0.0,1.70907e-05,0.00556023,0.0,0.0,0.0,0.000118,0,0,0,165,0,0,0,0
15471434,0.692101,0.712718,0.0726209,0.0880603,-0.000424704,-0.00138032,0.0145607,-0.000414848,-0.00091326,0.527484,-4.57313e-05,1.39615e-05,3.5895e-05,-2.46543e-05,-0.000648582,3.97991e-05,0.349282,2.01133e-08,0.42193,0.0,0.0,0.0,0.0,0.0,0.0,3.00785e-10,1.14202e-05,0.000516241,5.57729e-05,5.27337e-05,0.000141845,0.000138477,0.00696832,0.00696888,0.0122094,0.00832854,0.00832891,0.0677579,3.8244e-11,9.32294e-10,3.83306e-11,2.41243e-06,5e-08,2.43185e-06,0.0,0.0,0.0,0.0,0.0,0.0,0.0,0.0,531,0.129064,0.260304,0.0429263,0.0,1.85703e-05,0.0208387,0.0,0.0,0.0,0.000104,0,0,0,165,0,0,0,0
15672041,0.692128,0.712782,0.0722136,0.0876697,0.000254667,-0.000417521,0.0126207,-0.000316997,-0.000793846,0.520497,-4.56996e-05,1.54798e-05,3.58493e-05,-2.46582e-05,-0.000649179,4.01507e-05,0.349282,2.01133e-08,0.42193,0.0,0.0,0.0,0.0,0.0,0.0,2.90694e-10,1.12181e-05,0.00057808,5.56456e-05,5.26169e-05,0.000140396,0.000137098,0.00687459,0.00687504,0.011867,0.00828945,0.00828977,0.0669196,3.64543e-11,8.89142e-10,3.6537e-11,2.41156e-06,5e-08,2.43096e-06,0.0,0.0,0.0,0.0,0.0,0.0,0.0,0.0,531,0.12876,0.258688,0.0473534,0.0,1.60672e-05,0.0114605,0.0,0.0,0.0,-8.9e-05,0,0,0,165,0,0,0,0
15873680,0.692127,0.712833,0.0719644,0.0874662,0.000651332,-0.000987133,0.0155703,-0.000171698,-0.000703576,0.526841,-4.56793e-05,1.65069e-05,3.58184e-05,-2.46123e-05,-0.000653336,4.03433e-05,0.349282,2.01133e-08,0.42193,0.0,0.0,0.0,0.0,0.0,0.0,2.74698e-10,1.07252e-05,0.00061125,5.55253e-05,5.25045e-05,0.000138991,0.000135761,0.00679065,0.00679104,0.0115677,0.00825754,0.00825782,0.0661139,3.48338e-11,8.48614e-10,3.49127e-11,2.41065e-06,5e-08,2.43003e-06,0.0,0.0,0.0,0.0,0.0,0.0,0.0,0.0,531,0.128512,0.257126,0.0366293,0.0,1.41586e-05,0.0136105,0.0,0.0,0.0,-5.9e-05,0,0,0,165,0,0,0,0
16073837,0.69214,0.712851,0.0718293,0.0873314,0.000172383,0.000144772,0.0200961,-6.34849e-05,-0.000638057,0.536726,-4.56663e-05,1.72477e-05,3.57963e-05,-2.45234e-05,-0.000657591,4.04545e-05,0.349282,2.01133e-08,0.42193,0.0,0.0,0.0,0.0,0.0,0.0,2.76741e-10,1.05918e-05,0.000481004,5.53799e-05,5.23768e-05,0.000137602,0.000134444,0.0065885,0.00658877,0.0111923,0.00799506,0.00799529,0.0643928,3.32028e-11,8.10532e-10,3.3278e-11,2.40959e-06,5e-08,2.42895e-06,0.0,0.0,0.0,0.0,0.0,0.0,0.0,0.0,531,0.126453,0.253757,0.00761684,0.0,1.29702e-05,0.000320872,0.0,0.0,0.0,0.000108,0,0,0,165,0,0,0,0
16273679,0.69215,0.712856,0.0717764,0.0872562,0.000693478,0.000826008,0.0187656,3.72093e-05,-0.000396336,0.530916,-4.56604e-05,1.76237e-05,3.57851e-05,-2.44849e-05,-0.000655341,4.05969e-05,0.349282,2.01133e-08,0.42193,0.0,0.0,0.0,0.0,0.0,0.0,3.07224e-10,1.11184e-05,0.000403095,5.52618e-05,5.22758e-05,0.000136279,0.000133193,0.00653218,0.00653242,0.0109807,0.00799405,0.00799424,0.06375,3.18729e-11,7.74707e-10,3.19445e-11,2.40859e-06,5e-08,2.42793e-06,0.0,0.0,0.0,0.0,0.0,0.0,0.0,0.0,531,0.126445,0.252488,0.00267113,0.0,8.05446e-06,0.0125181,0.0,0.0,0.0,-2.7e-05,0,0,0,165,0,0,0,0
16477744,0.692145,0.712865,0.0717294,0.0872586,0.00127841,0.00234502,0.0183564,0.000201617,-4.4527e-05,0.528293,-4.56527e-05,1.7999e-05,3.57753e-05,-2.44918e-05,-0.000654232,4.06973e-05,0.349282,2.01133e-08,0.42193,0.0,0.0,0.0,0.0,0.0,0.0,3.15441e-10,1.13767e-05,0.000336094,5.51534e-05,5.21792e-05,0.000134993,0.000131976,0.00648917,0.00648937,0.0108075,0.00800927,0.00800943,0.0631827,3.06599e-11,7.40977e-10,3.07281e-11,2.40755e-06,5e-08,2.42687e-06,0.0,0.0,0.0,0.0,0.0,0.0,0.0,0.0,531,0.126565,0.251362,0.034614,0.0,3.89277e-06,0.000678202,0.0,0.0,0.0,7e-06,0,0,0,165,0,0,0,0
16681844,0.69212,0.71285,0.0719168,0.0874209,0.00125697,0.00266879,0.0207785,0.000352124,0.000439739,0.533737,-4.56531e-05,1.79436e-05,3.57792e-05,-2.45209e-05,-0.000654605,4.05987e-05,0.349282,2.01133e-08,0.42193,0.0,0.0,0.0,0.0,0.0,0.0,3.17088e-10,1.15816e-05,0.000347372,5.50175e-05,5.2062e-05,0.000133257,0.000130338,0.00636861,0.0063688,0.0105952,0.0078763,0.00787643,0.0620482,2.94208e-11,7.05332e-10,2.94851e-11,2.40635e-06,5e-08,2.42564e-06,0.0,0.0,0.0,0.0,0.0,0.0,0.0,0.0,531,0.12551,0.249095,0.0343992,0.0,8.49987e-06,0.00439683,0.0,0.0,0.0,9.8e-05,0,0,0,165,0,0,0,0
16885775,0.692071,0.712853,0.0721441,0.0875954,0.00143032,0.00390823,0.0321747,0.000497692,0.000915793,0.566537,-4.56535e-05,1.77979e-05,3.5787e-05,-2.45296e-05,-0.000663342,4.01427e-05,0.349282,2.01133e-08,0.42193,0.0,0.0,0.0,0.0,0.0,0.0,3.0682e-10,1.17221e-05,0.000296401,5.49194e-05,5.19725e-05,0.000132055,0.000129203,0.00634109,0.00634127,0.0104916,0.00791168,0.00791179,0.061629,2.84027e-11,6.75562e-10,2.84638e-11,2.40523e-06,5e-08,2.42449e-06,0.0,0.0,0.0,0.0,0.0,0.0,0.0,0.0,531,0.125791,0.248252,0.0020515,0.0,1.79792e-05,0.000962994,0.0,0.0,0.0,4.5e-05,0,0,0,165,0,0,0,0
17085617,0.692048,0.712843,0.07234,0.0877039,0.000556865,0.00581413,0.0301563,0.000558636,0.0014603,0.561711,-4.56495e-05,1.76751e-05,3.57957e-05,-2.48154e-05,-0.000659332,4.0109e-05,0.349282,2.01133e-08,0.42193,0.0,0.0,0.0,0.0,0.0,0.0,3.04808e-10,1.16669e-05,0.000274479,5.48014e-05,5.18688e-05,0.000130861,0.000128079,0.00619337,0.00619351,0.0103172,0.00771205,0.00771214,0.060355,2.73545e-11,6.47451e-10,2.74125e-11,2.40395e-06,5e-08,2.42317e-06,0.0,0.0,0.0,0.0,0.0,0.0,0.0,0.0,531,0.124194,0.245673,0.00996692,0.0,2.96692e-05,0.0187292,0.0,0.0,0.0,-8.9e-05,0,0,0,165,0,0,0,0
17288161,0.692339,0.713047,0.0701087,0.0855348,-0.000265448,0.00741939,0.0274228,0.000441001,0.00231834,0.554964,-4.55003e-05,2.32498e-05,3.56506e-05,-2.57574e-05,-0.000671993,4.10035e-05,0.349282,2.01133e-08,0.42193,0.0,0.0,0.0,0.0,0.0,0.0,2.9528e-10,1.12632e-05,0.000579472,5.47219e-05,5.18025e-05,0.000130285,0.000127541,0.00617835,0.00617848,0.0102724,0.00776397,0.00776405,0.0600986,2.64889e-11,6.24114e-10,2.65441e-11,2.40276e-06,5e-08,2.42196e-06,0.0,0.0,0.0,0.0,0.0,0.0,0.0,0.0,531,0.124612,0.24515,0.0225921,0.0,4.58905e-05,0.0151686,0.0,0.0,0.0,5.5e-05,0,0,0,165,0,0,0,1
17488145,0.692285,0.71304,0.070392,0.0857911,-0.00128002,0.0085562,0.0263633,0.000218465,0.00307826,0.552017,-4.54973e-05,2.27763e-05,3.56687e-05,-2.63102e-05,-0.000667766,4.09163e-05,0.349282,2.01133e-08,0.42193,0.0,0.0,0.0,0.0,0.0,0.0,3.05245e-10,1.15564e-05,0.000649512,5.46184e-05,5.17089e-05,0.000128609,0.000125965,0.00616964,0.00616977,0.0102515,0.00782428,0.00782434,0.0599183,2.56803e-11,5.95737e-10,2.57322e-11,2.40154e-06,5e-08,2.42071e-06,0.0,0.0,0.0,0.0,0.0,0.0,0.0,0.0,531,0.125094,0.244782,0.000747241,0.0,6.11725e-05,0.00242012,0.0,0.0,0.0,-1.9e-05,0,0,0,165,0,0,0,1
17693010,0.692253,0.712983,0.0707812,0.0862041,-0.00153848,0.00896714,0.0231887,-0.000113391,0.00386932,0.539682,-4.5498e-05,2.19687e-05,3.56951e-05,-2.70765e-05,-0.000659449,4.10024e-05,0.349282,2.01133e-08,0.42193,0.0,0.0,0.0,0.0,0.0,0.0,2.76068e-10,1.07527e-05,0.000613462,5.45304e-05,5.16341e-05,0.000127656,0.000125075,0.00617108,0.00617129,0.0102723,0.00792775,0.00792781,0.0600042,2.49064e-11,5.71973e-10,2.49553e-11,2.40026e-06,5e-08,2.4194e-06,0.0,0.0,0.0,0.0,0.0,0.0,0.0,0.0,531,0.125919,0.244957,0.0402954,0.0,7.86349e-05,0.0221798,0.0,0.0,0.0,8.1e-05,0,0,0,165,0,0,0,1
17895421,0.692242,0.712982,0.0708674,0.0862363,-0.00189934,0.0101033,0.0243397,-0.000376677,0.00454729,0.54291,-4.54731e-05,2.20452e-05,3.5697e-05,-2.80262e-05,-0.00065922,4.09723e-05,0.349282,2.01133e-08,0.42193,0.0,0.0,0.0,0.0,0.0,0.0,2.77652e-10,1.10699e-05,0.000725307,5.4434e-05,5.15478e-05,0.000126586,0.000124073,0.00610518,0.00610546,0.0102653,0.00790077,0.00790082,0.0597298,2.41658e-11,5.49473e-10,2.42118e-11,2.39893e-06,5e-08,2.41803e-06,0.0,0.0,0.0,0.0,0.0,0.0,0.0,0.0,531,0.125704,0.244397,0.0402349,0.0,9.24214e-05,0.00771155,0.0,0.0,0.0,9.2e-05,0,0,0,165,0,0,0,0
18096125,0.692229,0.71298,0.0709616,0.0862765,-0.00254494,0.0106626,0.0258886,-0.000646073,0.00537252,0.546528,-4.54489e-05,2.20505e-05,3.56998e-05,-2.90418e-05,-0.00065877,4.09839e-05,0.349282,2.01133e-08,0.42193,0.0,0.0,0.0,0.0,0.0,0.0,2.85667e-10,1.1275e-05,0.000782589,5.43576e-05,5.14794e-05,0.000125559,0.000123114,0.00616381,0.00616417,0.0103636,0.00812054,0.00812061,0.0604202,2.3551e-11,5.28131e-10,2.35942e-11,2.39769e-06,5e-08,2.41677e-06,0.0,0.0,0.0,0.0,0.0,0.0,0.0,0.0,531,0.127441,0.245805,0.0244151,0.0,0.000105748,0.0140479,0.0,0.0,0.0,1.9e-05,0,0,0,165,0,0,0,0
18298629,0.692189,0.712949,0.0713072,0.0865719,-0.00373512,0.00964634,0.0281282,-0.00105555,0.00564982,0.551787,-4.54295e-05,2.15329e-05,3.57162e-05,-3.03846e-05,-0.000657035,4.09852e-05,0.349282,2.01133e-08,0.42193,0.0,0.0,0.0,0.0,0.0,0.0,2.78537e-10,1.1134e-05,0.000834144,5.4241e-05,5.13733e-05,0.00012451,0.000122133,0.00597586,0.00597638,0.010282,0.00782821,0.00782829,0.0593192,2.28237e-11,5.0788e-10,2.28641e-11,2.39617e-06,5e-08,2.41521e-06,0.0,0.0,0.0,0.0,0.0,0.0,0.0,0.0,531,0.125126,0.243555,0.00537684,0.0,0.000114783,0.0404377,0.0,0.0,0.0,9.3e-05,0,0,0,165,0,0,0,0
18502534,0.692148,0.712949,0.0715003,0.0867357,-0.00417475,0.00940516,0.0272638,-0.0014904,0.00589813,0.548317,-4.54037e-05,2.13495e-05,3.57213e-05,-3.17463e-05,-0.000653339,4.13731e-05,0.349282,2.01133e-08,0.42193,0.0,0.0,0.0,0.0,0.0,0.0,2.66938e-10,1.03406e-05,0.000625756,5.4152e-05,5.12868e-05,0.000123512,0.000121198,0.00592791,0.00592858,0.0103094,0.00780035,0.00780046,0.0591601,2.22307e-11,4.88684e-10,2.22686e-11,2.39481e-06,5e-08,2.41381e-06,0.0,0.0,0.0,0.0,0.0,0.0,0.0,0.0,531,0.124903,0.243229,0.0216688,0.0,0.000119855,0.011556,0.0,0.0,0.0,2.8e-05,0,0,0,165,0,0,0,0
18702494,0.692095,0.712907,0.0719459,0.0871339,-0.00486677,0.00916614,0.0246171,-0.00191848,0.0060737,0.539097,-4.53924e-05,2.05721e-05,3.57406e-05,-3.31012e-05,-0.000645906,4.19298e-05,0.349282,2.01133e-08,0.42193,0.0,0.0,0.0,0.0,0.0,0.0,2.8433e-10,1.07964e-05,0.000519438,5.40503e-05,5.1195e-05,0.000122079,0.000119857,0.00588591,0.00588676,0.0103465,0.00777256,0.00777271,0.0589956,2.16803e-11,4.68303e-10,2.17155e-11,2.39347e-06,5e-08,2.41244e-06,0.0,0.0,0.0,0.0,0.0,0.0,0.0,0.0,531,0.124681,0.24289,0.0297788,0.0,0.000121911,0.00372602,0.0,0.0,0.0,-3.6e-05,0,0,0,165,0,0,0,0
18906524,0.692048,0.712857,0.0723972,0.0875385,-0.00488274,0.00917947,0.0216967,-0.00225211,0.00611593,0.528521,-4.5377e-05,1.98295e-05,3.5757e-05,-3.46165e-05,-0.000638196,4.26835e-05,0.349282,2.01133e-08,0.42193,0.0,0.0,0.0,0.0,0.0,0.0,2.95829e-10,1.10707e-05,0.000403617,5.39522e-05,5.11047e-05,0.000121252,0.000119086,0.00578473,0.00578573,0.0103395,0.00761176,0.00761197,0.0583414,2.11135e-11,4.51199e-10,2.11464e-11,2.39202e-06,5e-08,2.41096e-06,0.0,0.0,0.0,0.0,0.0,0.0,0.0,0.0,531,0.123384,0.24154,0.0158695,0.0,0.0001242,0.0295702,0.0,0.0,0.0,-1.2e-05,0,0,0,165,0,0,0,0
19110525,0.692012,0.712811,0.0727848,0.0878765,-0.00554941,0.00823751,0.0233136,-0.00261291,0.00611807,0.533427,-4.53619e-05,1.92456e-05,3.57679e-05,-3.58854e-05,-0.000636286,4.30864e-05,0.349282,2.01133e-08,0.42193,0.0,0.0,0.0,0.0,0.0,0.0,3.08646e-10,1.13706e-05,0.000349197,5.38697e-05,5.10311e-05,0.000120351,0.000118246,0.00577181,0.00577296,0.0104008,0.00762034,0.00762061,0.0583062,2.06458e-11,4.34928e-10,2.06765e-11,2.39077e-06,5e-08,2.40967e-06,0.0,0.0,0.0,0.0,0.0,0.0,0.0,0.0,531,0.123454,0.241467,0.0135707,0.0,0.000122908,0.0128756,0.0,0.0,0.0,-1.9e-05,0,0,0,165,0,0,0,0
19314491,0.692012,0.712776,0.0729618,0.0880141,-0.0064093,0.00844802,0.0249633,-0.00302511,0.00603612,0.537382,-4.53324e-05,1.91442e-05,3.57638e-05,-3.73112e-05,-0.000635435,4.37401e-05,0.349282,2.01133e-08,0.42193,0.0,0.0,0.0,0.0,0.0,0.0,3.04039e-10,1.13749e-05,0.000300282,5.37685e-05,5.09436e-05,0.000119125,0.0001171,0.00569933,0.00570056,0.0104165,0.0075006,0.00750093,0.0577969,2.01563e-11,4.17517e-10,2.01848e-11,2.38944e-06,5e-08,2.40831e-06,0.0,0.0,0.0,0.0,0.0,0.0,0.0,0.0,531,0.122481,0.24041,0.00959681,0.0,0.000122583,0.0082618,0.0,0.0,0.0,-3.8e-05,0,0,0,165,0,0,0,0
19515415,0.691994,0.712731,0.0732735,0.0882557,-0.00728294,0.00809844,0.0274956,-0.00351528,0.00599049,0.545389,-4.53125e-05,1.88127e-05,3.57646e-05,-3.84984e-05,-0.00063516,4.42505e-05,0.349282,2.01133e-08,0.42193,0.0,0.0,0.0,0.0,0.0,0.0,2.85051e-10,1.06772e-05,0.000368227,5.36958e-05,5.0881e-05,0.000118278,0.000116311,0.00571041,0.0057117,0.0104974,0.00754694,0.00754734,0.0579151,1.97516e-11,4.02863e-10,1.97782e-11,2.38831e-06,5e-08,2.40715e-06,0.0,0.0,0.0,0.0,0.0,0.0,0.0,0.0,531,0.122859,0.240655,0.00452608,0.0,0.000120291,0.0397618,0.0,0.0,0.0,7.9e-05,0,0,0,165,0,0,0,0
19719412,0.691958,0.712644,0.0737899,0.0888119,-0.00916486,0.00791942,0.0281821,-0.00415839,0.00597343,0.549535,-4.53062e-05,1.79479e-05,3.57778e-05,-3.95991e-05,-0.000631717,4.48665e-05,0.349282,2.01133e-08,0.42193,0.0,0.0,0.0,0.0,0.0,0.0,2.85771e-10,1.07578e-05,0.000322931,5.36262e-05,5.08232e-05,0.00011746,0.000115546,0.00571833,0.00571963,0.0105809,0.00759049,0.00759096,0.0580447,1.93669e-11,3.88938e-10,1.93918e-11,2.38724e-06,5.00001e-08,2.40605e-06,0.0,0.0,0.0,0.0,0.0,0.0,0.0,0.0,531,0.123213,0.240925,0.00279168,0.0,0.000118693,0.01873,0.0,0.0,0.0,8.2e-05,0,0,0,165,0,0,0,0
19921701,0.691958,0.712597,0.0739775,0.089037,-0.00972078,0.00871691,0.0316891,-0.00471943,0.00587579,0.561123,-4.52803e-05,1.77757e-05,3.57687e-05,-4.0818e-05,-0.000633029,4.5572e-05,0.349282,2.01133e-08,0.42193,0.0,0.0,0.0,0.0,0.0,0.0,2.99562e-10,1.12884e-05,0.000575197,5.35441e-05,5.07521e-05,0.000116644,0.000114783,0.00562068,0.00562193,0.010576,0.00741575,0.00741623,0.0573863,1.8954e-11,3.75655e-10,1.89771e-11,2.38613e-06,5e-08,2.40491e-06,0.0,0.0,0.0,0.0,0.0,0.0,0.0,0.0,531,0.121787,0.239554,0.00439761,0.0,0.000119296,0.00264197,0.0,0.0,0.0,-2.8e-05,0,0,0,165,0,0,0,0
20125717,0.691968,0.712596,0.0739523,0.0889825,-0.00986287,0.00961772,0.032693,-0.00538944,0.00612592,0.567654,-4.5245e-05,1.80706e-05,3.57463e-05,-4.19918e-05,-0.000633956,4.65068e-05,0.349282,2.01133e-08,0.42193,0.0,0.0,0.0,0.0,0.0,0.0,3.01633e-10,1.12099e-05,0.000454347,5.34824e-05,5.06966e-05,0.000115578,0.000113785,0.00568112,0.00568228,0.0107044,0.00756948,0.00757002,0.0579836,1.86171e-11,3.61439e-10,1.86385e-11,2.38521e-06,5e-08,2.40397e-06,0.0,0.0,0.0,0.0,0.0,0.0,0.0,0.0,531,0.123043,0.240798,0.0245181,0.0,0.000124427,0.00960673,0.0,0.0,0.0,-1.6e-05,0,0,0,165,0,0,0,0
20328106,0.691958,0.712575,0.0740965,0.0891133,-0.0101737,0.010629,0.0310267,-0.00598531,0.00659466,0.565642,-4.52196e-05,1.80057e-05,3.57335e-05,-4.30816e-05,-0.000630523,4.76541e-05,0.349282,2.01133e-08,0.42193,0.0,0.0,0.0,0.0,0.0,0.0,2.71403e-10,1.01144e-05,0.000684593,5.34364e-05,5.0654e-05,0.000114836,0.00011309,0.00576576,0.00576686,0.0108707,0.00780599,0.00780657,0.0589922,1.83192e-11,3.49409e-10,1.83391e-11,2.38442e-06,5e-08,2.40315e-06,0.0,0.0,0.0,0.0,0.0,0.0,0.0,0.0,531,0.12495,0.242883,0.0105335,0.0,0.000130322,0.0418666,0.0,0.0,0.0,-6.2e-05,0,0,0,165,0,0,0,0
20532098,0.691935,0.712552,0.0742902,0.0893106,-0.00901949,0.00946843,0.0256223,-0.00619724,0.00676569,0.550078,-4.51925e-05,1.77885e-05,3.5722e-05,-4.43711e-05,-0.000622103,4.93421e-05,0.349282,2.01133e-08,0.42193,0.0,0.0,0.0,0.0,0.0,0.0,2.70737e-10,9.8169e-06,0.000596893,5.3373e-05,5.05921e-05,0.00011409,0.000112391,0.00571932,0.0057203,0.0109283,0.00777731,0.00777787,0.0591227,1.79812e-11,3.37921e-10,1.79996e-11,2.38359e-06,5e-08,2.4023e-06,0.0,0.0,0.0,0.0,0.0,0.0,0.0,0.0,531,0.12472,0.243152,0.0193568,0.0,0.000137466,0.0029958,0.0,0.0,0.0,-7e-06,0,0,0,165,0,0,0,0
20732178,0.69195,0.712509,0.0743611,0.0894813,-0.00815723,0.00838135,0.0267378,-0.0063033,0.00681776,0.555504,-4.51649e-05,1.77617e-05,3.57065e-05,-4.53735e-05,-0.000621995,5.02891e-05,0.349282,2.01133e-08,0.42193,0.0,0.0,0.0,0.0,0.0,0.0,3.04792e-10,1.08829e-05,0.000551082,5.33211e-05,5.05489e-05,0.000113375,0.000111721,0.00576028,0.00576119,0.0110678,0.00794177,0.00794233,0.0600104,1.76956e-11,3.26946e-10,1.77126e-11,2.3829e-06,5e-08,2.40159e-06,0.0,0.0,0.0,0.0,0.0,0.0,0.0,0.0,531,0.126032,0.24497,0.000511736,0.0,0.000135724,0.0322501,0.0,0.0,0.0,2.2e-05,0,0,0,165,0,0,0,0
20932178,0.691928,0.712471,0.074595,0.0897515,-0.00801059,0.00765594,0.0246281,-0.00597284,0.00632187,0.551507,-4.51375e-05,1.75196e-05,3.5694e-05,-4.65172e-05,-0.000617803,5.1657e-05,0.349282,2.01133e-08,0.42193,0.0,0.0,0.0,0.0,0.0,0.0,3.38951e-10,1.1679e-05,0.000555723,5.32447e-05,5.04766e-05,0.000112645,0.000111035,0.00559078,0.00559155,0.0110062,0.00763383,0.00763433,0.0591433,1.73456e-11,3.16452e-10,1.73612e-11,2.38215e-06,5e-08,2.40081e-06,0.0,0.0,0.0,0.0,0.0,0.0,0.0,0.0,531,0.123564,0.243194,0.00227383,0.0,0.000128399,0.0145852,0.0,0.0,0.0,2e-05,0,0,0,165,0,0,0,0
21136079,0.691919,0.712405,0.0749024,0.0900918,-0.00721998,0.0075336,0.0279511,-0.00590653,0.00618221,0.5624,-4.51186e-05,1.71889e-05,3.56862e-05,-4.73097e-05,-0.000618649,5.23387e-05,0.349282,2.01133e-08,0.42193,0.0,0.0,0.0,0.0,0.0,0.0,3.47937e-10,1.22583e-05,0.000567882,5.31864e-05,5.04296e-05,0.000111693,0.00011014,0.00559571,0.00559638,0.0110868,0.00767786,0.00767834,0.0595211,1.70689e-11,3.05175e-10,1.70832e-11,2.38156e-06,5e-08,2.40021e-06,0.0,0.0,0.0,0.0,0.0,0.0,0.0,0.0,531,0.12392,0.24397,0.0200676,0.0,0.000124364,0.0273284,0.0,0.0,0.0,-6.4e-05,0,0,0,165,0,0,0,0
21336915,0.691945,0.712397,0.0748414,0.090013,-0.00721827,0.0072513,0.0309219,-0.00578851,0.00601025,0.572237,-4.50819e-05,1.7633e-05,3.56588e-05,-4.81369e-05,-0.000621765,5.30727e-05,0.349282,2.01133e-08,0.42193,0.0,0.0,0.0,0.0,0.0,0.0,3.29046e-10,1.171e-05,0.000660533,5.31387e-05,5.03878e-05,0.000111024,0.000109512,0.00557969,0.00558027,0.011133,0.00766105,0.00766148,0.0596181,1.68095e-11,2.95612e-10,1.68228e-11,2.38105e-06,5e-08,2.39968e-06,0.0,0.0,0.0,0.0,0.0,0.0,0.0,0.0,531,0.123784,0.244168,0.0442227,0.0,0.000119667,0.0177116,0.0,0.0,0.0,-2.5e-05,0,0,0,165,0,0,0,0
21541002,0.691937,0.712357,0.0750402,0.0902208,-0.00659486,0.00717893,0.0254297,-0.00559569,0.00586497,0.559257,-4.50605e-05,1.74681e-05,3.56492e-05,-4.89631e-05,-0.000614299,5.4404e-05,0.349282,2.01133e-08,0.42193,0.0,0.0,0.0,0.0,0.0,0.0,3.1924e-10,1.12247e-05,0.000502178,5.30955e-05,5.03496e-05,0.000110374,0.0001089,0.00557655,0.00557703,0.0111807,0.00766418,0.00766458,0.0597696,1.65666e-11,2.86454e-10,1.65789e-11,2.38061e-06,5e-08,2.39922e-06,0.0,0.0,0.0,0.0,0.0,0.0,0.0,0.0,531,0.123809,0.244478,0.0404869,0.0,0.00011673,0.0197135,0.0,0.0,0.0,6.6e-05,0,0,0,165,0,0,0,0
21742618,0.69198,0.712353,0.0748233,0.0900974,-0.00553565,0.00783566,0.023467,-0.00514793,0.00558772,0.556985,-4.50199e-05,1.80285e-05,3.56193e-05,-4.98319e-05,-0.000613785,5.54241e-05,0.349282,2.01133e-08,0.42193,0.0,0.0,0.0,0.0,0.0,0.0,3.01384e-10,1.08953e-05,0.000490043,5.30408e-05,5.03011e-05,0.000109729,0.000108291,0.00546593,0.0054663,0.011121,0.00743878,0.00743911,0.0590486,1.6298e-11,2.77698e-10,1.63094e-11,2.38019e-06,5e-08,2.39878e-06,0.0,0.0,0.0,0.0,0.0,0.0,0.0,0.0,531,0.121975,0.242999,0.00901598,0.0,0.00011346,0.00628851,0.0,0.0,0.0,8.2e-05,0,0,0,165,0,0,0,0
21946546,0.69204,0.712347,0.074614,0.0898684,-0.0048894,0.00694965,0.0202042,-0.0048959,0.00560447,0.548699,-4.49812e-05,1.86465e-05,3.55911e-05,-5.06218e-05,-0.000611201,5.65044e-05,0.349282,2.01133e-08,0.42193,0.0,0.0,0.0,0.0,0.0,0.0,2.85394e-10,1.07185e-05,0.000408665,5.30065e-05,5.0275e-05,0.000109196,0.000107789,0.00549831,0.00549862,0.0111993,0.00752102,0.00752131,0.0594922,1.60804e-11,2.69309e-10,1.6091e-11,2.37986e-06,5e-08,2.39843e-06,0.0,0.0,0.0,0.0,0.0,0.0,0.0,0.0,531,0.122647,0.24391,0.0407834,0.0,0.000112669,0.0230696,0.0,0.0,0.0,1.6e-05,0,0,0,165,0,0,0,0
22146594,0.692083,0.712345,0.074466,0.0896736,-0.00421326,0.00574023,0.0244849,-0.00453361,0.00540706,0.561631,-4.49482e-05,1.91393e-05,3.55667e-05,-5.11702e-05,-0.000616107,5.67863e-05,0.349282,2.01133e-08,0.42193,0.0,0.0,0.0,0.0,0.0,0.0,2.88148e-10,1.05667e-05,0.000347123,5.29689e-05,5.02452e-05,0.00010859,0.000107219,0.00550444,0.00550473,0.0112429,0.00754051,0.00754076,0.0596502,1.58724e-11,2.61246e-10,1.58823e-11,2.37957e-06,5.00001e-08,2.39814e-06,0.0,0.0,0.0,0.0,0.0,0.0,0.0,0.0,531,0.122806,0.244234,0.0198491,0.0,0.000107898,0.0102568,0.0,0.0,0.0,6.3e-05,0,0,0,165,0,0,0,0
22351327,0.692129,0.712373,0.0741325,0.0893637,-0.00300377,0.0045848,0.0254908,-0.00395891,0.00487063,0.564545,-4.49075e-05,1.98999e-05,3.55359e-05,-5.18209e-05,-0.000618231,5.74132e-05,0.349282,2.01133e-08,0.42193,0.0,0.0,0.0,0.0,0.0,0.0,3.0341e-10,1.09212e-05,0.000406077,5.29239e-05,5.02033e-05,0.000107987,0.000106648,0.00541326,0.00541353,0.0111851,0.00734898,0.00734919,0.0589524,1.56425e-11,2.53513e-10,1.56518e-11,2.3793e-06,5e-08,2.39785e-06,0.0,0.0,0.0,0.0,0.0,0.0,0.0,0.0,531,0.121236,0.242801,0.0127735,0.0,9.81215e-05,0.00568298,0.0,0.0,0.0,-1e-05,0,0,0,165,0,0,0,0
22555420,0.692155,0.712377,0.0739948,0.0892416,-0.0016547,0.00306872,0.0275764,-0.00335225,0.00434315,0.571897,-4.48769e-05,2.03655e-05,3.55145e-05,-5.23219e-05,-0.000620589,5.77899e-05,0.349282,2.01133e-08,0.42193,0.0,0.0,0.0,0.0,0.0,0.0,3.04341e-10,1.10487e-05,0.000352264,5.28808e-05,5.01658e-05,0.000107175,0.00010588,0.00537082,0.00537109,0.0111695,0.00726119,0.00726137,0.058643,1.54298e-11,2.4518e-10,1.54386e-11,2.37906e-06,5e-08,2.39759e-06,0.0,0.0,0.0,0.0,0.0,0.0,0.0,0.0,531,0.12051,0.242163,0.0250263,0.0,8.81554e-05,0.0047863,0.0,0.0,0.0,5.9e-05,0,0,0,165,0,0,0,0
22755354,0.692179,0.712417,0.0737237,0.088971,-0.000779179,0.00136462,0.0292754,-0.00277705,0.00372396,0.580592,-4.48459e-05,2.10273e-05,3.54904e-05,-5.27348e-05,-0.00062411,5.80434e-05,0.349282,2.01133e-08,0.42193,0.0,0.0,0.0,0.0,0.0,0.0,3.11869e-10,1.14904e-05,0.000321774,5.28556e-05,5.01395e-05,0.000106616,0.00010535,0.00538979,0.00539009,0.0112163,0.0073085,0.00730867,0.0588668,1.52517e-11,2.3809e-10,1.526e-11,2.37887e-06,5e-08,2.39739e-06,0.0,0.0,0.0,0.0,0.0,0.0,0.0,0.0,531,0.120901,0.242625,0.0204206,0.0,7.53647e-05,0.000457431,0.0,0.0,0.0,1.3e-05,0,0,0,165,0,0,0,0
22959335,0.692199,0.712436,0.0735492,0.0888048,-5.07894e-05,0.00136647,0.0306197,-0.00220966,0.00314967,0.585674,-4.48231e-05,2.14562e-05,3.5474e-05,-5.30794e-05,-0.000625319,5.83325e-05,0.349282,2.01133e-08,0.42193,0.0,0.0,0.0,0.0,0.0,0.0,2.9039e-10,1.12414e-05,0.00030756,5.28305e-05,5.01163e-05,0.000106074,0.000104835,0.00541165,0.00541198,0.0112648,0.00736415,0.0073643,0.0591149,1.50816e-11,2.31292e-10,1.50896e-11,2.3787e-06,5e-08,2.39721e-06,0.0,0.0,0.0,0.0,0.0,0.0,0.0,0.0,531,0.121361,0.243136,0.0151489,0.0,6.34631e-05,0.0308875,0.0,0.0,0.0,-1e-05,0,0,0,165,0,0,0,0
23163414,0.692175,0.71246,0.0735712,0.0887839,-0.000218706,0.00150065,0.031493,-0.0016709,0.00261417,0.58715,-4.48074e-05,2.16307e-05,3.54655e-05,-5.33901e-05,-0.000624128,5.86752e-05,0.349282,2.01133e-08,0.42193,0.0,0.0,0.0,0.0,0.0,0.0,2.91598e-10,1.0984e-05,0.000343029,5.2805e-05,5.00863e-05,0.000105605,0.000104389,0.00537228,0.00537262,0.0112507,0.00729076,0.0072909,0.0588371,1.48942e-11,2.24762e-10,1.49019e-11,2.37852e-06,5e-08,2.39702e-06,0.0,0.0,0.0,0.0,0.0,0.0,0.0,0.0,531,0.120755,0.242564,0.00506034,0.0,5.27937e-05,0.0268007,0.0,0.0,0.0,7.7e-05,0,0,0,165,0,0,0,0
23364995,0.692174,0.712451,0.0736306,0.0888119,-0.000166896,0.000894549,0.0312738,-0.00131696,0.00219785,0.590202,-4.47969e-05,2.17177e-05,3.54606e-05,-5.36116e-05,-0.000623294,5.88872e-05,0.349282,2.01133e-08,0.42193,0.0,0.0,0.0,0.0,0.0,0.0,2.67838e-10,1.05067e-05,0.000448053,5.27837e-05,5.00686e-05,0.000105083,0.000103894,0.00539598,0.00539635,0.0112999,0.00735489,0.00735505,0.0591193,1.47381e-11,2.18479e-10,1.47456e-11,2.37837e-06,5.00001e-08,2.39686e-06,0.0,0.0,0.0,0.0,0.0,0.0,0.0,0.0,531,0.121285,0.243145,0.0310595,0.0,4.43415e-05,0.0246894,0.0,0.0,0.0,8.9e-05,0,0,0,165,0,0,0,0
23569044,0.692171,0.712453,0.0736519,0.0888011,-0.000656872,0.00105838,0.031193,-0.00107607,0.00179512,0.595116,-4.4787e-05,2.1849e-05,3.54551e-05,-5.37954e-05,-0.000623248,5.90241e-05,0.349282,2.01133e-08,0.42193,0.0,0.0,0.0,0.0,0.0,0.0,3.05842e-10,1.11896e-05,0.000385104,5.2765e-05,5.00521e-05,0.000104573,0.000103411,0.00542424,0.00542461,0.0113499,0.00743068,0.00743085,0.0594628,1.45908e-11,2.12442e-10,1.45981e-11,2.37822e-06,5.00001e-08,2.3967e-06,0.0,0.0,0.0,0.0,0.0,0.0,0.0,0.0,531,0.121908,0.24385,0.00493958,0.0,3.61141e-05,0.00249912,0.0,0.0,0.0,0.000115,0,0,0,165,0,0,0,0
